{"type": "FeatureCollection", "features": [{"type": "Feature", "geometry": {"type": "Point", "coordinates": [126.9464255, 37.5668489]}, "properties": {"name": "대신교회", "address": "(03721) 서울 서대문구 성산로567 2층", "members_num": 400.0, "marker-color": "#EF4444"}}, {"type": "Feature", "geometry": {"type": "Point", "coordinates": [126.9365259, 37.5451883]}, "properties": {"name": "하늘가족교회", "address": "(04122) 서울 마포구 독막로 28길 46", "members_num": 800.0, "marker-color": "#EF4444"}}, {"type": "Feature", "geometry": {"type": "Point", "coordinates": [127.0137778, 37.579137]}, "properties": {"name": "남부교회", "address": "(03094) 서울 종로구 지봉로101-5", "members_num": 570.0, "marker-color": "#EF4444"}}, {"type": "Feature", "geometry": {"type": "Point", "coordinates": [127.0033238, 37.4763206]}, "properties": {"name": "새로운교회", "address": "(1) 서울 서초구 방배로2길24-5", "members_num": 5000.0, "marker-color": "#EF4444"}}, {"type": "Feature", "geometry": {"type": "Point", "coordinates": [127.0137778, 37.579137]}, "properties": {"name": "남부교회", "address": "(03094) 서울 종로구 지봉로 101-5", "members_num": 400.0, "marker-color": "#EF4444"}}, {"type": "Feature", "geometry": {"type": "Point", "coordinates": [127.0805507, 37.6156075]}, "properties": {"name": "해성교회", "address": "(02031) 서울 중랑구 공릉로 50-1", "members_num": 500.0, "marker-color": "#EF4444"}}, {"type": "Feature", "geometry": {"type": "Point", "coordinates": [126.9194187, 37.4628666]}, "properties": {"name": "큰믿음유신교회", "address": "(151-884) 서울 관악구 난곡로 84", "members_num": 500.0, "marker-color": "#EF4444"}}, {"type": "Feature", "geometry": {"type": "Point", "coordinates": [127.0497836, 37.6176941]}, "properties": {"name": "꿈의숲교회", "address": "(02762) 서울 성북구 장월로 29길 9", "members_num": 600.0, "marker-color": "#EF4444"}}, {"type": "Feature", "geometry": {"type": "Point", "coordinates": [126.9122039, 37.5064838]}, "properties": {"name": "동천교회", "address": "(07362) 서울 영등포구 신길로 40길 10", "members_num": 800.0, "marker-color": "#EF4444"}}, {"type": "Feature", "geometry": {"type": "Point", "coordinates": [127.0148422, 37.6082599]}, "properties": {"name": "충현교회", "address": "(02718) 서울 성북구 서경로 9길 11", "members_num": 4000.0, "marker-color": "#EF4444"}}, {"type": "Feature", "geometry": {"type": "Point", "coordinates": [127.0947229, 37.50567119999999]}, "properties": {"name": "강남중앙교회", "address": "(05601) 서울 송파구 석촌호수로 162", "members_num": 700.0, "marker-color": "#EF4444"}}, {"type": "Feature", "geometry": {"type": "Point", "coordinates": [127.1425383, 37.4893978]}, "properties": {"name": "브니엘", "address": "(05771) 서울 송파구 양산로1", "members_num": 500.0, "marker-color": "#EF4444"}}, {"type": "Feature", "geometry": {"type": "Point", "coordinates": [127.0383108, 37.6056722]}, "properties": {"name": "영광교회", "address": "(02750) 서울 성북구 오패산로10길 27", "members_num": 600.0, "marker-color": "#EF4444"}}, {"type": "Feature", "geometry": {"type": "Point", "coordinates": [126.9747559, 37.5552574]}, "properties": {"name": "남대문교회", "address": "(04637) 서울 중구 퇴계로 6", "members_num": 25000.0, "marker-color": "#EF4444"}}, {"type": "Feature", "geometry": {"type": "Point", "coordinates": [127.0077798, 37.5525314]}, "properties": {"name": "나눔의교회", "address": "(04599) 서울 중구 동호로11길 111", "members_num": 500.0, "marker-color": "#EF4444"}}, {"type": "Feature", "geometry": {"type": "Point", "coordinates": [127.0077798, 37.5525314]}, "properties": {"name": "나눔의교회", "address": "(04599) 서울 중구 동호로 11길 111", "members_num": 500.0, "marker-color": "#EF4444"}}, {"type": "Feature", "geometry": {"type": "Point", "coordinates": [127.0817906, 37.5722171]}, "properties": {"name": "세계중보기도센터", "address": "(02244) 서울 중랑구 면목로 21길. 33-8 3층", "members_num": 1000.0, "marker-color": "#EF4444"}}, {"type": "Feature", "geometry": {"type": "Point", "coordinates": [126.9666258, 37.5266412]}, "properties": {"name": "신용산교회", "address": "(04387) 서울 용산구 서빙고로 17", "members_num": 1000.0, "marker-color": "#EF4444"}}, {"type": "Feature", "geometry": {"type": "Point", "coordinates": [126.9335685, 37.4832734]}, "properties": {"name": "은천교회", "address": "(08779) 서울 관악구 남부순환로 1654", "members_num": 400.0, "marker-color": "#EF4444"}}, {"type": "Feature", "geometry": {"type": "Point", "coordinates": [127.0846131, 37.5780848]}, "properties": {"name": "동일교회", "address": "(02240) 서울 중랑구 면목동 35길21 동일교회", "members_num": 1500.0, "marker-color": "#EF4444"}}, {"type": "Feature", "geometry": {"type": "Point", "coordinates": [126.9668862, 37.5261321]}, "properties": {"name": "신용산교회", "address": "(04387) 서울 용산구 서빙고로 17 신용산 교회", "members_num": 1000.0, "marker-color": "#EF4444"}}, {"type": "Feature", "geometry": {"type": "Point", "coordinates": [126.9668862, 37.5261321]}, "properties": {"name": "신용산교회", "address": "(04387) 서울 용산구 서빙고로 17 신용산교회", "members_num": 800.0, "marker-color": "#EF4444"}}, {"type": "Feature", "geometry": {"type": "Point", "coordinates": [127.0612648, 37.6308539]}, "properties": {"name": "월광교회", "address": "(01905) 서울 노원구 월계로 366", "members_num": 400.0, "marker-color": "#EF4444"}}, {"type": "Feature", "geometry": {"type": "Point", "coordinates": [126.9058099, 37.4741039]}, "properties": {"name": "남문교회", "address": "(08553) 서울 금천구 독산로 94가길 29", "members_num": 400.0, "marker-color": "#EF4444"}}, {"type": "Feature", "geometry": {"type": "Point", "coordinates": [126.9139141, 37.4932218]}, "properties": {"name": "보라매교회", "address": "(07062) 서울 동작구 서울특별시 동작구 여의대방로 10가길 22", "members_num": 350.0, "marker-color": "#EF4444"}}, {"type": "Feature", "geometry": {"type": "Point", "coordinates": [127.0673291, 37.6611845]}, "properties": {"name": "빛가온교회", "address": "(01680) 서울 노원구 상계로9나길 34", "members_num": 2000.0, "marker-color": "#EF4444"}}, {"type": "Feature", "geometry": {"type": "Point", "coordinates": [126.851105, 37.5646884]}, "properties": {"name": "성현교회", "address": "(07527) 서울 강서구 양천로 57길 9-20", "members_num": 313.0, "marker-color": "#EF4444"}}, {"type": "Feature", "geometry": {"type": "Point", "coordinates": [126.9482271, 37.48824700000001]}, "properties": {"name": "봉신교회", "address": "(08729) 서울 관악구 은천로 21길 36 봉신교회", "members_num": 350.0, "marker-color": "#EF4444"}}, {"type": "Feature", "geometry": {"type": "Point", "coordinates": [127.0237144, 37.6196596]}, "properties": {"name": "소망교회", "address": "(01178) 서울 강북구 도봉로27길 80-17", "members_num": 350.0, "marker-color": "#EF4444"}}, {"type": "Feature", "geometry": {"type": "Point", "coordinates": [126.9716487, 37.5301773]}, "properties": {"name": "도원동교회", "address": "(04356) 서울 용산구 12길 11-8", "members_num": 800.0, "marker-color": "#EF4444"}}, {"type": "Feature", "geometry": {"type": "Point", "coordinates": [127.0021021, 37.5609516]}, "properties": {"name": "신광교회", "address": "(04618) 서울 중구 동호로 27길 36", "members_num": 440.0, "marker-color": "#EF4444"}}, {"type": "Feature", "geometry": {"type": "Point", "coordinates": [126.9058099, 37.4741039]}, "properties": {"name": "남문교회", "address": "(08553) 서울 금천구 독산로 94가길 29", "members_num": 400.0, "marker-color": "#EF4444"}}, {"type": "Feature", "geometry": {"type": "Point", "coordinates": [127.0674857, 37.6172514]}, "properties": {"name": "한양제일교회", "address": "(01913) 서울 노원구 마들로 1가길 123 1층 행정실", "members_num": 500.0, "marker-color": "#EF4444"}}, {"type": "Feature", "geometry": {"type": "Point", "coordinates": [127.0787064, 37.5043394]}, "properties": {"name": "새한교회", "address": "(05573) 서울시 송파구 도곡로 62길 21 (05573) 서울시 송파구 도곡로 62길 21", "members_num": 500.0, "marker-color": "#EF4444"}}, {"type": "Feature", "geometry": {"type": "Point", "coordinates": [126.7619421, 37.4848336]}, "properties": {"name": "부천참된교회", "address": "(14721) 서울 부천시 중동로 49번길 35", "members_num": 1100.0, "marker-color": "#EF4444"}}, {"type": "Feature", "geometry": {"type": "Point", "coordinates": [126.9095671, 37.4944948]}, "properties": {"name": "대림감리교회", "address": "(07437) 서울특별시 영등포구 여의대방로17", "members_num": 3000.0, "marker-color": "#EF4444"}}, {"type": "Feature", "geometry": {"type": "Point", "coordinates": [127.0383108, 37.6056722]}, "properties": {"name": "영광교회", "address": "(02750) 서울 성북구 오패산로10길27,3층사무실(하월곡동)", "members_num": 700.0, "marker-color": "#EF4444"}}, {"type": "Feature", "geometry": {"type": "Point", "coordinates": [126.9240251, 37.6032789]}, "properties": {"name": "은평", "address": "(03459) 서울 은평구 응암로 379", "members_num": 1500.0, "marker-color": "#EF4444"}}, {"type": "Feature", "geometry": {"type": "Point", "coordinates": [127.0950124, 37.5065996]}, "properties": {"name": "강남중앙교회", "address": "(서울) 송파구 석촌호수로 162", "members_num": 1500.0, "marker-color": "#EF4444"}}, {"type": "Feature", "geometry": {"type": "Point", "coordinates": [126.97052, 37.564968]}, "properties": {"name": "평안교회", "address": "(04516) 서울 중구 서소문로 89-11", "members_num": 500.0, "marker-color": "#EF4444"}}, {"type": "Feature", "geometry": {"type": "Point", "coordinates": [127.0784993, 37.7993658]}, "properties": {"name": "예향교회", "address": "(11481) 경기 양주시 고읍로 36-17", "members_num": 4000.0, "marker-color": "#EF4444"}}, {"type": "Feature", "geometry": {"type": "Point", "coordinates": [127.0448535, 37.2019959]}, "properties": {"name": "신나는교회", "address": "(18416) 경기 화성시 병점중앙로 36", "members_num": 4000.0, "marker-color": "#EF4444"}}, {"type": "Feature", "geometry": {"type": "Point", "coordinates": [127.0597469, 37.0844581]}, "properties": {"name": "송탄중앙침례교회", "address": "(17755) 경기 평택시 탄현로368번길25", "members_num": 1000.0, "marker-color": "#EF4444"}}, {"type": "Feature", "geometry": {"type": "Point", "coordinates": [127.2749023, 37.0085478]}, "properties": {"name": "안성성결교회", "address": "(17590) 경기 안성시 산수유길17(봉남동347)", "members_num": 500.0, "marker-color": "#EF4444"}}, {"type": "Feature", "geometry": {"type": "Point", "coordinates": [127.0684452, 37.1370125]}, "properties": {"name": "오산제일교회", "address": "(오산제일교회) 경기 오산시 오산로 111", "members_num": 800.0, "marker-color": "#EF4444"}}, {"type": "Feature", "geometry": {"type": "Point", "coordinates": [127.1509374, 37.4056146]}, "properties": {"name": "서광교회", "address": "(13511) 경기 성남시 분당구 판교로 685", "members_num": 500.0, "marker-color": "#EF4444"}}, {"type": "Feature", "geometry": {"type": "Point", "coordinates": [127.1234646, 37.32955279999999]}, "properties": {"name": "동백동산교회", "address": "(16875) 경기 용인시 수지구 죽전동 711-1303", "members_num": 350.0, "marker-color": "#EF4444"}}, {"type": "Feature", "geometry": {"type": "Point", "coordinates": [127.5066669, 37.8330436]}, "properties": {"name": "가평교회", "address": "(가평읍문화로) 경기 가평군 가평읍문화로226~1큐브하임 102동203호", "members_num": 500.0, "marker-color": "#EF4444"}}, {"type": "Feature", "geometry": {"type": "Point", "coordinates": [126.8754445, 37.29348450000001]}, "properties": {"name": "성산교회", "address": "(15548) 경기 안산시 상록구 각골동로27", "members_num": 850.0, "marker-color": "#EF4444"}}, {"type": "Feature", "geometry": {"type": "Point", "coordinates": [127.0226248, 37.2797977]}, "properties": {"name": "수원제일교회", "address": "(16243) 경기 수원시 팔달구 팔달문로 57번길 3", "members_num": 4000.0, "marker-color": "#EF4444"}}, {"type": "Feature", "geometry": {"type": "Point", "coordinates": [127.1361296, 37.3723624]}, "properties": {"name": "분당하나교회", "address": "(13587) 경기 성남시 분당구 불정로362 606동 1604호", "members_num": 1000.0, "marker-color": "#EF4444"}}, {"type": "Feature", "geometry": {"type": "Point", "coordinates": [127.2470973, 37.422163]}, "properties": {"name": "복된이웃교회", "address": "(12747) 경기 광주시 회안대로 689, 106동 2505호", "members_num": 3000.0, "marker-color": "#EF4444"}}, {"type": "Feature", "geometry": {"type": "Point", "coordinates": [126.8173004, 37.2848526]}, "properties": {"name": "이음동산교회", "address": "(18244) 경기 화성시 꽃내음1길5-20, 6층(엔터타워2), 이음동산교회", "members_num": 400.0, "marker-color": "#EF4444"}}, {"type": "Feature", "geometry": {"type": "Point", "coordinates": [127.1684341, 37.2831084]}, "properties": {"name": "주님의교회", "address": "(16999) 경기 용인시 기흥구 동백8로131번길 45 주님의 교회", "members_num": 500.0, "marker-color": "#EF4444"}}, {"type": "Feature", "geometry": {"type": "Point", "coordinates": [127.1647708, 37.4417964]}, "properties": {"name": "순복음성남교회", "address": "(13233) 경기 성남시 중원구 금상로84 순복음성남교회", "members_num": 420.0, "marker-color": "#EF4444"}}, {"type": "Feature", "geometry": {"type": "Point", "coordinates": [126.7683605, 37.5137226]}, "properties": {"name": "약대중앙교회", "address": "(14513) 경기 부천시 원미구 약대동 77-4", "members_num": 500.0, "marker-color": "#EF4444"}}, {"type": "Feature", "geometry": {"type": "Point", "coordinates": [127.1972952, 37.1415274]}, "properties": {"name": "송전교회", "address": "(17136) 경기 용인시 처인구 이동읍 경기동로 687번길 17-3 송전교회", "members_num": 500.0, "marker-color": "#EF4444"}}, {"type": "Feature", "geometry": {"type": "Point", "coordinates": [126.7856906, 37.4923324]}, "properties": {"name": "복된교회", "address": "(14570) 경기 부천시 원미구 조종로 8번길 25", "members_num": 3000.0, "marker-color": "#EF4444"}}, {"type": "Feature", "geometry": {"type": "Point", "coordinates": [127.0411305, 37.249764]}, "properties": {"name": "소망교회", "address": "(854) 경기 수원시 권선구 동탄원천로", "members_num": 800.0, "marker-color": "#EF4444"}}, {"type": "Feature", "geometry": {"type": "Point", "coordinates": [127.2749023, 37.0085478]}, "properties": {"name": "안성성결교회", "address": "(17590) 경기 안성시 산수유길 17", "members_num": 400.0, "marker-color": "#EF4444"}}, {"type": "Feature", "geometry": {"type": "Point", "coordinates": [126.7816439, 37.4987243]}, "properties": {"name": "꿈마을엘림교회", "address": "(14551) 경기 부천시 원미구 조마루로 341", "members_num": 800.0, "marker-color": "#EF4444"}}, {"type": "Feature", "geometry": {"type": "Point", "coordinates": [127.0286717, 37.2803086]}, "properties": {"name": "수원영락교회", "address": "(16249) 경기 수원시 팔달구 팔달문로108번길 25-2", "members_num": 600.0, "marker-color": "#EF4444"}}, {"type": "Feature", "geometry": {"type": "Point", "coordinates": [126.7215529, 37.6000917]}, "properties": {"name": "김포성문교회", "address": "(경기도 김포시 풍무로 54) 경기 김포시 (풍무동, 김포성문교회)", "members_num": 5000.0, "marker-color": "#EF4444"}}, {"type": "Feature", "geometry": {"type": "Point", "coordinates": [126.8275866, 37.6332236]}, "properties": {"name": "성광침례교회", "address": "(10501) 경기 고양시 덕양구 화신로 317", "members_num": 2500.0, "marker-color": "#EF4444"}}, {"type": "Feature", "geometry": {"type": "Point", "coordinates": [126.7629436, 37.5063606]}, "properties": {"name": "부천참좋은교회", "address": "(14537) 경기 부천시 원미구 석천로 211", "members_num": 1000.0, "marker-color": "#EF4444"}}, {"type": "Feature", "geometry": {"type": "Point", "coordinates": [126.9713353, 37.304963]}, "properties": {"name": "한목교회", "address": "(16353) 경기 수원시 장안구 율전동 111 - 1", "members_num": 10917.0, "marker-color": "#EF4444"}}, {"type": "Feature", "geometry": {"type": "Point", "coordinates": [127.1217657, 37.39321530000001]}, "properties": {"name": "사랑의교회", "address": "(13565) 경기 성남시 분당구 이매로16, 703-903", "members_num": 70000.0, "marker-color": "#EF4444"}}, {"type": "Feature", "geometry": {"type": "Point", "coordinates": [127.2675163, 37.0096889]}, "properties": {"name": "안성중앙교회", "address": "(17580) 경기 안성시 백성2길39", "members_num": 800.0, "marker-color": "#EF4444"}}, {"type": "Feature", "geometry": {"type": "Point", "coordinates": [126.8819814, 37.4574301]}, "properties": {"name": "서광교회", "address": "(14309) 경기 광명시 한내일로 44", "members_num": 330.0, "marker-color": "#EF4444"}}, {"type": "Feature", "geometry": {"type": "Point", "coordinates": [127.2749023, 37.0085478]}, "properties": {"name": "안성교회", "address": "(17590) 경기 안성시 산수유길17", "members_num": 400.0, "marker-color": "#EF4444"}}, {"type": "Feature", "geometry": {"type": "Point", "coordinates": [127.0452435, 37.8196885]}, "properties": {"name": "덕계교회", "address": "(11443) 경기 양주시 평화로1435번길5-16", "members_num": 500.0, "marker-color": "#EF4444"}}, {"type": "Feature", "geometry": {"type": "Point", "coordinates": [127.1005232, 37.3459437]}, "properties": {"name": "열두광주리명성교회", "address": "(13547) 경기 성남시 분당구 동원로 8번길 11", "members_num": 600.0, "marker-color": "#EF4444"}}, {"type": "Feature", "geometry": {"type": "Point", "coordinates": [127.1235079, 37.6344801]}, "properties": {"name": "성은교회", "address": "(11901) 경기 구리시 갈매중앙로184", "members_num": 400.0, "marker-color": "#EF4444"}}, {"type": "Feature", "geometry": {"type": "Point", "coordinates": [127.1122396, 37.1703801]}, "properties": {"name": "동탄동산교회", "address": "(18501) 경기 화성시 동탄순환대로 12길 37", "members_num": 500.0, "marker-color": "#EF4444"}}, {"type": "Feature", "geometry": {"type": "Point", "coordinates": [126.950314, 37.3833288]}, "properties": {"name": "호계교회", "address": "(14078) 경기 안양시 동안구 경수대로 693", "members_num": 400.0, "marker-color": "#EF4444"}}, {"type": "Feature", "geometry": {"type": "Point", "coordinates": [126.950314, 37.3833288]}, "properties": {"name": "호계교회", "address": "(14078) 경기 안양시 동안구 경수대로 693", "members_num": 500.0, "marker-color": "#EF4444"}}, {"type": "Feature", "geometry": {"type": "Point", "coordinates": [127.0986535, 37.8150513]}, "properties": {"name": "세계로중앙교회", "address": "(11476) 경기 양주시 옥정동로5가길25", "members_num": 350.0, "marker-color": "#EF4444"}}, {"type": "Feature", "geometry": {"type": "Point", "coordinates": [126.804679, 37.3460873]}, "properties": {"name": "경일관광경영고학교교회", "address": "(15219) 경기 안산시 단원구 석수로131", "members_num": 700.0, "marker-color": "#EF4444"}}, {"type": "Feature", "geometry": {"type": "Point", "coordinates": [127.2095561, 37.6357127]}, "properties": {"name": "금곡교회", "address": "(12237) 경기 남양주시 사릉로34번길 14", "members_num": 500.0, "marker-color": "#EF4444"}}, {"type": "Feature", "geometry": {"type": "Point", "coordinates": [127.0467535, 37.903093]}, "properties": {"name": "동두천성결교회", "address": "(11340) 경기 동두천시 강변서로 433", "members_num": 800.0, "marker-color": "#EF4444"}}, {"type": "Feature", "geometry": {"type": "Point", "coordinates": [126.7856977, 37.5196911]}, "properties": {"name": "내동교회", "address": "(14455) 경기 부천시 오정구 수도로 183", "members_num": 8000.0, "marker-color": "#EF4444"}}, {"type": "Feature", "geometry": {"type": "Point", "coordinates": [126.8164504, 37.212232]}, "properties": {"name": "은혜의동산교회", "address": "(은혜의동산교회) 경기 화성시 남양읍 남양시장로 25번길 58", "members_num": 1100.0, "marker-color": "#EF4444"}}, {"type": "Feature", "geometry": {"type": "Point", "coordinates": [126.9800552, 37.2517111]}, "properties": {"name": "예닮교회", "address": "(16395) 경기 수원시 권선구 매송고색로 691번길 9", "members_num": 4550.0, "marker-color": "#EF4444"}}, {"type": "Feature", "geometry": {"type": "Point", "coordinates": [127.0406461, 37.21222900000001]}, "properties": {"name": "병점상동감리교회", "address": "(18404) 경기 화성시 병점동로84-9", "members_num": 470.0, "marker-color": "#EF4444"}}, {"type": "Feature", "geometry": {"type": "Point", "coordinates": [127.1403168, 37.4364351]}, "properties": {"name": "한남교회", "address": "(13357) 경기 성남시 중원구 원터로 115", "members_num": 400.0, "marker-color": "#EF4444"}}, {"type": "Feature", "geometry": {"type": "Point", "coordinates": [127.1531409, 37.6211442]}, "properties": {"name": "힐링교회", "address": "(11940) 경기 남양주 다산중앙로 136번길 12-14, 힐링교회", "members_num": 500.0, "marker-color": "#EF4444"}}, {"type": "Feature", "geometry": {"type": "Point", "coordinates": [127.4632297, 37.2842167]}, "properties": {"name": "이천은광교회", "address": "(17350) 경기 이천시 구만리로313", "members_num": 2800.0, "marker-color": "#EF4444"}}, {"type": "Feature", "geometry": {"type": "Point", "coordinates": [126.9733436, 37.3050856]}, "properties": {"name": "하늘꿈연동교회", "address": "(16322) 경기 수원시 장안구 서부로 2198번길 11 하늘꿈연동교회", "members_num": 1000.0, "marker-color": "#EF4444"}}, {"type": "Feature", "geometry": {"type": "Point", "coordinates": [127.0002259, 37.30506829999999]}, "properties": {"name": "수원온누리교회", "address": "(16300) 경기 수원시 장안구 만석로 205", "members_num": 350.0, "marker-color": "#EF4444"}}, {"type": "Feature", "geometry": {"type": "Point", "coordinates": [127.0881068, 37.0137743]}, "properties": {"name": "평택제일감리교회", "address": "(17842) 경기 평택시 동삭로281", "members_num": 1000.0, "marker-color": "#EF4444"}}, {"type": "Feature", "geometry": {"type": "Point", "coordinates": [127.0286717, 37.2803086]}, "properties": {"name": "수원영락교회", "address": "(16249) 경기 수원시 팔달구 팔달문로108번길 25-2", "members_num": 700.0, "marker-color": "#EF4444"}}, {"type": "Feature", "geometry": {"type": "Point", "coordinates": [126.8713153, 37.4722593]}, "properties": {"name": "광명교회", "address": "(14241) 경기 광명시 하안로437", "members_num": 1500.0, "marker-color": "#EF4444"}}, {"type": "Feature", "geometry": {"type": "Point", "coordinates": [126.9939597, 37.3908171]}, "properties": {"name": "덕장교회", "address": "(16007) 경기 의왕시 양지편1로 20-7 덕장교회", "members_num": 400.0, "marker-color": "#EF4444"}}, {"type": "Feature", "geometry": {"type": "Point", "coordinates": [126.8010254, 37.460717]}, "properties": {"name": "에벤에셀교회", "address": "(14901) 경기도 시흥시 소사로 57번길 67", "members_num": 777.0, "marker-color": "#EF4444"}}, {"type": "Feature", "geometry": {"type": "Point", "coordinates": [126.7928891, 37.497818]}, "properties": {"name": "부천원미동교회", "address": "(14562) 경기도 부천시 원미구 원미로 164번길 19-19", "members_num": 500.0, "marker-color": "#EF4444"}}, {"type": "Feature", "geometry": {"type": "Point", "coordinates": [127.0882858, 37.3195957]}, "properties": {"name": "수지수정교회", "address": "(16844) 경기도 수지구 정평로 34-3(풍덕천동), 수지수정교회", "members_num": 600.0, "marker-color": "#EF4444"}}, {"type": "Feature", "geometry": {"type": "Point", "coordinates": [127.0416428, 37.250748]}, "properties": {"name": "소망교회", "address": "(16683) 경기도 수원시 권선구 동탄원천로 854 소망교회", "members_num": 600.0, "marker-color": "#EF4444"}}, {"type": "Feature", "geometry": {"type": "Point", "coordinates": [126.8045664, 37.3957389]}, "properties": {"name": "시흥성문교회", "address": "(14976) 경기도 시흥시 하중로 211-1", "members_num": 350.0, "marker-color": "#EF4444"}}, {"type": "Feature", "geometry": {"type": "Point", "coordinates": [127.1047304, 36.9923688]}, "properties": {"name": "평택제일교회", "address": "(17899) 경기도 평택시 신한1길 22", "members_num": 500.0, "marker-color": "#EF4444"}}, {"type": "Feature", "geometry": {"type": "Point", "coordinates": [126.6695316, 37.6359485]}, "properties": {"name": "사랑하는교회", "address": "(10086) 경기도 김포시 허산길 9", "members_num": 600.0, "marker-color": "#EF4444"}}, {"type": "Feature", "geometry": {"type": "Point", "coordinates": [126.7928891, 37.497818]}, "properties": {"name": "원미동교회", "address": "(14562) 경기도 부천시 원미구 원미로 164번길 19-19", "members_num": 400.0, "marker-color": "#EF4444"}}, {"type": "Feature", "geometry": {"type": "Point", "coordinates": [127.2813784, 37.39346099999999]}, "properties": {"name": "빛과소금교회", "address": "(15320) 경기도 광주시 초월읍 경충대로 1352 대신빌딩", "members_num": 500.0, "marker-color": "#EF4444"}}, {"type": "Feature", "geometry": {"type": "Point", "coordinates": [127.2442305, 37.3950393]}, "properties": {"name": "왕성교회", "address": "(12777) 경기도 광주시 순암로 115", "members_num": 600.0, "marker-color": "#EF4444"}}, {"type": "Feature", "geometry": {"type": "Point", "coordinates": [127.435857, 36.3182099]}, "properties": {"name": "문창교회", "address": "(35026) 대전 중구 문창로 54", "members_num": 1000.0, "marker-color": "#EF4444"}}, {"type": "Feature", "geometry": {"type": "Point", "coordinates": [127.277023, 36.4692253]}, "properties": {"name": "김은주", "address": "(106동601호) 세종 세종시 대평1길27", "members_num": 500.0, "marker-color": "#EF4444"}}, {"type": "Feature", "geometry": {"type": "Point", "coordinates": [127.2779453, 36.4703221]}, "properties": {"name": "주예수소망교회", "address": "(30153) 세종 세종시 대평1길 22", "members_num": 350.0, "marker-color": "#EF4444"}}, {"type": "Feature", "geometry": {"type": "Point", "coordinates": [127.431061, 36.63442089999999]}, "properties": {"name": "방승준", "address": "(28420) 충북 청주시 흥덕구 증안로 82", "members_num": 500.0, "marker-color": "#EF4444"}}, {"type": "Feature", "geometry": {"type": "Point", "coordinates": [127.6034015, 36.9865724]}, "properties": {"name": "무극장로교회", "address": "(27637) 충북 음성군 음성로1112", "members_num": 400.0, "marker-color": "#EF4444"}}, {"type": "Feature", "geometry": {"type": "Point", "coordinates": [127.4338788, 36.3476598]}, "properties": {"name": "제자들교회", "address": "(32054) 대전 동구 동서대로 1654", "members_num": 2000.0, "marker-color": "#EF4444"}}, {"type": "Feature", "geometry": {"type": "Point", "coordinates": [127.1272386, 36.7897399]}, "properties": {"name": "천안여명교회", "address": "(31176) 충남 천안시 서북구 신방동 70-6", "members_num": 1000.0, "marker-color": "#EF4444"}}, {"type": "Feature", "geometry": {"type": "Point", "coordinates": [127.4427358, 36.3155013]}, "properties": {"name": "대전성산성결교회", "address": "(34687) 대전 동구 대전로 542번길121 312동204호", "members_num": 400.0, "marker-color": "#EF4444"}}, {"type": "Feature", "geometry": {"type": "Point", "coordinates": [127.0980716, 36.1822115]}, "properties": {"name": "논산성결교회", "address": "(32988) 충남 논산시 시민로 149", "members_num": 500.0, "marker-color": "#EF4444"}}, {"type": "Feature", "geometry": {"type": "Point", "coordinates": [126.9879374, 36.7877035]}, "properties": {"name": "온양신광교회", "address": "(31502) 충남 아산시 뭄화로 25-3", "members_num": 350.0, "marker-color": "#EF4444"}}, {"type": "Feature", "geometry": {"type": "Point", "coordinates": [128.217094, 37.14826619999999]}, "properties": {"name": "제천성도교회", "address": "(27152) 충북 제천시 용두천로325", "members_num": 500.0, "marker-color": "#EF4444"}}, {"type": "Feature", "geometry": {"type": "Point", "coordinates": [127.3712854, 36.3049953]}, "properties": {"name": "논산제일교회", "address": "(35407) 대전 서구 복수동 21-20 202동1303호", "members_num": 700.0, "marker-color": "#EF4444"}}, {"type": "Feature", "geometry": {"type": "Point", "coordinates": [127.4739047, 36.64736]}, "properties": {"name": "주중교회", "address": "(28472) 충북 청주시 흥덕구 흥덕로127", "members_num": 1000.0, "marker-color": "#EF4444"}}, {"type": "Feature", "geometry": {"type": "Point", "coordinates": [127.021151, 36.7834098]}, "properties": {"name": "온양온천감리교회", "address": "(31528) 충남 아산시 모종동 637 모종캐슬어울림1단지 103동 1404호", "members_num": 2000.0, "marker-color": "#EF4444"}}, {"type": "Feature", "geometry": {"type": "Point", "coordinates": [127.4625014, 36.6346683]}, "properties": {"name": "청주주님의교회", "address": "(28647) 충북 청주시 서원구 내수동로 133", "members_num": 500.0, "marker-color": "#EF4444"}}, {"type": "Feature", "geometry": {"type": "Point", "coordinates": [127.3786962, 36.429492]}, "properties": {"name": "새하늘시민교회", "address": "(35010) 대전 유성구 송강동310", "members_num": 500.0, "marker-color": "#EF4444"}}, {"type": "Feature", "geometry": {"type": "Point", "coordinates": [127.3074278, 36.3894752]}, "properties": {"name": "필그림교회", "address": "(34070) 대전 유성구 지족북로 78, 4층", "members_num": 10511.0, "marker-color": "#EF4444"}}, {"type": "Feature", "geometry": {"type": "Point", "coordinates": [126.6585304, 36.5831283]}, "properties": {"name": "홍남교회", "address": "(32244) 충남 홍성군 홍성읍 충서로 1179", "members_num": 1000.0, "marker-color": "#EF4444"}}, {"type": "Feature", "geometry": {"type": "Point", "coordinates": [128.2140222, 37.1612764]}, "properties": {"name": "제천제일교회", "address": "(27143) 충북 제천시 신죽하로 154 제천제일교회", "members_num": 2090.0, "marker-color": "#EF4444"}}, {"type": "Feature", "geometry": {"type": "Point", "coordinates": [127.4163422, 36.6253238]}, "properties": {"name": "청주중앙교회", "address": "(28375) 충북 청주시 흥덕구 가로수로1086번길16 청주중앙교회", "members_num": 1000.0, "marker-color": "#EF4444"}}, {"type": "Feature", "geometry": {"type": "Point", "coordinates": [127.454638, 36.845909]}, "properties": {"name": "진천중앙교회", "address": "(27837) 충북 진천군 충북 진천군 진천읍 문덕1길36 우미아파트 104동402호", "members_num": 700.0, "marker-color": "#EF4444"}}, {"type": "Feature", "geometry": {"type": "Point", "coordinates": [126.4370621, 36.9301517]}, "properties": {"name": "대산제일교회", "address": "(31912) 충남 서산시 대산읍 탑성골2길38", "members_num": 500.0, "marker-color": "#EF4444"}}, {"type": "Feature", "geometry": {"type": "Point", "coordinates": [128.217094, 37.14826619999999]}, "properties": {"name": "제천동산교회", "address": "(27152) 충북 제천시 용두천로238", "members_num": 350.0, "marker-color": "#EF4444"}}, {"type": "Feature", "geometry": {"type": "Point", "coordinates": [126.8759082, 36.2177712]}, "properties": {"name": "점리장로교회", "address": "(충남 부여군 임천면 충절로1535번길) 점리장로교회", "members_num": 33218.0, "marker-color": "#EF4444"}}, {"type": "Feature", "geometry": {"type": "Point", "coordinates": [127.9418825, 36.9644158]}, "properties": {"name": "충주남부감리교회", "address": "(27398) 충청북도 충주시 금봉4길 30", "members_num": 1000.0, "marker-color": "#EF4444"}}, {"type": "Feature", "geometry": {"type": "Point", "coordinates": [127.3472702, 36.3276076]}, "properties": {"name": "디딤돌교회", "address": "(35352) 대전 서구 도안동로 255 디딤돌교회 임성도 (도안동, 디딤돌침례교회)", "members_num": 700.0, "marker-color": "#EF4444"}}, {"type": "Feature", "geometry": {"type": "Point", "coordinates": [127.394158, 36.3361354]}, "properties": {"name": "선창교회", "address": "(35304) 대전광역시 서구 계룡로662번길 21", "members_num": 1000.0, "marker-color": "#EF4444"}}, {"type": "Feature", "geometry": {"type": "Point", "coordinates": [127.9418825, 36.9644158]}, "properties": {"name": "충주남부교회", "address": "(27398) 충청북도 충주시 금봉4길 30", "members_num": 1000.0, "marker-color": "#EF4444"}}, {"type": "Feature", "geometry": {"type": "Point", "coordinates": [127.5150959, 35.6461119]}, "properties": {"name": "장수교회", "address": "(55632) 전북 장수군 장수읍 하비길 32, 404호", "members_num": 500.0, "marker-color": "#EF4444"}}, {"type": "Feature", "geometry": {"type": "Point", "coordinates": [126.8093642, 35.9452513]}, "properties": {"name": "지경교회", "address": "(54061) 전북 군산시 대야면 만자로 21", "members_num": 500.0, "marker-color": "#EF4444"}}, {"type": "Feature", "geometry": {"type": "Point", "coordinates": [127.4994468, 34.99051]}, "properties": {"name": "우리사랑교회", "address": "(57925) 전남 순천시 서면 건보길 25-6", "members_num": 440.0, "marker-color": "#EF4444"}}, {"type": "Feature", "geometry": {"type": "Point", "coordinates": [126.8963855, 35.1539538]}, "properties": {"name": "광주서문교회", "address": "(61921) 광주 서구 월산로166", "members_num": 500.0, "marker-color": "#EF4444"}}, {"type": "Feature", "geometry": {"type": "Point", "coordinates": [127.5842474, 34.9766966]}, "properties": {"name": "광양제일교회", "address": "(57742) 전남 광양시 광양읍 인덕로 1058", "members_num": 800.0, "marker-color": "#EF4444"}}, {"type": "Feature", "geometry": {"type": "Point", "coordinates": [126.9186034, 35.1328603]}, "properties": {"name": "방림교회", "address": "(61676) 광주 남구 용대로186 103동 206호", "members_num": 1000.0, "marker-color": "#EF4444"}}, {"type": "Feature", "geometry": {"type": "Point", "coordinates": [127.3368859, 34.8334563]}, "properties": {"name": "삼광학원(벌교고,삼광중)미션스쿨", "address": "(59430) 전남 보성군 전남 보성군 벌교읍 채동선로 115", "members_num": 500.0, "marker-color": "#EF4444"}}, {"type": "Feature", "geometry": {"type": "Point", "coordinates": [126.8904668, 35.1447826]}, "properties": {"name": "혜성교회", "address": "(61422) 광주 동구 경양로 27번길 22", "members_num": 500.0, "marker-color": "#EF4444"}}, {"type": "Feature", "geometry": {"type": "Point", "coordinates": [126.9192773, 35.1581063]}, "properties": {"name": "혜성교회", "address": "(61422) 광주 동구 경양로 247번길 22", "members_num": 1000.0, "marker-color": "#EF4444"}}, {"type": "Feature", "geometry": {"type": "Point", "coordinates": [126.9176942, 35.1496893]}, "properties": {"name": "광주무돌교회", "address": "(61475) 광주 동구 구성로 188", "members_num": 350.0, "marker-color": "#EF4444"}}, {"type": "Feature", "geometry": {"type": "Point", "coordinates": [126.9192773, 35.1581063]}, "properties": {"name": "혜성교회", "address": "(61422) 광주 동구 경양로247번길22", "members_num": 500.0, "marker-color": "#EF4444"}}, {"type": "Feature", "geometry": {"type": "Point", "coordinates": [126.4919896, 34.8498842]}, "properties": {"name": "일로제일교회", "address": "(58574) 전남 무안군 일로읍 일로중앙로 20", "members_num": 400.0, "marker-color": "#EF4444"}}, {"type": "Feature", "geometry": {"type": "Point", "coordinates": [126.8946854, 35.183472]}, "properties": {"name": "향기교회", "address": "(61105) 광주광역시 북구 비엔날레로141", "members_num": 350.0, "marker-color": "#EF4444"}}, {"type": "Feature", "geometry": {"type": "Point", "coordinates": [126.8890761, 35.1792323]}, "properties": {"name": "중앙장로교회", "address": "(61108) 광주 북구 용봉택지로25, 301동 1205호", "members_num": 1000.0, "marker-color": "#EF4444"}}, {"type": "Feature", "geometry": {"type": "Point", "coordinates": [127.9433103, 37.340729]}, "properties": {"name": "북원침례교회", "address": "(26438) 강원 원주시 남산로9번길 12", "members_num": 500.0, "marker-color": "#EF4444"}}, {"type": "Feature", "geometry": {"type": "Point", "coordinates": [127.7594326, 37.8627463]}, "properties": {"name": "춘천광염교회", "address": "(24400) 강원 춘천시 동내면 세실로 60", "members_num": 450.0, "marker-color": "#EF4444"}}, {"type": "Feature", "geometry": {"type": "Point", "coordinates": [129.1048568, 37.5451136]}, "properties": {"name": "동해교회", "address": "(25727) 강원 동해시 붉은언덕길 36", "members_num": 1000.0, "marker-color": "#EF4444"}}, {"type": "Feature", "geometry": {"type": "Point", "coordinates": [129.1735189, 37.4526259]}, "properties": {"name": "큰빛교회", "address": "(25911) 강원 삼척시 교동로 107", "members_num": 600.0, "marker-color": "#EF4444"}}, {"type": "Feature", "geometry": {"type": "Point", "coordinates": [127.9433103, 37.340729]}, "properties": {"name": "북원교회", "address": "(26438) 강원 원주시 남산로9번길12", "members_num": 500.0, "marker-color": "#EF4444"}}, {"type": "Feature", "geometry": {"type": "Point", "coordinates": [127.9154092, 37.3207603]}, "properties": {"name": "원주충정교회", "address": "(26396) 강원 원주시 행가리1길 42-5", "members_num": 700.0, "marker-color": "#EF4444"}}, {"type": "Feature", "geometry": {"type": "Point", "coordinates": [128.3894216, 37.3672629]}, "properties": {"name": "평창중앙교회", "address": "(25374) 강원 평창군 평창읍 군청길 21", "members_num": 350.0, "marker-color": "#EF4444"}}, {"type": "Feature", "geometry": {"type": "Point", "coordinates": [128.8661351, 35.2402174]}, "properties": {"name": "김해명문교회", "address": "(50948) 경남 김해시 경원로55번길34,김해명문교회(내동)", "members_num": 400.0, "marker-color": "#EF4444"}}, {"type": "Feature", "geometry": {"type": "Point", "coordinates": [128.9960139, 35.0938023]}, "properties": {"name": "괴정중앙교회", "address": "(49361) 부산 사하구 감천로 21번길 35 101-1605", "members_num": 500.0, "marker-color": "#EF4444"}}, {"type": "Feature", "geometry": {"type": "Point", "coordinates": [128.9811959, 35.2156866]}, "properties": {"name": "새날교회", "address": "(46702) 부산 강서구 공항로 1309번길 140-7", "members_num": 500.0, "marker-color": "#EF4444"}}, {"type": "Feature", "geometry": {"type": "Point", "coordinates": [129.3609801, 36.01143330000001]}, "properties": {"name": "포항동일교회", "address": "(37829) 경북 포항시 남구 상대로 136", "members_num": 500.0, "marker-color": "#EF4444"}}, {"type": "Feature", "geometry": {"type": "Point", "coordinates": [128.6996089, 35.8727985]}, "properties": {"name": "반야월서부교회", "address": "(41118) 대구 동구 반야월로98(율하동)", "members_num": 800.0, "marker-color": "#EF4444"}}, {"type": "Feature", "geometry": {"type": "Point", "coordinates": [128.0839497, 35.196546]}, "properties": {"name": "진주교회", "address": "(52753) 경남 진주시 촉석로 201번길8-1", "members_num": 500.0, "marker-color": "#EF4444"}}, {"type": "Feature", "geometry": {"type": "Point", "coordinates": [128.5952596, 35.8371576]}, "properties": {"name": "대구평강교회", "address": "(42508) 대구 남구 삼정2길", "members_num": 800.0, "marker-color": "#EF4444"}}, {"type": "Feature", "geometry": {"type": "Point", "coordinates": [128.6192865, 36.800752]}, "properties": {"name": "신광교회", "address": "(36132) 경북 영주시 지천로2번길 21-9", "members_num": 400.0, "marker-color": "#EF4444"}}, {"type": "Feature", "geometry": {"type": "Point", "coordinates": [128.6158076, 35.8604847]}, "properties": {"name": "삼덕교회", "address": "(42006) 대구 수성구 수성로400", "members_num": 2500.0, "marker-color": "#EF4444"}}, {"type": "Feature", "geometry": {"type": "Point", "coordinates": [128.5623261, 35.1822785]}, "properties": {"name": "마산중앙감리교회", "address": "(51742) 경남 창원시 마산합포구 월영동북로 9", "members_num": 400.0, "marker-color": "#EF4444"}}, {"type": "Feature", "geometry": {"type": "Point", "coordinates": [129.4306791, 35.5142746]}, "properties": {"name": "울산전하교회", "address": "(44034) 울산 동구 바드래길29", "members_num": 450.0, "marker-color": "#EF4444"}}, {"type": "Feature", "geometry": {"type": "Point", "coordinates": [129.3188429, 35.5769741]}, "properties": {"name": "울산동성교회", "address": "(44417) 울산 중구 성안 8길 4", "members_num": 450.0, "marker-color": "#EF4444"}}, {"type": "Feature", "geometry": {"type": "Point", "coordinates": [128.9130544, 35.241656]}, "properties": {"name": "활천제일교회", "address": "(50822) 경남 김해시 활천로292", "members_num": 800.0, "marker-color": "#EF4444"}}, {"type": "Feature", "geometry": {"type": "Point", "coordinates": [129.0890903, 35.2420756]}, "properties": {"name": "성일교회", "address": "(46244) 부산 금정구 구서온천천로31", "members_num": 500.0, "marker-color": "#EF4444"}}, {"type": "Feature", "geometry": {"type": "Point", "coordinates": [129.3614395, 36.0131092]}, "properties": {"name": "포항동일교회", "address": "(37829) 경북 포항시 남구 상대로 136 포항동일교회", "members_num": 550.0, "marker-color": "#EF4444"}}, {"type": "Feature", "geometry": {"type": "Point", "coordinates": [129.3199269, 35.3451275]}, "properties": {"name": "통합", "address": "(45014) 울산 울주군 서생면 신리길 97", "members_num": 330.0, "marker-color": "#EF4444"}}, {"type": "Feature", "geometry": {"type": "Point", "coordinates": [128.6354263, 35.8846637]}, "properties": {"name": "대구동문교회", "address": "(701-841) 대구 동구 아양로40길 30", "members_num": 350.0, "marker-color": "#EF4444"}}, {"type": "Feature", "geometry": {"type": "Point", "coordinates": [129.4306791, 35.5142746]}, "properties": {"name": "전하교회", "address": "(44034) 울산 동구 바드래길29", "members_num": 600.0, "marker-color": "#EF4444"}}, {"type": "Feature", "geometry": {"type": "Point", "coordinates": [129.1448104, 35.1641119]}, "properties": {"name": "해운대신일교회", "address": "(48065) 부산 해운대구 해운대로 469번길 10", "members_num": 500.0, "marker-color": "#EF4444"}}, {"type": "Feature", "geometry": {"type": "Point", "coordinates": [128.6258734, 34.8853757]}, "properties": {"name": "고현충현교회", "address": "(53255) 경남 거제시 고현천로66", "members_num": 400.0, "marker-color": "#EF4444"}}, {"type": "Feature", "geometry": {"type": "Point", "coordinates": [129.3609801, 36.01143330000001]}, "properties": {"name": "포항동일교회", "address": "(37829) 경북 포항시 남구 상대로 136", "members_num": 500.0, "marker-color": "#EF4444"}}, {"type": "Feature", "geometry": {"type": "Point", "coordinates": [128.2972951, 36.2411765]}, "properties": {"name": "선산제일교회", "address": "(39129) 경북 구미시 선산읍 단계서길 43", "members_num": 400.0, "marker-color": "#EF4444"}}, {"type": "Feature", "geometry": {"type": "Point", "coordinates": [128.6586188, 35.2374846]}, "properties": {"name": "창원왕성교회", "address": "(51409) 경남 창원시 성산구 창원천로 94번길 82-6", "members_num": 600.0, "marker-color": "#EF4444"}}, {"type": "Feature", "geometry": {"type": "Point", "coordinates": [128.6121126, 35.8699184]}, "properties": {"name": "대구동막교회", "address": "(419907) 대구 중구 국채보상로 151길 33", "members_num": 600.0, "marker-color": "#EF4444"}}, {"type": "Feature", "geometry": {"type": "Point", "coordinates": [128.6578476, 34.9146264]}, "properties": {"name": "연초중앙교회", "address": "(53212) 경남 거제시 연초면 죽토로21", "members_num": 500.0, "marker-color": "#EF4444"}}, {"type": "Feature", "geometry": {"type": "Point", "coordinates": [128.6555982, 34.9625907]}, "properties": {"name": "하청교회", "address": "(53204) 경남 거제시 거제시 하청면 연하해안로 1717", "members_num": 330.0, "marker-color": "#EF4444"}}, {"type": "Feature", "geometry": {"type": "Point", "coordinates": [129.0106451, 35.2459256]}, "properties": {"name": "포도원교회", "address": "(46521) 부산 북구 화명신도시로 255 율리주공@ 304동 1709호", "members_num": 10000.0, "marker-color": "#EF4444"}}, {"type": "Feature", "geometry": {"type": "Point", "coordinates": [128.6290077, 35.8928011]}, "properties": {"name": "성빈교회", "address": "(41528) 대구 북구 동북로65길 28-11", "members_num": 450.0, "marker-color": "#EF4444"}}, {"type": "Feature", "geometry": {"type": "Point", "coordinates": [128.8175499, 35.2005914]}, "properties": {"name": "장유교회", "address": "(51007) 경남 김해시 장유로307번길 21", "members_num": 350.0, "marker-color": "#EF4444"}}, {"type": "Feature", "geometry": {"type": "Point", "coordinates": [129.167225, 35.7034876]}, "properties": {"name": "실로암교회", "address": "(44910) 울산광역시 울주군 두서면 활천내와로 301-5", "members_num": 500.0, "marker-color": "#EF4444"}}, {"type": "Feature", "geometry": {"type": "Point", "coordinates": [128.1156492, 35.1824387]}, "properties": {"name": "이찬우", "address": "(52783) 경남 진주시 대신로 243번길 16", "members_num": 500.0, "marker-color": "#EF4444"}}, {"type": "Feature", "geometry": {"type": "Point", "coordinates": [129.212232, 35.240768]}, "properties": {"name": "기장로교회", "address": "(46069) 부산시 기장군 기장읍 대청로 21번길 63", "members_num": 400.0, "marker-color": "#EF4444"}}, {"type": "Feature", "geometry": {"type": "Point", "coordinates": [129.1659966, 35.8465434]}, "properties": {"name": "경주중앙교회", "address": "(38057) 경상북도 경주시 태종로266-8", "members_num": 800.0, "marker-color": "#EF4444"}}, {"type": "Feature", "geometry": {"type": "Point", "coordinates": [128.0839497, 35.196546]}, "properties": {"name": "진주교회", "address": "(52753) 경남 진주시 촉석로 201번길 8-1 진주교회", "members_num": 400.0, "marker-color": "#EF4444"}}, {"type": "Feature", "geometry": {"type": "Point", "coordinates": [-122.2217788, 47.2966124]}, "properties": {"name": "평안교회", "address": "(98002) WA Auburn 526 12th ST SE", "members_num": 557.0, "marker-color": "#EF4444"}}, {"type": "Feature", "geometry": {"type": "Point", "coordinates": [-73.8217808, 40.7577848]}, "properties": {"name": "퀸즈장로교회", "address": "(11350) NY 143-17 Franklin ave", "members_num": 3300.0, "marker-color": "#EF4444"}}, {"type": "Feature", "geometry": {"type": "Point", "coordinates": [126.6977323, 37.45965109999999]}, "properties": {"name": "성암교회", "address": "(21552) 인천 남동구 경인로 524번길 75", "members_num": 340.0, "marker-color": "#EF4444"}}, {"type": "Feature", "geometry": {"type": "Point", "coordinates": [-118.3231337, 34.0615808]}, "properties": {"name": "윌셔 연합감리교회", "address": "(90010) CA Los Angeles 4350 Wilshire United Methodist Church", "members_num": 350.0, "marker-color": "#EF4444"}}, {"type": "Feature", "geometry": {"type": "Point", "coordinates": [-75.2173038, 39.954354]}, "properties": {"name": "필라 임마누엘교회", "address": "(19139) PA Philadelphia 4723 Spruce St", "members_num": 350.0, "marker-color": "#EF4444"}}, {"type": "Feature", "geometry": {"type": "Point", "coordinates": [-73.9641659, 40.9704082]}, "properties": {"name": "뉴저지 하베스트 교회", "address": "(07624) NJ Closter 370 Demarest Avenue", "members_num": 330.0, "marker-color": "#EF4444"}}, {"type": "Feature", "geometry": {"type": "Point", "coordinates": [-97.7075584, 30.344409]}, "properties": {"name": "주님의교회(Lords Church of Austin)", "address": "(78752) TX 301 W Anderson Ln. Austin, TX 78752", "members_num": 750.0, "marker-color": "#EF4444"}}, {"type": "Feature", "geometry": {"type": "Point", "coordinates": [-122.4294698, 37.6310274]}, "properties": {"name": "샘물침례교회", "address": "(94066) CA 231 Boardwalk Ave., #E San Bruno", "members_num": 550.0, "marker-color": "#EF4444"}}, {"type": "Feature", "geometry": {"type": "Point", "coordinates": [-73.9951896, 40.9329569]}, "properties": {"name": "Grace River Church", "address": "(07621) NJ 169 N Washington ave Bergenfield", "members_num": 360.0, "marker-color": "#EF4444"}}, {"type": "Feature", "geometry": {"type": "Point", "coordinates": [-77.2029697, 38.8717786]}, "properties": {"name": "워싱턴성광교회", "address": "(VA22042) VA 2937 Strathmeade st Falls Church", "members_num": 1000.0, "marker-color": "#EF4444"}}, {"type": "Feature", "geometry": {"type": "Point", "coordinates": [126.4985261, 37.4773826]}, "properties": {"name": "세계로향하는교회", "address": "(22376) 인천 중구 인천 중구 하늘누리로 33", "members_num": 500.0, "marker-color": "#EF4444"}}, {"type": "Feature", "geometry": {"type": "Point", "coordinates": [-74.871321, 40.1617523]}, "properties": {"name": "벅스카운티장로교회", "address": "(19057) PA Levittown 1550 Woodbourne Rd.", "members_num": 550.0, "marker-color": "#EF4444"}}, {"type": "Feature", "geometry": {"type": "Point", "coordinates": [126.6840657, 37.4505844]}, "properties": {"name": "인천신광교회", "address": "(22227) 인천 미추홀구 미추홀대로 598번길 75", "members_num": 500.0, "marker-color": "#EF4444"}}, {"type": "Feature", "geometry": {"type": "Point", "coordinates": [126.6283713, 37.4535132]}, "properties": {"name": "산돌교회", "address": "(22333) 인천 중구 매소홀로 7", "members_num": 800.0, "marker-color": "#EF4444"}}, {"type": "Feature", "geometry": {"type": "Point", "coordinates": [126.7383232, 37.5047656]}, "properties": {"name": "한국장로교회", "address": "(21345) 인천 부평구 길주남로 139", "members_num": 800.0, "marker-color": "#EF4444"}}, {"type": "Feature", "geometry": {"type": "Point", "coordinates": [-157.835034, 21.3053269]}, "properties": {"name": "그리스도연합감리교회", "address": "(96822) HI honolulu 1639 keeaumoku st.", "members_num": 600.0, "marker-color": "#EF4444"}}, {"type": "Feature", "geometry": {"type": "Point", "coordinates": [-97.71718779999999, 30.3118307]}, "properties": {"name": "오스틴늘푸른교회", "address": "(78751) TX Ausin 5002 Caswell Ave", "members_num": 350.0, "marker-color": "#EF4444"}}, {"type": "Feature", "geometry": {"type": "Point", "coordinates": [126.6438632, 37.4566998]}, "properties": {"name": "용현동교회", "address": "(22176) 인천 미추홀구 용마루로 64", "members_num": 500.0, "marker-color": "#EF4444"}}, {"type": "Feature", "geometry": {"type": "Point", "coordinates": [153.3092294, -27.9450089]}, "properties": {"name": "골드코스트한인교회연합회", "address": "(4211) U2/1 Bowley St, Pacific Pines QLD, Australia", "members_num": 1500.0, "marker-color": "#EF4444"}}, {"type": "Feature", "geometry": {"type": "Point", "coordinates": [126.7339852, 37.443177]}, "properties": {"name": "아름다운교회", "address": "(21596) 인천 남동구 장승남로16", "members_num": 1200.0, "marker-color": "#EF4444"}}, {"type": "Feature", "geometry": {"type": "Point", "coordinates": [-88.0836642, 41.758094]}, "properties": {"name": "네이퍼빌제일장로교회", "address": "(60540) IL 23W550 Hobson Rd Naperville, IL", "members_num": 350.0, "marker-color": "#EF4444"}}, {"type": "Feature", "geometry": {"type": "Point", "coordinates": [-122.8664153, 45.5109027]}, "properties": {"name": "오레곤에덴장로교회", "address": "(97006) OR 1200 SW 185th Ave. Beaverton", "members_num": 400.0, "marker-color": "#EF4444"}}, {"type": "Feature", "geometry": {"type": "Point", "coordinates": [126.7383232, 37.5047656]}, "properties": {"name": "한국장로교회", "address": "(21345) 인천 부평구 길주남로 139", "members_num": 800.0, "marker-color": "#EF4444"}}, {"type": "Feature", "geometry": {"type": "Point", "coordinates": [126.7262678, 37.457383]}, "properties": {"name": "인천제일성결교회", "address": "(21591) 인천 남동구 구월말로92번길 11-8", "members_num": 400.0, "marker-color": "#EF4444"}}, {"type": "Feature", "geometry": {"type": "Point", "coordinates": [126.6778477, 37.547466]}, "properties": {"name": "복지교회", "address": "(22713) 인천 서구 탁옥로73번길 40", "members_num": 400.0, "marker-color": "#EF4444"}}, {"type": "Feature", "geometry": {"type": "Point", "coordinates": [126.6858387, 37.4927913]}, "properties": {"name": "늘사랑교회", "address": "(22815) 인천광역시 서구 장고개로 337번길 7, 6층", "members_num": 440.0, "marker-color": "#EF4444"}}, {"type": "Feature", "geometry": {"type": "Point", "coordinates": [126.6511718, 37.4803593]}, "properties": {"name": "구세군송림교회", "address": "(22535) 인천광역시 송향로31 송림휴먼시아1단지 107동 702호", "members_num": 500.0, "marker-color": "#EF4444"}}, {"type": "Feature", "geometry": {"type": "Point", "coordinates": [128.5664774, 35.2301239]}, "properties": {"name": "서마산교회", "address": "(51311) 창원특례시 마산회원구 북성로 267", "members_num": 450.0, "marker-color": "#EF4444"}}, {"type": "Feature", "geometry": {"type": "Point", "coordinates": [-74.41884379999999, 40.4192855]}, "properties": {"name": "뉴저지갈보리교회", "address": "(08816) New Jersey East Brunswick 572 Ryders Ln.", "members_num": 500.0, "marker-color": "#EF4444"}}, {"type": "Feature", "geometry": {"type": "Point", "coordinates": [-117.0663179, 33.9609073]}, "properties": {"name": "버몬한인교회", "address": "(92223) CA Beaumont 34490 Crenshaw St.", "members_num": 335.0, "marker-color": "#EF4444"}}, {"type": "Feature", "geometry": {"type": "Point", "coordinates": [-117.8855353, 33.9867232]}, "properties": {"name": "아름다운교회", "address": "(91748) California Rowland Heights 1717 Otterbein Avenue", "members_num": 400.0, "marker-color": "#EF4444"}}, {"type": "Feature", "geometry": {"type": "Point", "coordinates": [-73.7801447, 40.7779482]}, "properties": {"name": "하은교회", "address": "(11360) . Bayside NEW YORK", "members_num": 700.0, "marker-color": "#EF4444"}}, {"type": "Feature", "geometry": {"type": "Point", "coordinates": [-84.6956232, 33.4056089]}, "properties": {"name": "뉴난한인교회", "address": "(30265) GA Newnan 1237 Lora Smith Rd.", "members_num": 315.0, "marker-color": "#EF4444"}}, {"type": "Feature", "geometry": {"type": "Point", "coordinates": [-122.2217788, 47.2966124]}, "properties": {"name": "PyungAnPresbyterianChurch", "address": "(98002) Washington Auburn 526 12th St SE", "members_num": 500.0, "marker-color": "#EF4444"}}, {"type": "Feature", "geometry": {"type": "Point", "coordinates": [-118.2902094, 34.0711439]}, "properties": {"name": "미주평안교회", "address": "(90004) CA Los Angeles 170 Bimini Pl", "members_num": 500.0, "marker-color": "#EF4444"}}, {"type": "Feature", "geometry": {"type": "Point", "coordinates": [128.7014148, 35.2035228]}, "properties": {"name": "창원제일교회", "address": "(51489) 성산구 창원특례시 가음로 110", "members_num": 450.0, "marker-color": "#EF4444"}}, {"type": "Feature", "geometry": {"type": "Point", "coordinates": [-118.0121244, 33.8597429]}, "properties": {"name": "ThanksgivingChurch", "address": "(90620) 6959 Knot Ave. Buena Park CA", "members_num": 1000.0, "marker-color": "#EF4444"}}, {"type": "Feature", "geometry": {"type": "Point", "coordinates": [126.957014, 37.323983]}, "properties": {"name": "서부교회", "address": "(부곡 복지관 길 40.) 의왕시 삼동", "members_num": 500.0, "marker-color": "#EF4444"}}, {"type": "Feature", "geometry": {"type": "Point", "coordinates": [-118.3500268, 33.8515574]}, "properties": {"name": "토렌스조은교회", "address": "(90503) 19950 Mariner Ave Torrance CA", "members_num": 1700.0, "marker-color": "#EF4444"}}, {"type": "Feature", "geometry": {"type": "Point", "coordinates": [-117.2015907, 33.1625851]}, "properties": {"name": "팔로마한인교회", "address": "(92069) Ca San Marcos 170 Bosstick Blvd", "members_num": 400.0, "marker-color": "#EF4444"}}, {"type": "Feature", "geometry": {"type": "Point", "coordinates": [-117.1629646, 32.8271288]}, "properties": {"name": "샌디에고한빛교회", "address": "(92111) CA San Diego Cardin St", "members_num": 1100.0, "marker-color": "#EF4444"}}, {"type": "Feature", "geometry": {"type": "Point", "coordinates": [-118.0676282, 33.8537825]}, "properties": {"name": "HenryOh", "address": "(90703) CA Cerritos 12413 E. 195th St.", "members_num": 400.0, "marker-color": "#EF4444"}}, {"type": "Feature", "geometry": {"type": "Point", "coordinates": [-118.0676282, 33.8537825]}, "properties": {"name": "세리토스선교교회", "address": "(90703) Cerritos 12413 195th St", "members_num": 400.0, "marker-color": "#EF4444"}}, {"type": "Feature", "geometry": {"type": "Point", "coordinates": [-80.2094815, 26.3268948]}, "properties": {"name": "남부플로리다감리교회", "address": "(6214 nw 78th) Parkland", "members_num": 400.0, "marker-color": "#EF4444"}}, {"type": "Feature", "geometry": {"type": "Point", "coordinates": [-118.3077032, 34.0515326]}, "properties": {"name": "새생명오아시스교회", "address": "(90006) 1041 S OXFORD AVE Los Angeles CA 90006", "members_num": 400.0, "marker-color": "#EF4444"}}, {"type": "Feature", "geometry": {"type": "Point", "coordinates": [-117.1701345, 32.7876373]}, "properties": {"name": "샌디에고갈보리장로교회", "address": "(92111) 6970 Linda Vista Rd San Diego California", "members_num": 700.0, "marker-color": "#EF4444"}}, {"type": "Feature", "geometry": {"type": "Point", "coordinates": [-74.0305229, 40.9117852]}, "properties": {"name": "필그림선교교회", "address": "(07601) New Jersey Hackensack 80 Commerce Way", "members_num": 1500.0, "marker-color": "#EF4444"}}, {"type": "Feature", "geometry": {"type": "Point", "coordinates": [-121.9368228, 37.3081801]}, "properties": {"name": "산타클라라연합감리교회", "address": "(95128) CA San Jose 1001 Ginger Lane", "members_num": 400.0, "marker-color": "#EF4444"}}, {"type": "Feature", "geometry": {"type": "Point", "coordinates": [-118.2679196, 34.034128]}, "properties": {"name": "주님의영광교회", "address": "(90015) California Los Angeles 1801 S. Grand Ave", "members_num": 3000.0, "marker-color": "#EF4444"}}, {"type": "Feature", "geometry": {"type": "Point", "coordinates": [-122.4554287, 47.1547274]}, "properties": {"name": "타코마제일침례교회", "address": "(98444)", "members_num": 700.0, "marker-color": "#EF4444"}}, {"type": "Feature", "geometry": {"type": "Point", "coordinates": [-117.9189045, 33.7800147]}, "properties": {"name": "오렌지카운티영락교회", "address": "(92840) 12612 buaro st Garden grove", "members_num": 350.0, "marker-color": "#EF4444"}}, {"type": "Feature", "geometry": {"type": "Point", "coordinates": [-83.2291862, 35.7901167]}, "properties": {"name": "포항침례교회", "address": "(37722)", "members_num": 350.0, "marker-color": "#EF4444"}}]}