{"type": "FeatureCollection", "features": [{"type": "Feature", "geometry": {"type": "Point", "coordinates": [127.435857, 36.3182099]}, "properties": {"name": "문창교회", "address": "(35026) 대전 중구 문창로 54", "members_num": 1000.0}}, {"type": "Feature", "geometry": {"type": "Point", "coordinates": [126.7061849, 36.6457366]}, "properties": {"name": "넓은들교회", "address": "(32278) 충남 홍성군 홍북읍 내용길 647번길 17", "members_num": 10.0}}, {"type": "Feature", "geometry": {"type": "Point", "coordinates": [127.1954691, 36.7696391]}, "properties": {"name": "빛과소금교회", "address": "(31119) 충남 천안시 동남구 신계1길 20 2층", "members_num": 2.0}}, {"type": "Feature", "geometry": {"type": "Point", "coordinates": [128.351661, 36.922214]}, "properties": {"name": "단양수정교회", "address": "(27027) 충북 단양군 장림 1길 6", "members_num": 20.0}}, {"type": "Feature", "geometry": {"type": "Point", "coordinates": [128.1980454, 37.1395986]}, "properties": {"name": "서광교회", "address": "(27162) 충북 제천시 용두대로 15길 31-1", "members_num": 40.0}}, {"type": "Feature", "geometry": {"type": "Point", "coordinates": [127.396699, 36.3289696]}, "properties": {"name": "남경아", "address": "(34877) 대전 중구 수침로111번길 36", "members_num": 50.0}}, {"type": "Feature", "geometry": {"type": "Point", "coordinates": [127.4549906, 36.3549267]}, "properties": {"name": "꿈과사랑의교회", "address": "(34416) 대전 대덕구 우암로408 3층", "members_num": 30.0}}, {"type": "Feature", "geometry": {"type": "Point", "coordinates": [127.1321885, 36.792408]}, "properties": {"name": "주임재교회", "address": "(31184) 충남 천안시 동남구 일봉로34 두레현대아파트 상가지하", "members_num": 2.0}}, {"type": "Feature", "geometry": {"type": "Point", "coordinates": [126.9940946, 36.8878202]}, "properties": {"name": "신봉교회", "address": "(31422) 충남 아산시 영인면 신봉리 246번길 27", "members_num": 25.0}}, {"type": "Feature", "geometry": {"type": "Point", "coordinates": [127.3152816, 36.3002942]}, "properties": {"name": "예수빛교회", "address": "(34225) 대전 유성구 진잠로97 3층", "members_num": 5.0}}, {"type": "Feature", "geometry": {"type": "Point", "coordinates": [127.1324278, 36.8185107]}, "properties": {"name": "천안제자교회", "address": "(31140) 충남 천안시 서북구 개목10길5", "members_num": 20.0}}, {"type": "Feature", "geometry": {"type": "Point", "coordinates": [127.6993599, 36.932167]}, "properties": {"name": "음성새순교회", "address": "(27698) 충북 음성군 음성읍 약현길 58", "members_num": 30.0}}, {"type": "Feature", "geometry": {"type": "Point", "coordinates": [127.277023, 36.4692253]}, "properties": {"name": "김은주", "address": "(106동601호) 세종 세종시 대평1길27", "members_num": 500.0}}, {"type": "Feature", "geometry": {"type": "Point", "coordinates": [127.2779453, 36.4703221]}, "properties": {"name": "주예수소망교회", "address": "(30153) 세종 세종시 대평1길 22", "members_num": 350.0}}, {"type": "Feature", "geometry": {"type": "Point", "coordinates": [127.2104627, 36.772517]}, "properties": {"name": "목천서광교회", "address": "(목천서광교회) 충남 천안시 동남구 목천읍 충절로892 이수프라임아파트상가 4층", "members_num": 13.0}}, {"type": "Feature", "geometry": {"type": "Point", "coordinates": [127.3330542, 36.3498773]}, "properties": {"name": "대전소망교회", "address": "(34181) 대전 유성구 월드컵대로289번길30", "members_num": 7.0}}, {"type": "Feature", "geometry": {"type": "Point", "coordinates": [127.0878167, 36.2067517]}, "properties": {"name": "논산목민교회", "address": "(32966) 충남 논산시 중앙로 480번길 41-6", "members_num": 50.0}}, {"type": "Feature", "geometry": {"type": "Point", "coordinates": [126.6927351, 36.0759089]}, "properties": {"name": "예은교회", "address": "(33646) 충남 서천군 서천읍 충절로81번길 39, 2층", "members_num": 10.0}}, {"type": "Feature", "geometry": {"type": "Point", "coordinates": [127.431061, 36.63442089999999]}, "properties": {"name": "방승준", "address": "(28420) 충북 청주시 흥덕구 증안로 82", "members_num": 500.0}}, {"type": "Feature", "geometry": {"type": "Point", "coordinates": [127.3559135, 36.2988945]}, "properties": {"name": "산돌순복음교회", "address": "(35200) 대전 서구 가수원 중로4-24", "members_num": 10.0}}, {"type": "Feature", "geometry": {"type": "Point", "coordinates": [128.3666698, 36.9790079]}, "properties": {"name": "서머나교회", "address": "(27012) 충북 단양군 도전9길 5 (27012) 충북 단양군 도전9길 5", "members_num": 13.0}}, {"type": "Feature", "geometry": {"type": "Point", "coordinates": [127.7735818, 36.1542704]}, "properties": {"name": "양정교회", "address": "(29156) 충북 영동군 충청북도 영동군 양강면 양정죽촌로 146", "members_num": 0.0}}, {"type": "Feature", "geometry": {"type": "Point", "coordinates": [127.0792987, 36.38809579999999]}, "properties": {"name": "주봉교회", "address": "(32605) 충남 공주시 이인면 초왕동길 11", "members_num": 20.0}}, {"type": "Feature", "geometry": {"type": "Point", "coordinates": [127.2425982, 36.5009886]}, "properties": {"name": "무지개교회", "address": "(30064) 세종 세종시 도움1로145 108-1210", "members_num": 15.0}}, {"type": "Feature", "geometry": {"type": "Point", "coordinates": [127.1335581, 36.8283787]}, "properties": {"name": "순굼등대교회", "address": "(31108) 충남 천안시 서북구 서부대로688 현대프라자 308호", "members_num": 10.0}}, {"type": "Feature", "geometry": {"type": "Point", "coordinates": [127.4659326, 36.6496589]}, "properties": {"name": "임마누엘", "address": "(28466) 충북 청주시 흥덕구 백봉로267번길 6-10", "members_num": 200.0}}, {"type": "Feature", "geometry": {"type": "Point", "coordinates": [127.9302302, 36.9727894]}, "properties": {"name": "송현숙", "address": "(27387) 충북 충주시 중앙로 62-2 3층", "members_num": 4.0}}, {"type": "Feature", "geometry": {"type": "Point", "coordinates": [127.7095296, 36.4853071]}, "properties": {"name": "보은성결교회", "address": "(28945) 충북 보은군 보은읍 비룡소1길1", "members_num": 15.0}}, {"type": "Feature", "geometry": {"type": "Point", "coordinates": [126.9424116, 36.2242698]}, "properties": {"name": "남산성결교회", "address": "(33186) 충남 부여군 의자로 571-14", "members_num": 100.0}}, {"type": "Feature", "geometry": {"type": "Point", "coordinates": [127.1369833, 36.82008010000001]}, "properties": {"name": "새하늘소망교회", "address": "(31138) 충남 천안시 서북구 서부10길9", "members_num": 70.0}}, {"type": "Feature", "geometry": {"type": "Point", "coordinates": [127.1396937, 36.2959615]}, "properties": {"name": "상월교회", "address": "(32904) 충남 논산시 상월면장 신충길20", "members_num": 0.0}}, {"type": "Feature", "geometry": {"type": "Point", "coordinates": [127.1375553, 36.8222226]}, "properties": {"name": "새하늘소망교회", "address": "(31138) 충남 천안시 서북구 서부 1길 9", "members_num": 70.0}}, {"type": "Feature", "geometry": {"type": "Point", "coordinates": [127.3351473, 36.353551]}, "properties": {"name": "유성제일교회", "address": "(34177) 대전 유성구 계룡로 46번길 40", "members_num": 50.0}}, {"type": "Feature", "geometry": {"type": "Point", "coordinates": [127.4383579, 36.3409845]}, "properties": {"name": "꿈이있는교회", "address": "(300-180) 대전 동구 우암로186석촌주공상가B101호", "members_num": 50.0}}, {"type": "Feature", "geometry": {"type": "Point", "coordinates": [127.3981443, 36.3256252]}, "properties": {"name": "예수소망교회", "address": "(34893) 대전 중구 수침로 55번길 50", "members_num": 20.0}}, {"type": "Feature", "geometry": {"type": "Point", "coordinates": [126.6889878, 36.589038]}, "properties": {"name": "홍주성결교회", "address": "(32282) 충남 홍성군 홍성읍 충절로 810번길 11-15", "members_num": 12.0}}, {"type": "Feature", "geometry": {"type": "Point", "coordinates": [127.4129369, 36.3208471]}, "properties": {"name": "큰영광교회", "address": "(34955) 대전 중구 문화동1-97", "members_num": 25.0}}, {"type": "Feature", "geometry": {"type": "Point", "coordinates": [127.4581442, 36.8588431]}, "properties": {"name": "진천시민교회", "address": "(27848) 충북 진천군 진천읍 문화9길 2-7", "members_num": 92.0}}, {"type": "Feature", "geometry": {"type": "Point", "coordinates": [127.5230441, 36.7231513]}, "properties": {"name": "조이풀교회", "address": "(28143) 충북 청주시 청원구 내수읍 내수신안길 74", "members_num": 27.0}}, {"type": "Feature", "geometry": {"type": "Point", "coordinates": [127.4558348, 36.6473173]}, "properties": {"name": "제자들교회", "address": "(28448) 충북 청주시 흥덕구 월명로 140번길 31", "members_num": 55.0}}, {"type": "Feature", "geometry": {"type": "Point", "coordinates": [127.9346317, 36.9864073]}, "properties": {"name": "충북제일교회", "address": "(27350) 충북 충주시 동수1길 2", "members_num": 100.0}}, {"type": "Feature", "geometry": {"type": "Point", "coordinates": [127.1057527, 36.18891180000001]}, "properties": {"name": "한사랑교회", "address": "(32993) 충남 논산시 체육로 80", "members_num": 50.0}}, {"type": "Feature", "geometry": {"type": "Point", "coordinates": [126.883281, 36.3220549]}, "properties": {"name": "신성교회", "address": "(33114) 충남 부여군 규암면 서궁로287번길 26 신성교회", "members_num": 40.0}}, {"type": "Feature", "geometry": {"type": "Point", "coordinates": [127.1889978, 36.83006520000001]}, "properties": {"name": "소망의교회", "address": "(31066) 충남 천안시 동남구 성불사길41대림이편한세상 101동401호", "members_num": 50.0}}, {"type": "Feature", "geometry": {"type": "Point", "coordinates": [126.5296464, 37.0363582]}, "properties": {"name": "산돌그리스도의교회", "address": "(31700) 충남 당진시 석문면 원광길 37-7", "members_num": 42.0}}, {"type": "Feature", "geometry": {"type": "Point", "coordinates": [127.0194055, 36.7568866]}, "properties": {"name": "동행하는교회", "address": "(31560) 충남 아산시 온주길16번길 888-26 2층 동행하는교회", "members_num": 50.0}}, {"type": "Feature", "geometry": {"type": "Point", "coordinates": [127.1016715, 36.7423297]}, "properties": {"name": "용정교회", "address": "(31214) 충남 천안시 동남구 풍세면 돈마루1길 48-12", "members_num": 5.0}}, {"type": "Feature", "geometry": {"type": "Point", "coordinates": [126.559943, 36.6642585]}, "properties": {"name": "장요교회", "address": "(32452) 충남 서산시 고북면 고요동1길9", "members_num": 50.0}}, {"type": "Feature", "geometry": {"type": "Point", "coordinates": [126.6912231, 36.9658251]}, "properties": {"name": "당진방주교회", "address": "(33140) 충남 당진시 송산면 유곡5길 7", "members_num": 200.0}}, {"type": "Feature", "geometry": {"type": "Point", "coordinates": [127.6034015, 36.9865724]}, "properties": {"name": "무극장로교회", "address": "(27637) 충북 음성군 음성로1112", "members_num": 400.0}}, {"type": "Feature", "geometry": {"type": "Point", "coordinates": [127.4198361, 36.93360940000001]}, "properties": {"name": "이월감리교회", "address": "(27813) 충북 진천군 이월면 진안로26", "members_num": 300.0}}, {"type": "Feature", "geometry": {"type": "Point", "coordinates": [127.316586, 36.7574249]}, "properties": {"name": "매봉교회", "address": "(31287) 충남 천안시 동남구 병천면 유관순생가길 18-4", "members_num": 30.0}}, {"type": "Feature", "geometry": {"type": "Point", "coordinates": [127.319511, 36.3725795]}, "properties": {"name": "주빛교회", "address": "(34086) 대전 유성구 대전 유성구 지족동 907-8 5층", "members_num": 25.0}}, {"type": "Feature", "geometry": {"type": "Point", "coordinates": [127.6969148, 36.3955454]}, "properties": {"name": "오덕침례교회", "address": "(29008) 충북 옥천군 안내면 오덕1길18", "members_num": 15.0}}, {"type": "Feature", "geometry": {"type": "Point", "coordinates": [126.8992679, 36.1674834]}, "properties": {"name": "임천중앙교회", "address": "(32220) 충남 부여군 임천면 부흥로 63", "members_num": 30.0}}, {"type": "Feature", "geometry": {"type": "Point", "coordinates": [126.6796095, 36.6614424]}, "properties": {"name": "내포평안교회", "address": "(32416) 충남 예산군 삽교읍 청사로 192번길 18 607호", "members_num": 25.0}}, {"type": "Feature", "geometry": {"type": "Point", "coordinates": [127.4508461, 36.3534556]}, "properties": {"name": "동대전그리스도의교회", "address": "(34528) 대전 동구 비래서로62번길30", "members_num": 30.0}}, {"type": "Feature", "geometry": {"type": "Point", "coordinates": [127.3737529, 36.3661631]}, "properties": {"name": "만년중앙교회", "address": "(35200) 대전 서구 만년로20, 지층", "members_num": 20.0}}, {"type": "Feature", "geometry": {"type": "Point", "coordinates": [127.2575365, 36.2701285]}, "properties": {"name": "계룡늘사랑교회", "address": "(32827) 충남 계룡시 서금암로 53, 3층", "members_num": 100.0}}, {"type": "Feature", "geometry": {"type": "Point", "coordinates": [126.5956706, 36.3159862]}, "properties": {"name": "물댄동산교회", "address": "(33493) 충남 보령시 남포면 보령남로 386", "members_num": 6.0}}, {"type": "Feature", "geometry": {"type": "Point", "coordinates": [127.4175018, 36.3667935]}, "properties": {"name": "강성침례교회", "address": "(34372) 대전 대덕구 대화 11길 11 세원풍남 아파트 3동 205호", "members_num": 5.0}}, {"type": "Feature", "geometry": {"type": "Point", "coordinates": [127.4338788, 36.3476598]}, "properties": {"name": "제자들교회", "address": "(32054) 대전 동구 동서대로 1654", "members_num": 2000.0}}, {"type": "Feature", "geometry": {"type": "Point", "coordinates": [127.2895457, 36.5954574]}, "properties": {"name": "세종샘교회", "address": "(30030) 세종 세종시 조치원읍 큰말 2길 6", "members_num": 80.0}}, {"type": "Feature", "geometry": {"type": "Point", "coordinates": [127.301723, 36.5946249]}, "properties": {"name": "세종한빛교회", "address": "(30035) 세종 세종시 조치원읍 산책1길 32", "members_num": 30.0}}, {"type": "Feature", "geometry": {"type": "Point", "coordinates": [127.1400953, 36.8064847]}, "properties": {"name": "우리주님의교회", "address": "(31152) 충남 천안시 동남구 봉정로 50 2층", "members_num": 7.0}}, {"type": "Feature", "geometry": {"type": "Point", "coordinates": [127.1272386, 36.7897399]}, "properties": {"name": "천안여명교회", "address": "(31176) 충남 천안시 서북구 신방동 70-6", "members_num": 1000.0}}, {"type": "Feature", "geometry": {"type": "Point", "coordinates": [127.4888206, 36.6630021]}, "properties": {"name": "꿈이있는교회", "address": "(28492) 충북 청주시 청원구 공항로64번길 32 2층", "members_num": 10.0}}, {"type": "Feature", "geometry": {"type": "Point", "coordinates": [126.7050571, 36.0115816]}, "properties": {"name": "더사랑교회", "address": "(33675) 충남 서천군 장항읍 성주새길 8", "members_num": 7.0}}, {"type": "Feature", "geometry": {"type": "Point", "coordinates": [127.2480926, 36.5134326]}, "properties": {"name": "세종맑은샘교회", "address": "(30100) 세종 세종시 만남로 140 에이스프라자305", "members_num": 15.0}}, {"type": "Feature", "geometry": {"type": "Point", "coordinates": [127.6775008, 36.90126850000001]}, "properties": {"name": "음성상당교회", "address": "(27720) 충북 음성군 원남면 충청대로1007번길 42", "members_num": 70.0}}, {"type": "Feature", "geometry": {"type": "Point", "coordinates": [127.0138686, 36.78663230000001]}, "properties": {"name": "온양갈보리교회", "address": "(31522) 충남 아산시 삼동로 102-5", "members_num": 120.0}}, {"type": "Feature", "geometry": {"type": "Point", "coordinates": [127.3151843, 36.2392075]}, "properties": {"name": "들마루교회", "address": "(35427) 대전 서구 길마루길57", "members_num": 20.0}}, {"type": "Feature", "geometry": {"type": "Point", "coordinates": [127.4417808, 36.3625392]}, "properties": {"name": "늘사랑침례교회", "address": "(34420) 대전 대덕구 송촌로 94-31", "members_num": 150.0}}, {"type": "Feature", "geometry": {"type": "Point", "coordinates": [127.1360653, 36.4572455]}, "properties": {"name": "기드온교회", "address": "(32556) 충남 공주시 주소 무령로 333 2층 기드온교회", "members_num": 20.0}}, {"type": "Feature", "geometry": {"type": "Point", "coordinates": [126.9491732, 36.371207]}, "properties": {"name": "청양마라나타교회", "address": "(33363) 충남 청양군 청남면 지곡2길 10-37", "members_num": 6.0}}, {"type": "Feature", "geometry": {"type": "Point", "coordinates": [126.6431267, 36.9007594]}, "properties": {"name": "당진동일교회", "address": "(31771) 충남 당진시 밤절로 104, 309-203", "members_num": 0.0}}, {"type": "Feature", "geometry": {"type": "Point", "coordinates": [126.60582, 36.3549604]}, "properties": {"name": "언약교회", "address": "(33430) 충남 보령시 보령시 천변남길 390-21", "members_num": 30.0}}, {"type": "Feature", "geometry": {"type": "Point", "coordinates": [126.8970822, 36.8768354]}, "properties": {"name": "신성교회", "address": "(31429) 충남 아산시 인주면 서해로532번길 4-10", "members_num": 65.0}}, {"type": "Feature", "geometry": {"type": "Point", "coordinates": [127.2344, 36.5050737]}, "properties": {"name": "예함교회", "address": "(30063) 세종 세종시 마음로70, 에셀프라자5층 507호", "members_num": 150.0}}, {"type": "Feature", "geometry": {"type": "Point", "coordinates": [126.7770599, 36.8079]}, "properties": {"name": "합덕외국인교회", "address": "(31813) 충남 당진시 합덕읍 합덕교동2길 9 3층", "members_num": 30.0}}, {"type": "Feature", "geometry": {"type": "Point", "coordinates": [127.4427358, 36.3155013]}, "properties": {"name": "대전성산성결교회", "address": "(34687) 대전 동구 대전로 542번길121 312동204호", "members_num": 400.0}}, {"type": "Feature", "geometry": {"type": "Point", "coordinates": [126.6532846, 36.5218093]}, "properties": {"name": "월림침례교회", "address": "(32287) 충남 홍성군 홍성읍 광금남로132-11", "members_num": 30.0}}, {"type": "Feature", "geometry": {"type": "Point", "coordinates": [127.2155574, 36.7714728]}, "properties": {"name": "예광교회", "address": "(31233) 충남 천안시 동남구 목천읍 신계5길 47", "members_num": 50.0}}, {"type": "Feature", "geometry": {"type": "Point", "coordinates": [127.4143942, 36.35659810000001]}, "properties": {"name": "큰사랑교회", "address": "(34447) 대전 대덕구 오정로78번길 111 2층", "members_num": 0.0}}, {"type": "Feature", "geometry": {"type": "Point", "coordinates": [127.3403551, 36.2961353]}, "properties": {"name": "한명교회", "address": "(35382) 대전 서구 관저동로 47-3 지하(관저동1380)", "members_num": 20.0}}, {"type": "Feature", "geometry": {"type": "Point", "coordinates": [126.8413262, 36.2179853]}, "properties": {"name": "마정성결교회", "address": "(33210) 충남 부여군 남면 마정로 17-5", "members_num": 200.0}}, {"type": "Feature", "geometry": {"type": "Point", "coordinates": [126.8451636, 36.2998708]}, "properties": {"name": "가중교회", "address": "(33111) 충남 부여군 은산면 은남로9", "members_num": 50.0}}, {"type": "Feature", "geometry": {"type": "Point", "coordinates": [126.7770583, 36.1999663]}, "properties": {"name": "대선성결교회", "address": "(33208) 충남 부여군 남면 금천로143번길28-4", "members_num": 60.0}}, {"type": "Feature", "geometry": {"type": "Point", "coordinates": [127.109656, 36.1628894]}, "properties": {"name": "샘물교회", "address": "(33000) 충남 논산시 은진면 매쥑헌로53번길 44-34", "members_num": 7.0}}, {"type": "Feature", "geometry": {"type": "Point", "coordinates": [127.1022313, 36.1401674]}, "properties": {"name": "연무성결교회", "address": "(3330) 충남 논산시 연무읍 안심로 220번길13", "members_num": 15.0}}, {"type": "Feature", "geometry": {"type": "Point", "coordinates": [127.142918, 36.3883333]}, "properties": {"name": "기산감리교회", "address": "(32613) 충남 공주시 계룡면 다라울중대길 25", "members_num": 15.0}}, {"type": "Feature", "geometry": {"type": "Point", "coordinates": [127.2933068, 36.5902449]}, "properties": {"name": "푸른초원교회", "address": "(30038) 세종 세종시 조치원읍 다막골길14", "members_num": 30.0}}, {"type": "Feature", "geometry": {"type": "Point", "coordinates": [127.0290612, 36.7574359]}, "properties": {"name": "새능력교회", "address": "(31581) 충남 아산시 배방읍고불로623B동302호(그린)", "members_num": 10.0}}, {"type": "Feature", "geometry": {"type": "Point", "coordinates": [127.2512165, 36.4959785]}, "properties": {"name": "쉴만한물가교회", "address": "(30123) 세종 세종시 다정북로183 가온마을9단지 902동1603호", "members_num": 10.0}}, {"type": "Feature", "geometry": {"type": "Point", "coordinates": [127.3250843, 36.3879861]}, "properties": {"name": "창대침례교회", "address": "(34093) 대전 유성구 노은로358.406동905호", "members_num": 8.0}}, {"type": "Feature", "geometry": {"type": "Point", "coordinates": [127.1336769, 36.8155514]}, "properties": {"name": "세움교회", "address": "(31140) 충남 천안시 동남구 개목5길 12", "members_num": 10.0}}, {"type": "Feature", "geometry": {"type": "Point", "coordinates": [127.3174103, 36.4010059]}, "properties": {"name": "대전침례교회", "address": "(35223) 대전 유성구 외삼로 78-19", "members_num": 50.0}}, {"type": "Feature", "geometry": {"type": "Point", "coordinates": [127.2215011, 36.1413743]}, "properties": {"name": "주님의교회", "address": "(33023) 충남 논산시 양촌면 매죽헌로 1665번길 209", "members_num": 20.0}}, {"type": "Feature", "geometry": {"type": "Point", "coordinates": [127.1594511, 36.8803606]}, "properties": {"name": "순복음천안하모니교회", "address": "(31035) 충남 천안시 서북구 직산읍 직산로 18-41 청호6차 상가 2층", "members_num": 20.0}}, {"type": "Feature", "geometry": {"type": "Point", "coordinates": [127.8707188, 36.9593531]}, "properties": {"name": "킹덤미니스트리처치", "address": "(27471) 충북 충주시 대소원면 만정리109-4 세영에뜨와르 101-508호", "members_num": 2.0}}, {"type": "Feature", "geometry": {"type": "Point", "coordinates": [127.2359751, 36.5194444]}, "properties": {"name": "복음대로교회", "address": "(30062) 세종 세종시 마음로272-5 티앤스타빌딩 305호", "members_num": 20.0}}, {"type": "Feature", "geometry": {"type": "Point", "coordinates": [127.0889644, 36.7852758]}, "properties": {"name": "위로와소망교회", "address": "(31465) 충남 아산시 탕정면 한들물빛 6로 14, 302호", "members_num": 100.0}}, {"type": "Feature", "geometry": {"type": "Point", "coordinates": [127.1943798, 36.4890024]}, "properties": {"name": "공주동현감리교회", "address": "(32590) 충남 공주시 장척로257 동현교회 2층", "members_num": 6.0}}, {"type": "Feature", "geometry": {"type": "Point", "coordinates": [127.1233114, 36.7891279]}, "properties": {"name": "천안삼일교회", "address": "(31177) 충남 천안시 동남구 신촌3길 16, 202호", "members_num": 40.0}}, {"type": "Feature", "geometry": {"type": "Point", "coordinates": [127.4775361, 36.6341396]}, "properties": {"name": "대흥장로교회(청주시)", "address": "(28654) 충북 청주시 서원구 사운로 47번길 지하1층", "members_num": 15.0}}, {"type": "Feature", "geometry": {"type": "Point", "coordinates": [127.1451542, 36.8864454]}, "properties": {"name": "한마음교회", "address": "(31031) 충남 천안시 서북구 거리막길23 (2층 택배보관함)", "members_num": 12.0}}, {"type": "Feature", "geometry": {"type": "Point", "coordinates": [127.3194704, 36.3740641]}, "properties": {"name": "한보선교회", "address": "(34086) 대전 유성구 은구비로 48", "members_num": 7.0}}, {"type": "Feature", "geometry": {"type": "Point", "coordinates": [128.3666698, 36.9790079]}, "properties": {"name": "서머나교회", "address": "(27012) 충북 단양군 도전9길 5 (27012) 충북 단양군 도전9길 5", "members_num": 10.0}}, {"type": "Feature", "geometry": {"type": "Point", "coordinates": [127.4739189, 36.6640423]}, "properties": {"name": "에셀나무교회", "address": "(28341) 충북 청주시 청원구 율봉로31, 103동102호(사천동아1차아파트)", "members_num": 10.0}}, {"type": "Feature", "geometry": {"type": "Point", "coordinates": [127.0512525, 36.4692878]}, "properties": {"name": "우성교회", "address": "(32531) 충남 공주시 우성면 동대리길 72-10", "members_num": 50.0}}, {"type": "Feature", "geometry": {"type": "Point", "coordinates": [127.404648, 36.3303085]}, "properties": {"name": "대전충신교회", "address": "(34827) 대전 중구 계룡로 773", "members_num": 60.0}}, {"type": "Feature", "geometry": {"type": "Point", "coordinates": [126.623452, 36.4878493]}, "properties": {"name": "광천중앙침례교회", "address": "(32297) 충남 홍성군 광천읍 광천로 176", "members_num": 45.0}}, {"type": "Feature", "geometry": {"type": "Point", "coordinates": [126.8782426, 36.7495468]}, "properties": {"name": "해비타트교회", "address": "(31550) 충남 아산시 도고면 온천대로207번길16", "members_num": 30.0}}, {"type": "Feature", "geometry": {"type": "Point", "coordinates": [127.6578664, 36.6308613]}, "properties": {"name": "미원중앙교회", "address": "(28199) 충북 청주시 상당구 미원면 단재로2466", "members_num": 80.0}}, {"type": "Feature", "geometry": {"type": "Point", "coordinates": [127.0310065, 36.75307840000001]}, "properties": {"name": "새생명교회", "address": "(새생명교회) 충남 아산시 고불로 667 초원 1차상가 3층", "members_num": 35.0}}, {"type": "Feature", "geometry": {"type": "Point", "coordinates": [127.1296104, 36.8011623]}, "properties": {"name": "열린하늘문교회", "address": "(31155) 충남 천안시 서북구 미라2길 22-4", "members_num": 0.0}}, {"type": "Feature", "geometry": {"type": "Point", "coordinates": [127.9903928, 36.8443145]}, "properties": {"name": "수안보감리교회", "address": "(27497) 충북 충주시 수안보면 조산공원길 61", "members_num": 50.0}}, {"type": "Feature", "geometry": {"type": "Point", "coordinates": [129.0636609, 36.3455302]}, "properties": {"name": "부남중앙교회", "address": "(37443) 경북 청송군 부남면 대전1길18", "members_num": 100.0}}, {"type": "Feature", "geometry": {"type": "Point", "coordinates": [126.4070783, 36.3723104]}, "properties": {"name": "원산중앙교회", "address": "(33411) 충남 보령시 오천면 원산도7길 20-10 원산중앙교회", "members_num": 40.0}}, {"type": "Feature", "geometry": {"type": "Point", "coordinates": [126.7480511, 36.9085841]}, "properties": {"name": "초대교회", "address": "(초대교회) 충남 당진시 새말길 56", "members_num": 50.0}}, {"type": "Feature", "geometry": {"type": "Point", "coordinates": [127.0980716, 36.1822115]}, "properties": {"name": "논산성결교회", "address": "(32988) 충남 논산시 시민로 149", "members_num": 500.0}}, {"type": "Feature", "geometry": {"type": "Point", "coordinates": [127.6556541, 36.0745866]}, "properties": {"name": "봉산교회", "address": "(29165) 충북 영동군 학산면 죽촌리길 11", "members_num": 30.0}}, {"type": "Feature", "geometry": {"type": "Point", "coordinates": [127.2498473, 36.5122553]}, "properties": {"name": "하늘뜨락교회", "address": "(30100) 세종 세종시 보듬3로 104-19 세석빌딩404호", "members_num": 30.0}}, {"type": "Feature", "geometry": {"type": "Point", "coordinates": [127.4199884, 36.3411491]}, "properties": {"name": "예수생명교회", "address": "(34566) 대전 동구 태전로153번길 6", "members_num": 10.0}}, {"type": "Feature", "geometry": {"type": "Point", "coordinates": [126.7132638, 36.6162161]}, "properties": {"name": "따뜻한교회", "address": "(32280) 충남 홍성군 충서로2036번길 82 105동106호", "members_num": 10.0}}, {"type": "Feature", "geometry": {"type": "Point", "coordinates": [127.1346154, 36.8197643]}, "properties": {"name": "천안중부교회", "address": "(31139) 충남 천안시 서북구 도원3길 13", "members_num": 100.0}}, {"type": "Feature", "geometry": {"type": "Point", "coordinates": [127.1250266, 36.8195813]}, "properties": {"name": "갈보리채플사랑의교회", "address": "(31158) 충남 천안시 서북구 백석로 136 백석현대아파트 103동 1101호", "members_num": 15.0}}, {"type": "Feature", "geometry": {"type": "Point", "coordinates": [127.0620516, 36.9393418]}, "properties": {"name": "방죽교회", "address": "(31409) 충남 아산시 둔포면 충무로2031-20 방죽교회", "members_num": 17.0}}, {"type": "Feature", "geometry": {"type": "Point", "coordinates": [126.5679982, 36.5399673]}, "properties": {"name": "은하교회", "address": "(32209) 충남 홍성군 구성남로 310번길 80", "members_num": 50.0}}, {"type": "Feature", "geometry": {"type": "Point", "coordinates": [128.1183548, 37.1154572]}, "properties": {"name": "감동교회", "address": "(27117) 충북 제천시 봉양읍 논골로 47", "members_num": 30.0}}, {"type": "Feature", "geometry": {"type": "Point", "coordinates": [126.8138198, 36.2523829]}, "properties": {"name": "태양교회", "address": "(33191) 충남 부여군 태양로 24", "members_num": 180.0}}, {"type": "Feature", "geometry": {"type": "Point", "coordinates": [126.9685853, 36.72647740000001]}, "properties": {"name": "동화교회", "address": "(31555) 충남 아산시 송악면 신정로 10", "members_num": 25.0}}, {"type": "Feature", "geometry": {"type": "Point", "coordinates": [127.5752439, 36.2932832]}, "properties": {"name": "옥천남부교회", "address": "(29049) 충북 옥천군 마장로65", "members_num": 50.0}}, {"type": "Feature", "geometry": {"type": "Point", "coordinates": [127.479732, 36.6406214]}, "properties": {"name": "주사랑교회", "address": "(28550) 충북 청주시 서원구 대원로31번길 11", "members_num": 10.0}}, {"type": "Feature", "geometry": {"type": "Point", "coordinates": [127.442859, 36.6362146]}, "properties": {"name": "둥지교회", "address": "(28587) 충북 청주시 흥덕구 가로수로1351번길 64 둥지교회", "members_num": 15.0}}, {"type": "Feature", "geometry": {"type": "Point", "coordinates": [127.4911896, 36.64860230000001]}, "properties": {"name": "세움교회", "address": "(28505) 충북 청주시 청원구 대성로261번길1 3층 세움교회", "members_num": 20.0}}, {"type": "Feature", "geometry": {"type": "Point", "coordinates": [127.3884558, 36.3097314]}, "properties": {"name": "참빛교회", "address": "(33995) 대전 중구 문화로 22. 지하 1층", "members_num": 30.0}}, {"type": "Feature", "geometry": {"type": "Point", "coordinates": [127.458488, 36.33931090000001]}, "properties": {"name": "대전승리교회", "address": "(34519) 대전 동구 대학로102-7 용운마젤란@ 102동 701호", "members_num": 20.0}}, {"type": "Feature", "geometry": {"type": "Point", "coordinates": [126.9472797, 36.2885584]}, "properties": {"name": "부여경한교회", "address": "(33130) 충남 부여군 부여읍 17-12", "members_num": 40.0}}, {"type": "Feature", "geometry": {"type": "Point", "coordinates": [126.4533841, 36.8218335]}, "properties": {"name": "성연감리교회", "address": "(31931) 충남 서산시 성연면 성연4로 46 이편한세상 104동 101호", "members_num": 50.0}}, {"type": "Feature", "geometry": {"type": "Point", "coordinates": [126.9743936, 36.5997203]}, "properties": {"name": "신달감리교회", "address": "(32502) 충남 공주시 신달길 31-9", "members_num": 40.0}}, {"type": "Feature", "geometry": {"type": "Point", "coordinates": [127.5665133, 36.3045947]}, "properties": {"name": "호산나교회", "address": "(29033) 충북 옥천군 옥천읍 삼양로 5길 5-20", "members_num": 150.0}}, {"type": "Feature", "geometry": {"type": "Point", "coordinates": [126.707587, 36.901392]}, "properties": {"name": "예수향기교회", "address": "(31734) 충남 당진시 송악읍 반촌로267 동진상가3층", "members_num": 30.0}}, {"type": "Feature", "geometry": {"type": "Point", "coordinates": [127.2404017, 36.5162343]}, "properties": {"name": "기쁨이샘솟는교회", "address": "(30101) 세종 세종시 만남로 190 2001동 201호", "members_num": 35.0}}, {"type": "Feature", "geometry": {"type": "Point", "coordinates": [127.4247916, 36.4745385]}, "properties": {"name": "현도교회", "address": "(289149) 충북 청주시 서원구 현도면 매봉길 16-110", "members_num": 200.0}}, {"type": "Feature", "geometry": {"type": "Point", "coordinates": [127.4444208, 36.6111068]}, "properties": {"name": "약속의교회", "address": "(28618) 충북 청주시 서원구 성화로69번길 30-10", "members_num": 50.0}}, {"type": "Feature", "geometry": {"type": "Point", "coordinates": [126.8681679, 36.7630089]}, "properties": {"name": "도고교회", "address": "(31550) 충남 아산시 도고면 아산만로 214번길 5-6", "members_num": 50.0}}, {"type": "Feature", "geometry": {"type": "Point", "coordinates": [127.4919305, 36.6585979]}, "properties": {"name": "청주소망", "address": "(28500) 충북 청주시 청원구 충청대로22번길 27. 청주소망교회", "members_num": 70.0}}, {"type": "Feature", "geometry": {"type": "Point", "coordinates": [127.2346669, 36.5059358]}, "properties": {"name": "순복음예심교회", "address": "(30063) 세종 세종시 고운서길16 601호", "members_num": 11.0}}, {"type": "Feature", "geometry": {"type": "Point", "coordinates": [126.5176617, 36.5256133]}, "properties": {"name": "성호교회", "address": "(32212) 충남 홍성군 결성면 임해로 409-34", "members_num": 20.0}}, {"type": "Feature", "geometry": {"type": "Point", "coordinates": [127.3168956, 36.3038776]}, "properties": {"name": "참빛교회", "address": "(34225) 대전 유성구 진잠로139번길 14", "members_num": 20.0}}, {"type": "Feature", "geometry": {"type": "Point", "coordinates": [126.8656457, 36.5809581]}, "properties": {"name": "만사교회", "address": "(32453) 충남 예산군 신양면 만사2길 15", "members_num": 20.0}}, {"type": "Feature", "geometry": {"type": "Point", "coordinates": [127.4625965, 36.3179383]}, "properties": {"name": "예장통합", "address": "(34677) 대전 동구 옥천로 202-7 2충", "members_num": 20.0}}, {"type": "Feature", "geometry": {"type": "Point", "coordinates": [127.3676099, 36.33887850000001]}, "properties": {"name": "새람교회", "address": "(35284) 대전 서구 신갈마로 46 112동305호", "members_num": 20.0}}, {"type": "Feature", "geometry": {"type": "Point", "coordinates": [127.5129892, 36.2548486]}, "properties": {"name": "군서제일교회", "address": "(20960) 충북 옥천군 상지 1길 22-6", "members_num": 50.0}}, {"type": "Feature", "geometry": {"type": "Point", "coordinates": [127.2136395, 36.5995681]}, "properties": {"name": "쌍류교회", "address": "(30041) 세종 세종시 쌍류송암길 71-11", "members_num": 33.0}}, {"type": "Feature", "geometry": {"type": "Point", "coordinates": [127.1210511, 36.8029863]}, "properties": {"name": "하일교회", "address": "(31166) 충남 천안시 서북구 쌍용12길20, 2층", "members_num": 50.0}}, {"type": "Feature", "geometry": {"type": "Point", "coordinates": [126.6129979, 36.341458]}, "properties": {"name": "초대교회", "address": "(33481) 충남 보령시 명천로11", "members_num": 300.0}}, {"type": "Feature", "geometry": {"type": "Point", "coordinates": [126.8416076, 36.7260786]}, "properties": {"name": "예산수정교회", "address": "(32421) 충남 예산군 예산읍 신례원로 171번길 21", "members_num": 20.0}}, {"type": "Feature", "geometry": {"type": "Point", "coordinates": [127.3698908, 36.3170013]}, "properties": {"name": "사랑교회", "address": "(35347) 대전 서구 배재로91번길 24,3층", "members_num": 12.0}}, {"type": "Feature", "geometry": {"type": "Point", "coordinates": [127.1181338, 36.7942281]}, "properties": {"name": "천안제자교회", "address": "(31172) 충남 천안시 서북구 월봉로 38, 401호", "members_num": 50.0}}, {"type": "Feature", "geometry": {"type": "Point", "coordinates": [126.5349697, 36.7104713]}, "properties": {"name": "복된교회", "address": "(31991) 충남 서산시 해미면 조산1길 39", "members_num": 10.0}}, {"type": "Feature", "geometry": {"type": "Point", "coordinates": [127.2779453, 36.4703221]}, "properties": {"name": "주예수소망교회", "address": "(30153) 세종 세종시 대평1길 22", "members_num": 300.0}}, {"type": "Feature", "geometry": {"type": "Point", "coordinates": [127.2343714, 36.5050783]}, "properties": {"name": "디사이플교회", "address": "(30063) 세종 세종시 마음로70, 305호", "members_num": 50.0}}, {"type": "Feature", "geometry": {"type": "Point", "coordinates": [127.4234591, 36.9267888]}, "properties": {"name": "산울다함께하는교회", "address": "(27834) 충북 진천군 이월면 진광로709~100/2층", "members_num": 33.0}}, {"type": "Feature", "geometry": {"type": "Point", "coordinates": [127.3487223, 36.3625639]}, "properties": {"name": "유성중앙교회", "address": "(34137) 대전 유성구 궁동로 36", "members_num": 200.0}}, {"type": "Feature", "geometry": {"type": "Point", "coordinates": [127.4252217, 36.3414949]}, "properties": {"name": "산돌교회", "address": "(34568) 대전 동구 대전로 938-1", "members_num": 5.0}}, {"type": "Feature", "geometry": {"type": "Point", "coordinates": [127.2936886, 36.5901846]}, "properties": {"name": "번암침례교회", "address": "(30037) 세종 세종시 조치원읍군청로", "members_num": 12.0}}, {"type": "Feature", "geometry": {"type": "Point", "coordinates": [127.3017928, 36.6026348]}, "properties": {"name": "기독교한국침례회", "address": "(30024) 세종 세종시 조치원읍 새내12길68 (상리)", "members_num": 100.0}}, {"type": "Feature", "geometry": {"type": "Point", "coordinates": [127.4962436, 36.6578847]}, "properties": {"name": "순복음비전교회", "address": "(28497) 충북 청주시 청원구 안덕벌로86번길 35", "members_num": 30.0}}, {"type": "Feature", "geometry": {"type": "Point", "coordinates": [126.9728103, 36.5536733]}, "properties": {"name": "농기교회", "address": "(32508) 충남 공주시 유구읍 통미길 28-10", "members_num": 25.0}}, {"type": "Feature", "geometry": {"type": "Point", "coordinates": [127.1522409, 36.8796988]}, "properties": {"name": "천안평안교회", "address": "(31037) 충남 천안시 서북구 삼은5길14 일진@상가 2층", "members_num": 30.0}}, {"type": "Feature", "geometry": {"type": "Point", "coordinates": [127.1458673, 36.8144843]}, "properties": {"name": "천안주향교회", "address": "(31143) 충남 천안시 서북구 선영9길 11-3(성정동 124-27)", "members_num": 50.0}}, {"type": "Feature", "geometry": {"type": "Point", "coordinates": [126.4567625, 36.7895582]}, "properties": {"name": "평강교회", "address": "(31969) 충남 서산시 향교1로 12 대림아파트 상가 2층", "members_num": 20.0}}, {"type": "Feature", "geometry": {"type": "Point", "coordinates": [127.1180125, 36.8074634]}, "properties": {"name": "등대교회", "address": "(31161) 충남 천안시 서북구 봉서산1길 37. 501호", "members_num": 20.0}}, {"type": "Feature", "geometry": {"type": "Point", "coordinates": [127.1156811, 36.7949259]}, "properties": {"name": "한마음교회", "address": "(31171) 충남 천안시 서북구 월봉 4로 88-4 월봉종합상가 A동 202호", "members_num": 30.0}}, {"type": "Feature", "geometry": {"type": "Point", "coordinates": [127.0573982, 36.923725]}, "properties": {"name": "둔포성도교회", "address": "(31406) 충남 아산시 아산밸리중앙로 85 701호 (스타빌딩)", "members_num": 20.0}}, {"type": "Feature", "geometry": {"type": "Point", "coordinates": [127.0698695, 36.8966424]}, "properties": {"name": "열방빛교회", "address": "(31408) 충남 아산시 음봉면 신의길 25번길 20-8", "members_num": 15.0}}, {"type": "Feature", "geometry": {"type": "Point", "coordinates": [127.2486612, 36.5114366]}, "properties": {"name": "세종만나교회", "address": "(30100) 세종 세종시 보듬3로95 해피라움3동 306호", "members_num": 30.0}}, {"type": "Feature", "geometry": {"type": "Point", "coordinates": [127.9356517, 36.9661113]}, "properties": {"name": "솔무리교회", "address": "(27394) 충북 충주시 용산동202번지", "members_num": 17.0}}, {"type": "Feature", "geometry": {"type": "Point", "coordinates": [127.9207366, 36.8545375]}, "properties": {"name": "주마음교회", "address": "(28008) 충북 괴산군 장연면 충민로 방곡3길23", "members_num": 30.0}}, {"type": "Feature", "geometry": {"type": "Point", "coordinates": [127.8527122, 36.42077039999999]}, "properties": {"name": "소여교회", "address": "(28965) 충북 보은군 마로면 소여길 194", "members_num": 22.0}}, {"type": "Feature", "geometry": {"type": "Point", "coordinates": [126.4500752, 36.7646841]}, "properties": {"name": "영광성결교회", "address": "(32005) 충남 서산시 예천 8로 26, 3층", "members_num": 20.0}}, {"type": "Feature", "geometry": {"type": "Point", "coordinates": [126.7130505, 36.68551739999999]}, "properties": {"name": "평촌교회", "address": "(32416) 충남 예산군 수평로321-8", "members_num": 30.0}}, {"type": "Feature", "geometry": {"type": "Point", "coordinates": [126.6067055, 36.3416217]}, "properties": {"name": "샬롬엘림교회", "address": "(33479) 충남 보령시 주공로65 명천주공3,4,5차아파트 318동701호", "members_num": 7.0}}, {"type": "Feature", "geometry": {"type": "Point", "coordinates": [127.8798523, 36.8501403]}, "properties": {"name": "백양교회", "address": "(28005) 충북 괴산군 감물로백양3길10", "members_num": 25.0}}, {"type": "Feature", "geometry": {"type": "Point", "coordinates": [127.5644563, 36.8022603]}, "properties": {"name": "하늘빛교회", "address": "(27913) 충북 증평군 영천길 78 하늘빛교회", "members_num": 20.0}}, {"type": "Feature", "geometry": {"type": "Point", "coordinates": [128.2135472, 37.1672266]}, "properties": {"name": "하늘빛교회", "address": "(27137) 충북 제천시 제천북로 739-6", "members_num": 35.0}}, {"type": "Feature", "geometry": {"type": "Point", "coordinates": [127.1404832, 36.8921639]}, "properties": {"name": "한사랑감리교회", "address": "(31031) 충남 천안시 서북구 직산읍 군수1길 34-20", "members_num": 100.0}}, {"type": "Feature", "geometry": {"type": "Point", "coordinates": [127.01089, 36.7866679]}, "properties": {"name": "주빛교회", "address": "(31519) 충남 아산시 청운로146번길 19 (권곡동), 2층 [권곡동, 535-5]", "members_num": 16.0}}, {"type": "Feature", "geometry": {"type": "Point", "coordinates": [127.385183, 36.4392298]}, "properties": {"name": "북대전교회", "address": "(34006) 대전 유성구 와룡로 136번길 75 208동 1302호", "members_num": 42.0}}, {"type": "Feature", "geometry": {"type": "Point", "coordinates": [126.7374271, 36.6883024]}, "properties": {"name": "삽교성결교회", "address": "(32414) 충남 예산군 삽교읍 삽교로1길 23 삽교교회 사무실", "members_num": 200.0}}, {"type": "Feature", "geometry": {"type": "Point", "coordinates": [127.140084, 36.7999325]}, "properties": {"name": "갈보리교회", "address": "(31154) 충남 천안시 동남구 다가10길 3-1", "members_num": 40.0}}, {"type": "Feature", "geometry": {"type": "Point", "coordinates": [126.9879374, 36.7877035]}, "properties": {"name": "온양신광교회", "address": "(31502) 충남 아산시 뭄화로 25-3", "members_num": 350.0}}, {"type": "Feature", "geometry": {"type": "Point", "coordinates": [127.233528, 36.5036349]}, "properties": {"name": "웨이브처치", "address": "(30063) 세종 세종시 마음로67 근생 2-210호", "members_num": 20.0}}, {"type": "Feature", "geometry": {"type": "Point", "coordinates": [127.3317295, 36.358906]}, "properties": {"name": "꿈꾸는교회", "address": "(34173) 대전 유성구 유성대로719번안길 5", "members_num": 70.0}}, {"type": "Feature", "geometry": {"type": "Point", "coordinates": [127.202605, 36.90956329999999]}, "properties": {"name": "성거모전교회", "address": "(31042) 충남 천안시 서북구 성거읍 모전2길 144 성거모전교회", "members_num": 40.0}}, {"type": "Feature", "geometry": {"type": "Point", "coordinates": [128.2101673, 37.1195117]}, "properties": {"name": "강저시내교회", "address": "(27201) 충북 제천시 강저로 157", "members_num": 50.0}}, {"type": "Feature", "geometry": {"type": "Point", "coordinates": [127.2891574, 36.7321123]}, "properties": {"name": "수신제일교회", "address": "(31252) 충남 천안시 동남구 수신면 속창3길 20", "members_num": 50.0}}, {"type": "Feature", "geometry": {"type": "Point", "coordinates": [128.3699391, 36.9802253]}, "properties": {"name": "단양순복음교회", "address": "(27011) 충북 단양군 도전6길 8", "members_num": 55.0}}, {"type": "Feature", "geometry": {"type": "Point", "coordinates": [127.1161866, 36.79150680000001]}, "properties": {"name": "작은자교회", "address": "(31174) 충남 천안시 서북구 월봉7길 49, 2층 222호", "members_num": 12.0}}, {"type": "Feature", "geometry": {"type": "Point", "coordinates": [127.1201497, 36.8726036]}, "properties": {"name": "천안낙원교회", "address": "(31038) 충남 천안시 서북구 직산읍 자은가리1길1", "members_num": 30.0}}, {"type": "Feature", "geometry": {"type": "Point", "coordinates": [127.2342526, 36.5086419]}, "properties": {"name": "은빛교회", "address": "(30063) 세종 세종시 마음안로 75, 2층", "members_num": 15.0}}, {"type": "Feature", "geometry": {"type": "Point", "coordinates": [128.217094, 37.14826619999999]}, "properties": {"name": "제천성도교회", "address": "(27152) 충북 제천시 용두천로325", "members_num": 500.0}}, {"type": "Feature", "geometry": {"type": "Point", "coordinates": [126.5238751, 36.4725956]}, "properties": {"name": "천북교회", "address": "((하만리 642-10)) 충남 보령시 천북면 하학로 8", "members_num": 35.0}}, {"type": "Feature", "geometry": {"type": "Point", "coordinates": [127.3712854, 36.3049953]}, "properties": {"name": "논산제일교회", "address": "(35407) 대전 서구 복수동 21-20 202동1303호", "members_num": 700.0}}, {"type": "Feature", "geometry": {"type": "Point", "coordinates": [126.9468752, 36.7935666]}, "properties": {"name": "아산아가페교회", "address": "(31530) 충남 아산시 서부북로 786번길 9-6", "members_num": 100.0}}, {"type": "Feature", "geometry": {"type": "Point", "coordinates": [126.5952016, 36.3540939]}, "properties": {"name": "대천강성교회", "address": "(33439) 충남 보령시 옥갓티3길24", "members_num": 15.0}}, {"type": "Feature", "geometry": {"type": "Point", "coordinates": [127.3744328, 36.31226789999999]}, "properties": {"name": "더웨이교회", "address": "(35335) 대전 서구 도솔로18-1, 3층", "members_num": 45.0}}, {"type": "Feature", "geometry": {"type": "Point", "coordinates": [127.295486, 36.479189]}, "properties": {"name": "우리명성교회", "address": "(30150) 세종 세종시 남세종로 358", "members_num": 70.0}}, {"type": "Feature", "geometry": {"type": "Point", "coordinates": [126.718145, 36.2091041]}, "properties": {"name": "홍연교회", "address": "(33204) 충남 부여군 옥산면 홍연로26번길 11-7", "members_num": 40.0}}, {"type": "Feature", "geometry": {"type": "Point", "coordinates": [127.1227841, 36.7925363]}, "properties": {"name": "천안축복교회", "address": "(31175) 충남 천안시 서북구 충무로140-12", "members_num": 12.0}}, {"type": "Feature", "geometry": {"type": "Point", "coordinates": [127.0355333, 36.9277713]}, "properties": {"name": "둔포침례교회", "address": "(31403) 충남 아산시 둔포면 충무로 1750 둔포침례교회", "members_num": 80.0}}, {"type": "Feature", "geometry": {"type": "Point", "coordinates": [127.3772461, 36.3595426]}, "properties": {"name": "상통하는교회", "address": "(35220) 대전 서구 청사로 120 청원빌딩 4층 상통하는교회", "members_num": 20.0}}, {"type": "Feature", "geometry": {"type": "Point", "coordinates": [126.4734217, 36.5404742]}, "properties": {"name": "남당교회", "address": "(32206) 충남 홍성군 서부면 남당항로208번길20", "members_num": 120.0}}, {"type": "Feature", "geometry": {"type": "Point", "coordinates": [126.3320261, 36.7535875]}, "properties": {"name": "평안교회", "address": "(32128) 충남 태안군 평촌길34 평안교회", "members_num": 10.0}}, {"type": "Feature", "geometry": {"type": "Point", "coordinates": [128.0199393, 37.1370101]}, "properties": {"name": "백운교회", "address": "(27104) 충북 제천시 천등박달로5안길 8", "members_num": 200.0}}, {"type": "Feature", "geometry": {"type": "Point", "coordinates": [127.1122732, 36.8009322]}, "properties": {"name": "열매맺는교회", "address": "(31170) 충남 천안시 서북구 광장로 262 열매맺는교회", "members_num": 250.0}}, {"type": "Feature", "geometry": {"type": "Point", "coordinates": [127.2926778, 36.2256819]}, "properties": {"name": "우명감리교회", "address": "(33027) 충남 논산시 벌곡면 벌곡로 313번길 39", "members_num": 30.0}}, {"type": "Feature", "geometry": {"type": "Point", "coordinates": [127.2012932, 36.7722772]}, "properties": {"name": "우용숙", "address": "(승천교회) 충남 천안시 동남구 교천지산길28", "members_num": 50.0}}, {"type": "Feature", "geometry": {"type": "Point", "coordinates": [127.3954761, 36.3457397]}, "properties": {"name": "예수사랑교회", "address": "(35255) 대전 서구 도솔로449(탄방동)", "members_num": 20.0}}, {"type": "Feature", "geometry": {"type": "Point", "coordinates": [126.4816504, 36.857289]}, "properties": {"name": "해성교회", "address": "(319-27) 충남 서산시 도덕길 49-15", "members_num": 50.0}}, {"type": "Feature", "geometry": {"type": "Point", "coordinates": [126.6641193, 36.3858929]}, "properties": {"name": "동보교회", "address": "(33425) 충남 보령시 냉풍욕장길75-14", "members_num": 38.0}}, {"type": "Feature", "geometry": {"type": "Point", "coordinates": [127.4739047, 36.64736]}, "properties": {"name": "주중교회", "address": "(28472) 충북 청주시 흥덕구 흥덕로127", "members_num": 1000.0}}, {"type": "Feature", "geometry": {"type": "Point", "coordinates": [127.4924114, 36.6730394]}, "properties": {"name": "좋은나무", "address": "(28325) 충북 청주시 청원구 율량로58 이레빌딩3층", "members_num": 50.0}}, {"type": "Feature", "geometry": {"type": "Point", "coordinates": [127.1546654, 36.7853923]}, "properties": {"name": "천안서머나교회", "address": "(31198) 충남 천안시 동남구 청수로38", "members_num": 120.0}}, {"type": "Feature", "geometry": {"type": "Point", "coordinates": [127.5936634, 36.9846736]}, "properties": {"name": "생명샘교회", "address": "(27638) 충북 음성군 금왕읍 대금로 1434-12", "members_num": 30.0}}, {"type": "Feature", "geometry": {"type": "Point", "coordinates": [127.0893582, 36.1740801]}, "properties": {"name": "의신감리교회", "address": "(32996) 충남 논산시 은진면 탑정로 215번길 36", "members_num": 27.0}}, {"type": "Feature", "geometry": {"type": "Point", "coordinates": [127.4869968, 36.6232227]}, "properties": {"name": "새로남교회", "address": "(28676) 충북 청주시 서원구 충북 청주시 서원구 구룡산로371번길 136", "members_num": 100.0}}, {"type": "Feature", "geometry": {"type": "Point", "coordinates": [127.4293976, 36.3278413]}, "properties": {"name": "동행교회", "address": "(34923) 대전 중구 중앙로 170번길 38", "members_num": 50.0}}, {"type": "Feature", "geometry": {"type": "Point", "coordinates": [127.4894039, 36.6373721]}, "properties": {"name": "위드교회", "address": "(28543) 충북 청주시 상당구 사직대로 379 지하1층", "members_num": 13.0}}, {"type": "Feature", "geometry": {"type": "Point", "coordinates": [127.021151, 36.7834098]}, "properties": {"name": "온양온천감리교회", "address": "(31528) 충남 아산시 모종동 637 모종캐슬어울림1단지 103동 1404호", "members_num": 2000.0}}, {"type": "Feature", "geometry": {"type": "Point", "coordinates": [127.7829618, 37.0443074]}, "properties": {"name": "사랑방교회", "address": "(27453) 충북 충주시 충주시 노은면 효죽1길 32 사랑방교회", "members_num": 4.0}}, {"type": "Feature", "geometry": {"type": "Point", "coordinates": [127.4225889, 36.71310769999999]}, "properties": {"name": "오창제일교회", "address": "(28120) 충북 청주시 청원구 오창읍 오창공원로96. 센트럴상가 301호", "members_num": 3.0}}, {"type": "Feature", "geometry": {"type": "Point", "coordinates": [127.2899895, 36.594329]}, "properties": {"name": "순복음세종교회", "address": "(30031) 세종 세종시 조치원읍 이화로5 신흥주공아파트 204동 1806호", "members_num": 40.0}}, {"type": "Feature", "geometry": {"type": "Point", "coordinates": [127.4866601, 36.1411622]}, "properties": {"name": "영광교회", "address": "(32709) 충남 금산군 금성면 적우실길 3-4", "members_num": 40.0}}, {"type": "Feature", "geometry": {"type": "Point", "coordinates": [127.3803374, 36.3365993]}, "properties": {"name": "국제코이노니아센터", "address": "(35293) 대전 서구 갈마로231-1", "members_num": 20.0}}, {"type": "Feature", "geometry": {"type": "Point", "coordinates": [126.8323767, 36.72133669999999]}, "properties": {"name": "창소리감리교회", "address": "(32421) 충남 예산군 신례원로 95번길 65", "members_num": 6.0}}, {"type": "Feature", "geometry": {"type": "Point", "coordinates": [126.6606444, 36.5953918]}, "properties": {"name": "홍성침례교회", "address": "(32237) 충남 홍성군 홍성천길58", "members_num": 150.0}}, {"type": "Feature", "geometry": {"type": "Point", "coordinates": [127.4625014, 36.6346683]}, "properties": {"name": "청주주님의교회", "address": "(28647) 충북 청주시 서원구 내수동로 133", "members_num": 500.0}}, {"type": "Feature", "geometry": {"type": "Point", "coordinates": [126.775521, 36.0477372]}, "properties": {"name": "추동침례교회", "address": "(33629) 충남 서천군 화양면 장산로1535ㅡ24번길", "members_num": 20.0}}, {"type": "Feature", "geometry": {"type": "Point", "coordinates": [127.0919779, 36.1974537]}, "properties": {"name": "기쁨교회", "address": "(32979) 충남 논산시 번영로 4-3 1층", "members_num": 7.0}}, {"type": "Feature", "geometry": {"type": "Point", "coordinates": [127.0920658, 36.2013095]}, "properties": {"name": "논산침례교회", "address": "(32974) 충남 논산시 중앙로382", "members_num": 80.0}}, {"type": "Feature", "geometry": {"type": "Point", "coordinates": [127.3949616, 36.3114037]}, "properties": {"name": "그교회", "address": "(34933) 대전 중구 문화로 82", "members_num": 12.0}}, {"type": "Feature", "geometry": {"type": "Point", "coordinates": [126.7506523, 36.0304499]}, "properties": {"name": "수정침례교회", "address": "(33629) 충남 서천군 화양면 망월길 22", "members_num": 30.0}}, {"type": "Feature", "geometry": {"type": "Point", "coordinates": [126.4887833, 36.6526229]}, "properties": {"name": "은포침례교회", "address": "(32028) 충남 서산시 고북 4로 480-12", "members_num": 70.0}}, {"type": "Feature", "geometry": {"type": "Point", "coordinates": [127.3786962, 36.429492]}, "properties": {"name": "새하늘시민교회", "address": "(35010) 대전 유성구 송강동310", "members_num": 500.0}}, {"type": "Feature", "geometry": {"type": "Point", "coordinates": [127.9353178, 36.9848781]}, "properties": {"name": "세광교회", "address": "(27350) 충북 충주시 계명대로197", "members_num": 100.0}}, {"type": "Feature", "geometry": {"type": "Point", "coordinates": [127.3513983, 36.5290034]}, "properties": {"name": "예장합동", "address": "(30067) 세종 세종시 연동면 태산로 60 상가", "members_num": 40.0}}, {"type": "Feature", "geometry": {"type": "Point", "coordinates": [127.3692285, 36.6664459]}, "properties": {"name": "기독교대한하나님의성회", "address": "(28110) 충북 청주시 흥덕구 옥산면 청주역로 697 (30115) 세종 세종시 세종 다솜1로 21 한뜰마을 4단지 상가 254호", "members_num": 4.0}}, {"type": "Feature", "geometry": {"type": "Point", "coordinates": [127.0003444, 36.7914921]}, "properties": {"name": "대한예수교장로회합동개혁", "address": "(31509) 충남 아산시 시민로485번지 일성아파트상가", "members_num": 10.0}}, {"type": "Feature", "geometry": {"type": "Point", "coordinates": [127.2489756, 36.4848851]}, "properties": {"name": "새빛교회", "address": "(30126) 세종 세종시 논산시", "members_num": 20.0}}, {"type": "Feature", "geometry": {"type": "Point", "coordinates": [127.4513329, 36.3021445]}, "properties": {"name": "주찬양교회", "address": "(35068) 대전 중구 대종로 109 4층", "members_num": 18.0}}, {"type": "Feature", "geometry": {"type": "Point", "coordinates": [127.9599349, 36.9711726]}, "properties": {"name": "안림교회", "address": "(27486) 충북 충주시 번던1길 5", "members_num": 20.0}}, {"type": "Feature", "geometry": {"type": "Point", "coordinates": [127.7482949, 36.1494764]}, "properties": {"name": "양강교회", "address": "(29155) 충북 영동군 양강면 신기2길 13", "members_num": 15.0}}, {"type": "Feature", "geometry": {"type": "Point", "coordinates": [128.1352035, 37.1500772]}, "properties": {"name": "밝은길교회", "address": "(27114) 충북 제천시 봉양읍 용두대로 43길 17-10", "members_num": 20.0}}, {"type": "Feature", "geometry": {"type": "Point", "coordinates": [126.7042832, 36.0557762]}, "properties": {"name": "행복한어리교회", "address": "(33654) 충남 서천군 마서면 어리길 198", "members_num": 25.0}}, {"type": "Feature", "geometry": {"type": "Point", "coordinates": [127.0326047, 36.3315852]}, "properties": {"name": "예수제일교회", "address": "(32609) 충남 공주시 탄천면 삼각리453-1", "members_num": 0.0}}, {"type": "Feature", "geometry": {"type": "Point", "coordinates": [127.9270554, 36.96861]}, "properties": {"name": "구세군충주교회", "address": "(27420) 충북 충주시 사직산 12길 32~1", "members_num": 20.0}}, {"type": "Feature", "geometry": {"type": "Point", "coordinates": [127.1155931, 36.7890772]}, "properties": {"name": "주안에교회", "address": "(31179) 충남 천안시 서북구 쌍용동 1884번지", "members_num": 9.0}}, {"type": "Feature", "geometry": {"type": "Point", "coordinates": [127.0680233, 36.7731157]}, "properties": {"name": "주님의마음을닮아가는교회", "address": "(31490) 충남 아산시 배방로201번길 29 2층", "members_num": 40.0}}, {"type": "Feature", "geometry": {"type": "Point", "coordinates": [127.3954773, 36.3247945]}, "properties": {"name": "올리브교회", "address": "(34892) 대전 중구 유천로138 4층", "members_num": 15.0}}, {"type": "Feature", "geometry": {"type": "Point", "coordinates": [127.450253, 36.3540014]}, "properties": {"name": "사랑의교회", "address": "(34528) 대전 동구 비래서로 54(가양동) 2층", "members_num": 11.0}}, {"type": "Feature", "geometry": {"type": "Point", "coordinates": [127.3429637, 36.3470013]}, "properties": {"name": "참사랑감리교회", "address": "(34190) 대전 유성구 봉명로93센트럴시티603-1801", "members_num": 30.0}}, {"type": "Feature", "geometry": {"type": "Point", "coordinates": [127.4314429, 36.312009]}, "properties": {"name": "용운침례교회", "address": "(용운침례교회) 대전 중구 부용로17", "members_num": 10.0}}, {"type": "Feature", "geometry": {"type": "Point", "coordinates": [127.3204369, 36.357314]}, "properties": {"name": "함께하는교회", "address": "(34156) 대전 유성구 유성대로713번길211-18", "members_num": 22.0}}, {"type": "Feature", "geometry": {"type": "Point", "coordinates": [127.8154406, 36.9769168]}, "properties": {"name": "대소원감리교회", "address": "(27472) 충북 충주시 대소원면 대소원1길8", "members_num": 200.0}}, {"type": "Feature", "geometry": {"type": "Point", "coordinates": [127.3769047, 36.3204029]}, "properties": {"name": "우리들장로교회", "address": "(35333) 대전 서구 도마동 65-23", "members_num": 30.0}}, {"type": "Feature", "geometry": {"type": "Point", "coordinates": [127.3074278, 36.3894752]}, "properties": {"name": "필그림교회", "address": "(34070) 대전 유성구 지족북로 78, 4층", "members_num": 10511.0}}, {"type": "Feature", "geometry": {"type": "Point", "coordinates": [126.6897616, 36.0124405]}, "properties": {"name": "신창교회", "address": "(33666) 충남 서천군 장항읍 장마로45 신창교회", "members_num": 70.0}}, {"type": "Feature", "geometry": {"type": "Point", "coordinates": [127.1243116, 36.4595873]}, "properties": {"name": "참좋은교회", "address": "(32539) 충남 공주시 산성시장5길 26", "members_num": 20.0}}, {"type": "Feature", "geometry": {"type": "Point", "coordinates": [126.6977715, 36.595114]}, "properties": {"name": "장성교회", "address": "(32282) 충남 홍성군 금마면 홍양길 144번길 26", "members_num": 70.0}}, {"type": "Feature", "geometry": {"type": "Point", "coordinates": [127.1301683, 36.9163673]}, "properties": {"name": "선한청지기교회", "address": "(31016) 충남 천안시 서북구 성환읍 성환3로7-15", "members_num": 11.0}}, {"type": "Feature", "geometry": {"type": "Point", "coordinates": [126.8612836, 36.271702]}, "properties": {"name": "에덴교회", "address": "(33121) 충남 부여군 규암면 호수로14번길 3", "members_num": 70.0}}, {"type": "Feature", "geometry": {"type": "Point", "coordinates": [126.6645062, 36.2221026]}, "properties": {"name": "미산중앙교회", "address": "(33514) 충남 보령시 미산면 대늑길 9-5", "members_num": 30.0}}, {"type": "Feature", "geometry": {"type": "Point", "coordinates": [127.4124323, 36.365963]}, "properties": {"name": "대화순복음교회", "address": "(34371) 대전 대덕구 동심5길23 4층", "members_num": 30.0}}, {"type": "Feature", "geometry": {"type": "Point", "coordinates": [127.2467804, 36.2727188]}, "properties": {"name": "아름다운교회", "address": "(32824) 충남 계룡시 장안1길 24", "members_num": 30.0}}, {"type": "Feature", "geometry": {"type": "Point", "coordinates": [126.623452, 36.4878493]}, "properties": {"name": "광천중앙침례교회", "address": "(32297) 충남 홍성군 광천읍 광천로 176", "members_num": 50.0}}, {"type": "Feature", "geometry": {"type": "Point", "coordinates": [127.1234077, 36.6099225]}, "properties": {"name": "광정침례교회", "address": "(32512) 충남 공주시 정안면 광정장터길15-13", "members_num": 220.0}}, {"type": "Feature", "geometry": {"type": "Point", "coordinates": [126.6894473, 36.382846]}, "properties": {"name": "상중교회", "address": "(33424) 충남 보령시 청라면 은선길 105", "members_num": 20.0}}, {"type": "Feature", "geometry": {"type": "Point", "coordinates": [127.4959437, 36.8632113]}, "properties": {"name": "생거진천교회", "address": "(27846) 충북 진천군 상신길 169-105", "members_num": 40.0}}, {"type": "Feature", "geometry": {"type": "Point", "coordinates": [127.4055777, 36.3290364]}, "properties": {"name": "빛담교회", "address": "(34828) 대전 중구 용두동115-5 3층", "members_num": 11.0}}, {"type": "Feature", "geometry": {"type": "Point", "coordinates": [127.2422173, 36.5122977]}, "properties": {"name": "세종늘푸른교회", "address": "(30100) 세종 세종시 보듬3로 158, 5층", "members_num": 100.0}}, {"type": "Feature", "geometry": {"type": "Point", "coordinates": [127.1263122, 36.7874864]}, "properties": {"name": "새롬교회", "address": "(31177) 충남 천안시 동남구 신촌4로16 초원아파트 116동 809호", "members_num": 33.0}}, {"type": "Feature", "geometry": {"type": "Point", "coordinates": [127.1561082, 36.6887626]}, "properties": {"name": "행정교회", "address": "(12323) 충남 천안시 동남구 차령고개로1059-1", "members_num": 50.0}}, {"type": "Feature", "geometry": {"type": "Point", "coordinates": [127.9270554, 36.96861]}, "properties": {"name": "구세군충주교회", "address": "(27410) 충북 충주시 사직산12길 32-1", "members_num": 30.0}}, {"type": "Feature", "geometry": {"type": "Point", "coordinates": [127.3106042, 36.3916255]}, "properties": {"name": "하나교회", "address": "(34069) 대전 유성구 반석동로 51", "members_num": 20.0}}, {"type": "Feature", "geometry": {"type": "Point", "coordinates": [127.4900571, 36.6732867]}, "properties": {"name": "율량큰빛교회", "address": "(28325) 충북 청주시 청원구 율량로36 반석빌딩 4층", "members_num": 45.0}}, {"type": "Feature", "geometry": {"type": "Point", "coordinates": [127.5230441, 36.7231513]}, "properties": {"name": "교회", "address": "(28143) 충북 청주시 청원구 내수읍 내수신안길74", "members_num": 120.0}}, {"type": "Feature", "geometry": {"type": "Point", "coordinates": [127.4120028, 36.3394913]}, "properties": {"name": "더불어사는교회", "address": "(34812) 대전 중구 대종로 669 2층", "members_num": 15.0}}, {"type": "Feature", "geometry": {"type": "Point", "coordinates": [127.4913053, 36.6698094]}, "properties": {"name": "임마누엘교회", "address": "(28327) 충북 청주시 청원구 공항로150번길136,4층", "members_num": 10.0}}, {"type": "Feature", "geometry": {"type": "Point", "coordinates": [126.805378, 36.4491399]}, "properties": {"name": "청양침례교회", "address": "(33302) 충남 청양군 청양읍 칠갑산로 14길 13-4 청양침례교회", "members_num": 30.0}}, {"type": "Feature", "geometry": {"type": "Point", "coordinates": [127.0731908, 36.288096]}, "properties": {"name": "구로감리교회", "address": "(32901) 충남 논산시 노성면 장마루로 833번길 7-4", "members_num": 20.0}}, {"type": "Feature", "geometry": {"type": "Point", "coordinates": [127.0150296, 36.7812652]}, "properties": {"name": "천성교회", "address": "(31526) 충남 아산시 삼동로16번길39-19", "members_num": 90.0}}, {"type": "Feature", "geometry": {"type": "Point", "coordinates": [126.7281305, 36.7252134]}, "properties": {"name": "용리성결교회", "address": "(32402) 충남 예산군 고덕면 용고길28", "members_num": 60.0}}, {"type": "Feature", "geometry": {"type": "Point", "coordinates": [127.1163334, 36.795773]}, "properties": {"name": "큰뜻주님의교회", "address": "(31171) 충남 천안시 서북구 월봉4로 120-16, 512동 805호(월봉일성아파트)", "members_num": 60.0}}, {"type": "Feature", "geometry": {"type": "Point", "coordinates": [127.0186751, 36.1513256]}, "properties": {"name": "채산성결교회", "address": "(320-905) 충남 논산시 강경읍 잣디2길7-10", "members_num": 130.0}}, {"type": "Feature", "geometry": {"type": "Point", "coordinates": [127.2396636, 36.7856544]}, "properties": {"name": "벧엘장로교회", "address": "(31230) 충남 천안시 동남구 목천읍동리2길59", "members_num": 20.0}}, {"type": "Feature", "geometry": {"type": "Point", "coordinates": [127.1381056, 36.8227463]}, "properties": {"name": "하늘평안순복음교회", "address": "(31138) 충남 천안시 서북구 서부16길14", "members_num": 20.0}}, {"type": "Feature", "geometry": {"type": "Point", "coordinates": [126.3020739, 36.7457405]}, "properties": {"name": "김자경", "address": "(32144) 충남 태안군 후곡로85", "members_num": 50.0}}, {"type": "Feature", "geometry": {"type": "Point", "coordinates": [127.3727662, 36.3263894]}, "properties": {"name": "참소망교회", "address": "(35328) 대전 서구 도솔로 161", "members_num": 15.0}}, {"type": "Feature", "geometry": {"type": "Point", "coordinates": [127.1420712, 36.8024767]}, "properties": {"name": "열매맺는교회", "address": "(311-54) 충남 천안시 동남구 차돌로108 2 층", "members_num": 12.0}}, {"type": "Feature", "geometry": {"type": "Point", "coordinates": [127.7766525, 36.1747626]}, "properties": {"name": "한석교회", "address": "(290) 충북 영동군", "members_num": 50.0}}, {"type": "Feature", "geometry": {"type": "Point", "coordinates": [127.4913556, 36.5895741]}, "properties": {"name": "함께하는은광교회", "address": "(28805) 충북 청주시 서원구 가장로332번길65-5", "members_num": 20.0}}, {"type": "Feature", "geometry": {"type": "Point", "coordinates": [127.012638, 36.7868005]}, "properties": {"name": "아산순복음교회", "address": "(31522) 충남 아산시 삼동로 86번길 4-12", "members_num": 100.0}}, {"type": "Feature", "geometry": {"type": "Point", "coordinates": [126.6396569, 36.8903484]}, "properties": {"name": "문화씨티감리교회", "address": "(31774) 충남 당진시 무수동2길47-9 평산빌201", "members_num": 55.0}}, {"type": "Feature", "geometry": {"type": "Point", "coordinates": [127.4880702, 36.6214175]}, "properties": {"name": "청주예수비전교회", "address": "(28074) 충북 청주시 서원구 청남로2122번길 4 이층", "members_num": 10.0}}, {"type": "Feature", "geometry": {"type": "Point", "coordinates": [127.646445, 37.1119054]}, "properties": {"name": "푸른마을교회", "address": "(27611) 충북 음성군 감곡면 거일길 27-10", "members_num": 70.0}}, {"type": "Feature", "geometry": {"type": "Point", "coordinates": [127.2337705, 36.2882496]}, "properties": {"name": "참사랑교회", "address": "(32815) 충남 계룡시 엄사면 번영8길 19-1", "members_num": 40.0}}, {"type": "Feature", "geometry": {"type": "Point", "coordinates": [127.4149821, 36.3353444]}, "properties": {"name": "대전안디옥교회", "address": "(34841) 대전 중구 선화서로 130번길 31", "members_num": 20.0}}, {"type": "Feature", "geometry": {"type": "Point", "coordinates": [127.319998, 36.3828369]}, "properties": {"name": "노은삼성교회", "address": "(34078) 대전 유성구 노은동로 240번길 49번지 2층", "members_num": 20.0}}, {"type": "Feature", "geometry": {"type": "Point", "coordinates": [127.339508, 36.352085]}, "properties": {"name": "사랑의교회", "address": "(34179) 대전 유성구 계룡로88번길46 (3층)", "members_num": 30.0}}, {"type": "Feature", "geometry": {"type": "Point", "coordinates": [126.607764, 36.638272]}, "properties": {"name": "나박소교회", "address": "(32410) 충남 예산군 홍덕서로 601-13", "members_num": 66.0}}, {"type": "Feature", "geometry": {"type": "Point", "coordinates": [127.7909565, 36.3451627]}, "properties": {"name": "청산제일교회", "address": "(29013) 충북 옥천군 청산면 지전길57-7", "members_num": 35.0}}, {"type": "Feature", "geometry": {"type": "Point", "coordinates": [126.9824328, 36.7511332]}, "properties": {"name": "신인교회", "address": "(31559) 충남 아산시 신인남길17-3", "members_num": 40.0}}, {"type": "Feature", "geometry": {"type": "Point", "coordinates": [127.1329035, 36.7782317]}, "properties": {"name": "예사랑장로교회", "address": "(31204) 충남 천안시 동남구 통정2길6-27", "members_num": 40.0}}, {"type": "Feature", "geometry": {"type": "Point", "coordinates": [126.9361778, 36.306089]}, "properties": {"name": "정동교회", "address": "(33127) 충남 부여군 부여읍 정동로 135번길 3", "members_num": 100.0}}, {"type": "Feature", "geometry": {"type": "Point", "coordinates": [126.9211905, 36.2665904]}, "properties": {"name": "대왕교회", "address": "(33164) 충남 부여군 부여읍 왕중로59", "members_num": 40.0}}, {"type": "Feature", "geometry": {"type": "Point", "coordinates": [127.0531097, 36.2755233]}, "properties": {"name": "장월교회", "address": "(33173) 충남 부여군 초촌면 송정로38번길5", "members_num": 40.0}}, {"type": "Feature", "geometry": {"type": "Point", "coordinates": [126.3676272, 36.3894773]}, "properties": {"name": "고대도교회", "address": "(33411) 충남 보령시 오천면 고대도 2길42", "members_num": 0.0}}, {"type": "Feature", "geometry": {"type": "Point", "coordinates": [126.780247, 36.335829]}, "properties": {"name": "나령교회", "address": "(33106) 충남 부여군 은산면층절로3561-3", "members_num": 30.0}}, {"type": "Feature", "geometry": {"type": "Point", "coordinates": [127.4252294, 36.3630328]}, "properties": {"name": "새빛교회", "address": "(34389) 대전 대덕구 중리로65.2층 새빛교회", "members_num": 10.0}}, {"type": "Feature", "geometry": {"type": "Point", "coordinates": [126.7170031, 36.4113523]}, "properties": {"name": "주님숲교회", "address": "(33310) 충남 청양군 정자골길45-20", "members_num": 0.0}}, {"type": "Feature", "geometry": {"type": "Point", "coordinates": [127.0868528, 36.1924081]}, "properties": {"name": "논산평강교회", "address": "(32959) 충남 논산시 구르뫼길 10-5", "members_num": 20.0}}, {"type": "Feature", "geometry": {"type": "Point", "coordinates": [127.1294507, 36.7793308]}, "properties": {"name": "천안꿈을이루는교회", "address": "(31204) 충남 천안시 동남구 통정2길 5-22", "members_num": 100.0}}, {"type": "Feature", "geometry": {"type": "Point", "coordinates": [127.1194449, 36.795853]}, "properties": {"name": "천안은혜교회", "address": "(31172) 충남 천안시 서북구 쌍용19로 3", "members_num": 200.0}}, {"type": "Feature", "geometry": {"type": "Point", "coordinates": [126.7402086, 36.9532533]}, "properties": {"name": "월곡교회", "address": "(31725) 충남 당진시 송악읍 계치길 79-14ㄱ", "members_num": 50.0}}, {"type": "Feature", "geometry": {"type": "Point", "coordinates": [127.4357829, 36.5642082]}, "properties": {"name": "엘림힐링교회", "address": "(28182) 충북 청주시 서원구 남이면척산1길29-5", "members_num": 70.0}}, {"type": "Feature", "geometry": {"type": "Point", "coordinates": [126.6317788, 36.9037392]}, "properties": {"name": "당진중앙교회", "address": "(317-21) 충남 당진시 원우두실로148", "members_num": 40.0}}, {"type": "Feature", "geometry": {"type": "Point", "coordinates": [127.6478416, 37.10136180000001]}, "properties": {"name": "순복음서문교회", "address": "(27611) 충북 음성군 감곡면가곡로16", "members_num": 15.0}}, {"type": "Feature", "geometry": {"type": "Point", "coordinates": [126.9961495, 36.7656545]}, "properties": {"name": "희망감리교회", "address": "(31568) 충남 아산시 시민로 180번길 12", "members_num": 0.0}}, {"type": "Feature", "geometry": {"type": "Point", "coordinates": [127.4829882, 36.6701327]}, "properties": {"name": "청주예수사랑교회", "address": "(28338) 충북 청주시 청원구 사뜸로76번길68", "members_num": 110.0}}, {"type": "Feature", "geometry": {"type": "Point", "coordinates": [126.6369121, 36.8917928]}, "properties": {"name": "행복한감리교회", "address": "(31784) 충남 당진시 무수동로 3층", "members_num": 30.0}}, {"type": "Feature", "geometry": {"type": "Point", "coordinates": [126.7899758, 36.7518164]}, "properties": {"name": "예림교회", "address": "(32424) 충남 예산군 신암면 용산로 283", "members_num": 50.0}}, {"type": "Feature", "geometry": {"type": "Point", "coordinates": [126.4414547, 36.779272]}, "properties": {"name": "믿음교회", "address": "(31987) 충남 서산시 고운로37-17(읍내동750)", "members_num": 49.0}}, {"type": "Feature", "geometry": {"type": "Point", "coordinates": [127.3181866, 36.6019131]}, "properties": {"name": "기독교대한성결교회", "address": "(28169) 충북 청주시 흥덕구 오송읍 동평서평길 54-7번지", "members_num": 50.0}}, {"type": "Feature", "geometry": {"type": "Point", "coordinates": [127.273124, 36.7376831]}, "properties": {"name": "수신제일교회", "address": "(31251) 충남 천안시 동남구 수신면 수신로435-6", "members_num": 70.0}}, {"type": "Feature", "geometry": {"type": "Point", "coordinates": [127.3967607, 36.3999675]}, "properties": {"name": "평안교회", "address": "(34046) 대전 유성구 유성대로1679번길 8-16", "members_num": 25.0}}, {"type": "Feature", "geometry": {"type": "Point", "coordinates": [126.2895038, 36.7295137]}, "properties": {"name": "김형석", "address": "(32146) 충남 태안군 태안읍 송암로 9 남산교회", "members_num": 50.0}}, {"type": "Feature", "geometry": {"type": "Point", "coordinates": [127.1313648, 36.7776485]}, "properties": {"name": "순복음한사랑교회", "address": "(31204) 충남 천안시 동남구 통정3로 77(103동 1404호)", "members_num": 70.0}}, {"type": "Feature", "geometry": {"type": "Point", "coordinates": [126.4152947, 36.96265990000001]}, "properties": {"name": "대명교회", "address": "(31907) 충남 서산시 대산읍 명지2로141", "members_num": 30.0}}, {"type": "Feature", "geometry": {"type": "Point", "coordinates": [127.013184, 36.1642462]}, "properties": {"name": "강경중앙감리교회", "address": "(32931) 충남 논산시 강경읍 금백로 119-4", "members_num": 90.0}}, {"type": "Feature", "geometry": {"type": "Point", "coordinates": [127.0931991, 36.1964039]}, "properties": {"name": "새생명교회", "address": "(32979) 충남 논산시 중앙로348번길 8", "members_num": 35.0}}, {"type": "Feature", "geometry": {"type": "Point", "coordinates": [126.6759879, 36.3891795]}, "properties": {"name": "청라교회", "address": "(33424) 충남 보령시 청라면 원모루길 272", "members_num": 60.0}}, {"type": "Feature", "geometry": {"type": "Point", "coordinates": [126.4784762, 36.7497095]}, "properties": {"name": "대양교회", "address": "(32009) 충남 서산시 덕지천로 347", "members_num": 100.0}}, {"type": "Feature", "geometry": {"type": "Point", "coordinates": [127.0899712, 36.8243985]}, "properties": {"name": "더아름다운교회", "address": "(31458) 충남 아산시 탕정면 동산리 113번지", "members_num": 150.0}}, {"type": "Feature", "geometry": {"type": "Point", "coordinates": [126.3734528, 36.4226801]}, "properties": {"name": "장곡성결교회", "address": "(32170) 충남 태안군 고남면 장삼포로 318-28", "members_num": 50.0}}, {"type": "Feature", "geometry": {"type": "Point", "coordinates": [126.2922661, 36.7490135]}, "properties": {"name": "염광교회", "address": "(32142) 충남 태안군 환동로25", "members_num": 150.0}}, {"type": "Feature", "geometry": {"type": "Point", "coordinates": [126.6585304, 36.5831283]}, "properties": {"name": "홍남교회", "address": "(32244) 충남 홍성군 홍성읍 충서로 1179", "members_num": 1000.0}}, {"type": "Feature", "geometry": {"type": "Point", "coordinates": [126.5238751, 36.4725956]}, "properties": {"name": "천북장로교회", "address": "(33402) 충남 보령시 천북면 하학로 8", "members_num": 50.0}}, {"type": "Feature", "geometry": {"type": "Point", "coordinates": [127.1299348, 36.7871895]}, "properties": {"name": "천안방주교회", "address": "(31185) 충남 천안시 동남구 서부대로 226-12 108동102호", "members_num": 22.0}}, {"type": "Feature", "geometry": {"type": "Point", "coordinates": [127.2037692, 36.873408]}, "properties": {"name": "성거순복음교회", "address": "(31044) 충남 천안시 서북구 천흥4길21", "members_num": 100.0}}, {"type": "Feature", "geometry": {"type": "Point", "coordinates": [128.4102497, 37.0052665]}, "properties": {"name": "덕평감리교회", "address": "(27023) 충북 단양군 가곡면 대대1길 10", "members_num": 15.0}}, {"type": "Feature", "geometry": {"type": "Point", "coordinates": [127.1215905, 36.8022857]}, "properties": {"name": "아름다운교회", "address": "(31166) 충남 천안시 서북구 쌍용8길 17-9 지하1층", "members_num": 50.0}}, {"type": "Feature", "geometry": {"type": "Point", "coordinates": [127.1471229, 36.8343075]}, "properties": {"name": "한소망교회", "address": "(31103) 충남 천안시 서북구 봉정로366 한성3차필하우스105동1302호", "members_num": 100.0}}, {"type": "Feature", "geometry": {"type": "Point", "coordinates": [127.109656, 36.1628894]}, "properties": {"name": "샘물교회", "address": "(33000) 충남 논산시 은진면 매죽헌로 53번길44-34", "members_num": 7.0}}, {"type": "Feature", "geometry": {"type": "Point", "coordinates": [127.4107831, 36.4476805]}, "properties": {"name": "미라클선교교회", "address": "(372~389) 대전 대덕구 대전시대덕구대덕대로1454번길11~10", "members_num": 10.0}}, {"type": "Feature", "geometry": {"type": "Point", "coordinates": [126.6844005, 36.0821626]}, "properties": {"name": "드림교회", "address": "(33640) 충남 서천군 사곡안길11번길 38", "members_num": 25.0}}, {"type": "Feature", "geometry": {"type": "Point", "coordinates": [127.1446708, 36.7936145]}, "properties": {"name": "평안교회", "address": "(31183) 충남 천안시 동남구 용곡4길 10-11", "members_num": 27.0}}, {"type": "Feature", "geometry": {"type": "Point", "coordinates": [127.2023042, 36.5046873]}, "properties": {"name": "행복꿈동산교회", "address": "(30052) 세종 세종시 평기길 102~21", "members_num": 102.0}}, {"type": "Feature", "geometry": {"type": "Point", "coordinates": [127.1034888, 36.804086]}, "properties": {"name": "천안아산순복음교회", "address": "(31156) 충남 천안시 서북구 불당동 1852번지 천안아산순복음교회", "members_num": 150.0}}, {"type": "Feature", "geometry": {"type": "Point", "coordinates": [128.2140222, 37.1612764]}, "properties": {"name": "제천제일교회", "address": "(27143) 충북 제천시 신죽하로 154 제천제일교회", "members_num": 2090.0}}, {"type": "Feature", "geometry": {"type": "Point", "coordinates": [127.5701844, 36.2989105]}, "properties": {"name": "옥천제일교회", "address": "(29047) 충북 옥천군 옥천읍 중앙로 20ㅡ9", "members_num": 15.0}}, {"type": "Feature", "geometry": {"type": "Point", "coordinates": [127.2841922, 36.7141697]}, "properties": {"name": "수신순복음교회", "address": "(31250) 충남 천안시 동남구 수신면 수신로 151", "members_num": 30.0}}, {"type": "Feature", "geometry": {"type": "Point", "coordinates": [127.5078982, 36.6215978]}, "properties": {"name": "청주복있는교회", "address": "(28731) 충북 청주시 상당구 꽃산서로 8번길100. (왕궁상가 302호)", "members_num": 10.0}}, {"type": "Feature", "geometry": {"type": "Point", "coordinates": [128.2915198, 36.9938918]}, "properties": {"name": "북단양감리교회", "address": "(72000) 충북 단양군 금수산로402-4", "members_num": 30.0}}, {"type": "Feature", "geometry": {"type": "Point", "coordinates": [127.1679561, 36.7903285]}, "properties": {"name": "순복음천안교회", "address": "(31070) 충남 천안시 동남구 삼룡2길14-24", "members_num": 100.0}}, {"type": "Feature", "geometry": {"type": "Point", "coordinates": [126.5679805, 36.5212767]}, "properties": {"name": "목현교회", "address": "(32210) 충남 홍성군 은하면 홍남서로 929번길149_21", "members_num": 30.0}}, {"type": "Feature", "geometry": {"type": "Point", "coordinates": [127.7857111, 36.6273099]}, "properties": {"name": "상신순복음교회", "address": "(28064) 충북 괴산군 청천면 상신3길 12-12", "members_num": 10.0}}, {"type": "Feature", "geometry": {"type": "Point", "coordinates": [127.1387807, 36.8361425]}, "properties": {"name": "순복음새천안교회", "address": "(31101) 충남 천안시 서북구 두정중1길21", "members_num": 100.0}}, {"type": "Feature", "geometry": {"type": "Point", "coordinates": [127.1499667, 36.8161584]}, "properties": {"name": "쉴만한물가선교교회", "address": "(311-21) 충남 천안시 동남구 성황6길 20 은성맨션 202호", "members_num": 100.0}}, {"type": "Feature", "geometry": {"type": "Point", "coordinates": [127.4556263, 36.3164944]}, "properties": {"name": "대전은총교회", "address": "(34673) 대전 동구 옥천로 136-9", "members_num": 170.0}}, {"type": "Feature", "geometry": {"type": "Point", "coordinates": [127.3920699, 36.3588457]}, "properties": {"name": "조안나", "address": "(35207) 대전 동구 둥지아파트 106-606", "members_num": 60.0}}, {"type": "Feature", "geometry": {"type": "Point", "coordinates": [127.3920699, 36.3588457]}, "properties": {"name": "JESUS SALVATION", "address": "(35207) 대전 서구 청사로254 둥지아파트 106동 606호", "members_num": 65.0}}, {"type": "Feature", "geometry": {"type": "Point", "coordinates": [126.9148208, 36.2786088]}, "properties": {"name": "성은교회", "address": "(33154) 충남 부여군 계백로 823-12", "members_num": 20.0}}, {"type": "Feature", "geometry": {"type": "Point", "coordinates": [126.7827874, 36.7032685]}, "properties": {"name": "정착감리교회", "address": "(32024) 충남 예산군 오가면 분천남부길 22-6", "members_num": 50.0}}, {"type": "Feature", "geometry": {"type": "Point", "coordinates": [127.257606, 36.2611475]}, "properties": {"name": "물댄동산교회", "address": "(32844) 충남 계룡시 두마면 농소로 64 리슈빌아파트 208동 1302호", "members_num": 10.0}}, {"type": "Feature", "geometry": {"type": "Point", "coordinates": [127.4846499, 36.5560499]}, "properties": {"name": "예수사랑교회", "address": "(28207) 충북 청주시 상당구 남일면 화당1길124-25", "members_num": 25.0}}, {"type": "Feature", "geometry": {"type": "Point", "coordinates": [127.396871, 36.3061097]}, "properties": {"name": "대명교회", "address": "(35014) 대전 중구 보문산로131", "members_num": 50.0}}, {"type": "Feature", "geometry": {"type": "Point", "coordinates": [127.4000313, 36.3510461]}, "properties": {"name": "대전예수마음교회", "address": "(35250) 대전 서구 둔산로236 2층", "members_num": 30.0}}, {"type": "Feature", "geometry": {"type": "Point", "coordinates": [127.5101685, 36.6060336]}, "properties": {"name": "성언교회", "address": "(28783) 충북 청주시 상당구 월평로254번길8 성언교회", "members_num": 30.0}}, {"type": "Feature", "geometry": {"type": "Point", "coordinates": [127.4557465, 36.3210571]}, "properties": {"name": "온누리교회", "address": "(34665) 대전 동구 동부로39", "members_num": 45.0}}, {"type": "Feature", "geometry": {"type": "Point", "coordinates": [127.4685791, 36.6085178]}, "properties": {"name": "호산나교회", "address": "(28629) 충북 청주시 서원구 두꺼비로 19번길 5-5", "members_num": 80.0}}, {"type": "Feature", "geometry": {"type": "Point", "coordinates": [127.164458, 36.8141732]}, "properties": {"name": "은혜침례교회", "address": "(31125) 충남 천안시 동남구 신원3길 28", "members_num": 100.0}}, {"type": "Feature", "geometry": {"type": "Point", "coordinates": [127.326985, 36.4845137]}, "properties": {"name": "세종생명샘교회", "address": "(30082) 세종 세종시 금남면 황용1길 54-62", "members_num": 150.0}}, {"type": "Feature", "geometry": {"type": "Point", "coordinates": [127.1334747, 36.8382078]}, "properties": {"name": "천안상현교회", "address": "(31089) 충남 천안시 서북구 서부대로 797 현영빌딩 2층", "members_num": 20.0}}, {"type": "Feature", "geometry": {"type": "Point", "coordinates": [127.4916738, 36.1016774]}, "properties": {"name": "하늘숲교회", "address": "(32740) 충남 금산군 금산읍 인삼로 104", "members_num": 10.0}}, {"type": "Feature", "geometry": {"type": "Point", "coordinates": [127.5453176, 36.9093772]}, "properties": {"name": "아름다운밀알교회", "address": "(27738) 충북 음성군 맹동면 원중로 1430 3층", "members_num": 20.0}}, {"type": "Feature", "geometry": {"type": "Point", "coordinates": [126.5241154, 36.4684118]}, "properties": {"name": "천북신흥교회", "address": "(33402) 충남 보령시 천북면 천광로 73-11", "members_num": 50.0}}, {"type": "Feature", "geometry": {"type": "Point", "coordinates": [127.2813568, 36.4675541]}, "properties": {"name": "사랑의교회", "address": "(30083) 세종 세종시 금남면 용포로 97-6", "members_num": 30.0}}, {"type": "Feature", "geometry": {"type": "Point", "coordinates": [127.5476258, 36.7462242]}, "properties": {"name": "은혜교회", "address": "(28414) 충북 청주시 청원구 북이면 영1길 6-13", "members_num": 25.0}}, {"type": "Feature", "geometry": {"type": "Point", "coordinates": [127.3060751, 36.3848994]}, "properties": {"name": "낮은동산교회", "address": "(34073) 대전 유성구 지족로 260", "members_num": 50.0}}, {"type": "Feature", "geometry": {"type": "Point", "coordinates": [127.4369862, 36.3654666]}, "properties": {"name": "수정교회", "address": "(34408) 대전 대덕구 송촌북로 36번길 14(수정교회)", "members_num": 300.0}}, {"type": "Feature", "geometry": {"type": "Point", "coordinates": [126.9767892, 36.9129417]}, "properties": {"name": "밝은빛교회", "address": "(31401) 충남 아산시 영인면 아산호로 653-19", "members_num": 12.0}}, {"type": "Feature", "geometry": {"type": "Point", "coordinates": [126.6317788, 36.9037392]}, "properties": {"name": "당진중앙교회", "address": "(31761) 충남 당진시 원우두실로 148", "members_num": 40.0}}, {"type": "Feature", "geometry": {"type": "Point", "coordinates": [127.4464961, 36.8521737]}, "properties": {"name": "임마누엘교회", "address": "(27838) 충북 진천군 진천읍 원덕로291", "members_num": 15.0}}, {"type": "Feature", "geometry": {"type": "Point", "coordinates": [127.7787443, 36.9123385]}, "properties": {"name": "반석교회", "address": "(27710) 충북 음성군 소이면 문등로65번길 6-15", "members_num": 13.0}}, {"type": "Feature", "geometry": {"type": "Point", "coordinates": [126.9547868, 36.78267020000001]}, "properties": {"name": "보배로운교회", "address": "(31533) 충남 아산시 신창면 행목로212-6", "members_num": 70.0}}, {"type": "Feature", "geometry": {"type": "Point", "coordinates": [127.3354108, 36.3048632]}, "properties": {"name": "한사랑교회", "address": "(35360) 대전 서구 도안남로137 미소타워6층", "members_num": 60.0}}, {"type": "Feature", "geometry": {"type": "Point", "coordinates": [128.3720101, 36.9528277]}, "properties": {"name": "노동감리교회", "address": "(27024) 충북 단양군 단양읍 노동장현로491-4", "members_num": 17.0}}, {"type": "Feature", "geometry": {"type": "Point", "coordinates": [127.444408, 36.9894885]}, "properties": {"name": "광혜원감리교회", "address": "(27805) 충북 진천군 월성길 7", "members_num": 40.0}}, {"type": "Feature", "geometry": {"type": "Point", "coordinates": [127.6895587, 36.9352844]}, "properties": {"name": "음성감리교회", "address": "(27695) 충북 음성군 음성읍 중앙로 134-1", "members_num": 300.0}}, {"type": "Feature", "geometry": {"type": "Point", "coordinates": [127.2009064, 36.87473140000001]}, "properties": {"name": "만남의교회", "address": "(31045) 충남 천안시 서북구 성거읍 성거길103 삼일@상가2층", "members_num": 15.0}}, {"type": "Feature", "geometry": {"type": "Point", "coordinates": [127.4119583, 36.3593243]}, "properties": {"name": "오정제일교회", "address": "(34378) 대전 대덕구 대전로1177번길 88", "members_num": 30.0}}, {"type": "Feature", "geometry": {"type": "Point", "coordinates": [127.4993029, 36.6921965]}, "properties": {"name": "소망교회", "address": "(28152) 충북 청주시 청원구 내수읍 원통숲안길 66", "members_num": 14.0}}, {"type": "Feature", "geometry": {"type": "Point", "coordinates": [127.441113, 36.3082044]}, "properties": {"name": "대한예수교장로회(백석)", "address": "(35064) 대전 중구 봉소루로 36번길 11~2", "members_num": 20.0}}, {"type": "Feature", "geometry": {"type": "Point", "coordinates": [127.5026537, 36.6161652]}, "properties": {"name": "가나안교회", "address": "(28771) 충북 청주시 상당구 용암로 103번길20", "members_num": 11.0}}, {"type": "Feature", "geometry": {"type": "Point", "coordinates": [126.6510656, 36.4967826]}, "properties": {"name": "산지교회", "address": "(32285) 충남 홍성군 광천읍 가정길 80-8", "members_num": 40.0}}, {"type": "Feature", "geometry": {"type": "Point", "coordinates": [127.3209975, 36.2968783]}, "properties": {"name": "대전동안교회", "address": "(34232) 대전 유성구 진잠로42번길 56", "members_num": 120.0}}, {"type": "Feature", "geometry": {"type": "Point", "coordinates": [127.8975124, 36.232656]}, "properties": {"name": "은혜동산교회", "address": "(29114) 충북 영동군 황간면 하마산길89", "members_num": 20.0}}, {"type": "Feature", "geometry": {"type": "Point", "coordinates": [127.5260953, 36.1318781]}, "properties": {"name": "명곡교회", "address": "(32719) 충남 금산군 제원면 바리실길 172", "members_num": 20.0}}, {"type": "Feature", "geometry": {"type": "Point", "coordinates": [127.425412, 36.3660475]}, "properties": {"name": "생명비전교회", "address": "(34389) 대전 대덕구 중리로 76", "members_num": 50.0}}, {"type": "Feature", "geometry": {"type": "Point", "coordinates": [127.3381878, 36.2927549]}, "properties": {"name": "3전차대대임마누엘전승교회", "address": "(35383) 대전 서구 구봉산북로165(다온숲315-102", "members_num": 30.0}}, {"type": "Feature", "geometry": {"type": "Point", "coordinates": [126.4243758, 36.7570878]}, "properties": {"name": "순복음장자교회", "address": "(32015) 충남 서산시 둔당로127", "members_num": 15.0}}, {"type": "Feature", "geometry": {"type": "Point", "coordinates": [127.41223, 36.3663389]}, "properties": {"name": "주가쓰시는교회", "address": "(34370) 대전 대덕구 동심5길11, 장미상가2층 (대화동)", "members_num": 15.0}}, {"type": "Feature", "geometry": {"type": "Point", "coordinates": [127.020757, 36.1468314]}, "properties": {"name": "수정교회", "address": "(32943) 충남 논산시 강경읍 산양1길2", "members_num": 35.0}}, {"type": "Feature", "geometry": {"type": "Point", "coordinates": [127.4254228, 36.3662746]}, "properties": {"name": "넘치는교회", "address": "(34389) 대전 대덕구 중리북로43 지하1층", "members_num": 5.0}}, {"type": "Feature", "geometry": {"type": "Point", "coordinates": [127.6843913, 36.9292918]}, "properties": {"name": "임마누엘교회", "address": "(27705) 충북 음성군 음성읍 설성로20, 한성진주상가4층", "members_num": 40.0}}, {"type": "Feature", "geometry": {"type": "Point", "coordinates": [126.8331061, 36.0773251]}, "properties": {"name": "마양교회", "address": "(33625) 충남 서천군 한산면 신성로 231", "members_num": 20.0}}, {"type": "Feature", "geometry": {"type": "Point", "coordinates": [127.3751061, 36.3471418]}, "properties": {"name": "임마누엘교회", "address": "(35271) 대전 서구 대덕대로 151번지 2층", "members_num": 10.0}}, {"type": "Feature", "geometry": {"type": "Point", "coordinates": [126.8602282, 36.8562379]}, "properties": {"name": "인주교회", "address": "(31436) 충남 아산시 인주면 아산만로1434번길 18-6", "members_num": 80.0}}, {"type": "Feature", "geometry": {"type": "Point", "coordinates": [127.6010081, 36.6099287]}, "properties": {"name": "쌍샘자연교회", "address": "(28193) 충북 청주시 상당구 낭성면 호정전하울길158", "members_num": 70.0}}, {"type": "Feature", "geometry": {"type": "Point", "coordinates": [127.1328318, 36.816513]}, "properties": {"name": "천안엘림교회", "address": "(31140) 충남 천안시 동남구 316", "members_num": 20.0}}, {"type": "Feature", "geometry": {"type": "Point", "coordinates": [126.9485373, 36.7822534]}, "properties": {"name": "백향목교회", "address": "(31533) 충남 아산시 신창면 온천대로 984 코아루에듀파크아파트 상가 104호", "members_num": 5.0}}, {"type": "Feature", "geometry": {"type": "Point", "coordinates": [127.3689995, 36.3165795]}, "properties": {"name": "축복의땅옥토교회", "address": "(35347) 대전 서구 배재로91번길 21 3층", "members_num": 25.0}}, {"type": "Feature", "geometry": {"type": "Point", "coordinates": [126.8414929, 36.7228811]}, "properties": {"name": "창대축복교회", "address": "(32421) 충남 예산군 신례원로 153-15", "members_num": 20.0}}, {"type": "Feature", "geometry": {"type": "Point", "coordinates": [127.1522988, 36.8045272]}, "properties": {"name": "새소망천안교회", "address": "(31131) 충남 천안시 동남구 중앙로69 오남빌딩 201호", "members_num": 29.0}}, {"type": "Feature", "geometry": {"type": "Point", "coordinates": [126.7579936, 36.0596047]}, "properties": {"name": "금당교회", "address": "(33629) 충남 서천군 화양면 금당길 40번길 15", "members_num": 60.0}}, {"type": "Feature", "geometry": {"type": "Point", "coordinates": [127.4467196, 36.2285234]}, "properties": {"name": "상소교회", "address": "(34712) 대전 동구 산내로499번길 17", "members_num": 50.0}}, {"type": "Feature", "geometry": {"type": "Point", "coordinates": [126.1468648, 36.7950166]}, "properties": {"name": "만리포전원교회", "address": "(32120) 충남 태안군 소원면 만리포2길 235-26", "members_num": 50.0}}, {"type": "Feature", "geometry": {"type": "Point", "coordinates": [127.0938969, 36.8902574]}, "properties": {"name": "석곡교회", "address": "(31028) 충남 천안시 서북구 직산읍 연암율금로58", "members_num": 15.0}}, {"type": "Feature", "geometry": {"type": "Point", "coordinates": [127.1586646, 36.800159]}, "properties": {"name": "비전교회", "address": "(31186) 충남 천안시 동남구 원거리6길 18 2층", "members_num": 12.0}}, {"type": "Feature", "geometry": {"type": "Point", "coordinates": [127.1552877, 36.8228106]}, "properties": {"name": "새생명교회", "address": "(31118) 충남 천안시 동남구 터미널9길24-1", "members_num": 20.0}}, {"type": "Feature", "geometry": {"type": "Point", "coordinates": [127.4405391, 36.6339781]}, "properties": {"name": "청주소망교회", "address": "(28585) 충북 청주시 흥덕구 복대로195 그린빌딩 3층", "members_num": 30.0}}, {"type": "Feature", "geometry": {"type": "Point", "coordinates": [127.1559101, 36.801358]}, "properties": {"name": "하늘소망교혹", "address": "(31186) 충남 천안시 동남구 원거리11길 26", "members_num": 30.0}}, {"type": "Feature", "geometry": {"type": "Point", "coordinates": [126.9566049, 36.8899306]}, "properties": {"name": "신화교회", "address": "(31425) 충남 아산시 영인면 와신길 113-26", "members_num": 138.0}}, {"type": "Feature", "geometry": {"type": "Point", "coordinates": [127.1602237, 36.8146782]}, "properties": {"name": "예루살렘감리교회", "address": "(31125) 충남 천안시 동남구 신부6길19", "members_num": 90.0}}, {"type": "Feature", "geometry": {"type": "Point", "coordinates": [127.1731846, 36.8512658]}, "properties": {"name": "망향에베소교회", "address": "(31053) 충남 천안시 서북구 성거읍 마당재길28-14", "members_num": 15.0}}, {"type": "Feature", "geometry": {"type": "Point", "coordinates": [127.1435859, 36.8205755]}, "properties": {"name": "열린교회", "address": "(31136) 충남 천안시 서북구 봉정로 210 2층 열린교회", "members_num": 35.0}}, {"type": "Feature", "geometry": {"type": "Point", "coordinates": [127.1512295, 36.788601]}, "properties": {"name": "예닮교회", "address": "(31200) 충남 천안시 동남구 청수로35-7", "members_num": 11.0}}, {"type": "Feature", "geometry": {"type": "Point", "coordinates": [127.4163422, 36.6253238]}, "properties": {"name": "청주중앙교회", "address": "(28375) 충북 청주시 흥덕구 가로수로1086번길16 청주중앙교회", "members_num": 1000.0}}, {"type": "Feature", "geometry": {"type": "Point", "coordinates": [127.3792278, 36.3262147]}, "properties": {"name": "변동우리교회", "address": "(35321) 대전 서구 도산로199-2 2층", "members_num": 34.0}}, {"type": "Feature", "geometry": {"type": "Point", "coordinates": [127.319998, 36.3828369]}, "properties": {"name": "장로교통합", "address": "(34078) 대전 유성구 노은동로240번길 49. 201호", "members_num": 20.0}}, {"type": "Feature", "geometry": {"type": "Point", "coordinates": [126.9984321, 36.7876705]}, "properties": {"name": "아산행복한교회", "address": "(31508) 충남 아산시 번영로69번길 10-3", "members_num": 100.0}}, {"type": "Feature", "geometry": {"type": "Point", "coordinates": [127.4301519, 36.3083319]}, "properties": {"name": "대전성산교회", "address": "(35058) 대전 중구 부용로 60", "members_num": 0.0}}, {"type": "Feature", "geometry": {"type": "Point", "coordinates": [127.5847346, 36.9907409]}, "properties": {"name": "하늘목교회", "address": "(27633) 충북 음성군 금왕읍 무극로 206 3층", "members_num": 40.0}}, {"type": "Feature", "geometry": {"type": "Point", "coordinates": [127.7954202, 36.97452990000001]}, "properties": {"name": "주덕드림교회", "address": "(27462) 충북 충주시 주덕읍 신양5길 16", "members_num": 50.0}}, {"type": "Feature", "geometry": {"type": "Point", "coordinates": [127.454638, 36.845909]}, "properties": {"name": "진천중앙교회", "address": "(27837) 충북 진천군 충북 진천군 진천읍 문덕1길36 우미아파트 104동402호", "members_num": 700.0}}, {"type": "Feature", "geometry": {"type": "Point", "coordinates": [127.3735374, 36.3348528]}, "properties": {"name": "재건대전교회", "address": "(35286) 대전 서구 동서대로997번길11", "members_num": 52.0}}, {"type": "Feature", "geometry": {"type": "Point", "coordinates": [126.9524658, 36.519448]}, "properties": {"name": "샤론교회", "address": "(325257) 충남 공주시 신풍면심방울1길32-22", "members_num": 10.0}}, {"type": "Feature", "geometry": {"type": "Point", "coordinates": [127.9289169, 36.9691225]}, "properties": {"name": "충주신성교회", "address": "(27409) 충북 충주시 사직로 169-5", "members_num": 80.0}}, {"type": "Feature", "geometry": {"type": "Point", "coordinates": [127.4326554, 36.638759]}, "properties": {"name": "샘솟는교회", "address": "(28426) 충북 청주시 흥덕구 죽천로 89번길 19", "members_num": 40.0}}, {"type": "Feature", "geometry": {"type": "Point", "coordinates": [127.3686247, 36.6229725]}, "properties": {"name": "시온교회", "address": "(28171) 충북 청주시 흥덕구 강내면 월곡길 18-27", "members_num": 100.0}}, {"type": "Feature", "geometry": {"type": "Point", "coordinates": [127.9221065, 36.9830158]}, "properties": {"name": "순복음칠금교회", "address": "(27358) 충북 충주시 칠금5길3", "members_num": 20.0}}, {"type": "Feature", "geometry": {"type": "Point", "coordinates": [126.8706169, 36.2752584]}, "properties": {"name": "부여온누리교회", "address": "(33121) 충남 부여군 규암면 반산로 35-4", "members_num": 50.0}}, {"type": "Feature", "geometry": {"type": "Point", "coordinates": [127.4996825, 36.6286496]}, "properties": {"name": "주향교회", "address": "(28721) 충북 청주시 상당구 산성로49번길 17 201호", "members_num": 20.0}}, {"type": "Feature", "geometry": {"type": "Point", "coordinates": [127.1252681, 36.7894525]}, "properties": {"name": "부흥감리교회", "address": "(31176) 충남 천안시 동남구 신촌4로 38", "members_num": 90.0}}, {"type": "Feature", "geometry": {"type": "Point", "coordinates": [126.6299999, 36.8865525]}, "properties": {"name": "당진예원교회", "address": "(63197) 충남 당진시 서부로40, 3층 당진예원교회", "members_num": 25.0}}, {"type": "Feature", "geometry": {"type": "Point", "coordinates": [127.1598858, 36.4861373]}, "properties": {"name": "공주중앙순복음교회", "address": "(32589) 충남 공주시 마근동길 32-31", "members_num": 60.0}}, {"type": "Feature", "geometry": {"type": "Point", "coordinates": [126.6894473, 36.382846]}, "properties": {"name": "상중교회", "address": "(33424) 충남 보령시 청라면 은선길105", "members_num": 20.0}}, {"type": "Feature", "geometry": {"type": "Point", "coordinates": [127.3532921, 36.3856296]}, "properties": {"name": "꿈이있는교회", "address": "(34120) 대전 유성구 가정로 89(신성동 118-36)", "members_num": 30.0}}, {"type": "Feature", "geometry": {"type": "Point", "coordinates": [126.82686, 36.7435058]}, "properties": {"name": "두곡성결교회", "address": "(32417) 충남 예산군 신암면 계촌2길27-5", "members_num": 40.0}}, {"type": "Feature", "geometry": {"type": "Point", "coordinates": [127.0117226, 36.1903169]}, "properties": {"name": "사랑교회", "address": "(32928) 충남 논산시 금백로 466", "members_num": 5.0}}, {"type": "Feature", "geometry": {"type": "Point", "coordinates": [126.7347083, 36.4652938]}, "properties": {"name": "세광교회", "address": "(33300) 충남 청양군 화성면 큰동네길 8-52", "members_num": 15.0}}, {"type": "Feature", "geometry": {"type": "Point", "coordinates": [127.2998819, 36.5958387]}, "properties": {"name": "조치원제일침례교회", "address": "(30035) 세종 세종시 조치원읍 조치원4길123연세꽃화원", "members_num": 40.0}}, {"type": "Feature", "geometry": {"type": "Point", "coordinates": [126.5164031, 36.8021302]}, "properties": {"name": "음암성결교회", "address": "(31936) 충남 서산시 도당큰말길30", "members_num": 100.0}}, {"type": "Feature", "geometry": {"type": "Point", "coordinates": [126.5063068, 36.3248729]}, "properties": {"name": "대천항교회", "address": "(33490) 충남 보령시 대천항2길 8", "members_num": 15.0}}, {"type": "Feature", "geometry": {"type": "Point", "coordinates": [128.2568871, 37.1144835]}, "properties": {"name": "한천소망교회", "address": "(한천소망감리교회) 충북 제천시 고명로 325", "members_num": 20.0}}, {"type": "Feature", "geometry": {"type": "Point", "coordinates": [127.4272661, 36.3537032]}, "properties": {"name": "광명교회", "address": "(34429) 대전 대덕구 홍도로 73번길 40", "members_num": 25.0}}, {"type": "Feature", "geometry": {"type": "Point", "coordinates": [127.9668222, 37.0618897]}, "properties": {"name": "샘물교회", "address": "(27316) 충북 충주시 산척면 지속골길 18-1", "members_num": 30.0}}, {"type": "Feature", "geometry": {"type": "Point", "coordinates": [127.1379787, 36.8206673]}, "properties": {"name": "열린문교혹", "address": "(31138) 충남 천안시 서북구 백석로251ㅡ4", "members_num": 0.0}}, {"type": "Feature", "geometry": {"type": "Point", "coordinates": [127.3576805, 36.3014097]}, "properties": {"name": "예일순복음교회", "address": "(35388) 대전 서구 벌곡로 1308", "members_num": 50.0}}, {"type": "Feature", "geometry": {"type": "Point", "coordinates": [127.297854, 36.4858198]}, "properties": {"name": "늘찬양교회", "address": "(30151) 세종 세종시 소담3로 21", "members_num": 20.0}}, {"type": "Feature", "geometry": {"type": "Point", "coordinates": [126.8905075, 36.1732504]}, "properties": {"name": "두곡교회", "address": "(33224) 충남 부여군 임천면 359-5", "members_num": 25.0}}, {"type": "Feature", "geometry": {"type": "Point", "coordinates": [127.1624858, 36.792541]}, "properties": {"name": "새꿈감리교회", "address": "(31193) 충남 천안시 동남구 구성동 301-4 향목그라비스상가 203호", "members_num": 20.0}}, {"type": "Feature", "geometry": {"type": "Point", "coordinates": [127.1294507, 36.7793308]}, "properties": {"name": "천안꿈을이루는교회", "address": "(31204) 충남 천안시 동남구 통정2길 5-22", "members_num": 100.0}}, {"type": "Feature", "geometry": {"type": "Point", "coordinates": [127.1182221, 36.7241359]}, "properties": {"name": "하늘꿈교회", "address": "(31217) 충남 천안시 동남구 풍세면 궁리1길 8-1", "members_num": 50.0}}, {"type": "Feature", "geometry": {"type": "Point", "coordinates": [127.4279961, 36.4023975]}, "properties": {"name": "온누리감리교회", "address": "(34346) 대전 대덕구", "members_num": 50.0}}, {"type": "Feature", "geometry": {"type": "Point", "coordinates": [127.1387665, 36.8230283]}, "properties": {"name": "갈릴리성결교회", "address": "(31134) 충남 천안시 서북구 서부2길 51. 2층", "members_num": 15.0}}, {"type": "Feature", "geometry": {"type": "Point", "coordinates": [127.0045756, 36.7735652]}, "properties": {"name": "브니엘교회", "address": "(31572) 충남 아산시 용화고길 11-11 4층", "members_num": 30.0}}, {"type": "Feature", "geometry": {"type": "Point", "coordinates": [127.1252681, 36.7894525]}, "properties": {"name": "부흥교회", "address": "(31176) 충남 천안시 동남구 신촌4로 38 부흥빌딩 4층", "members_num": 80.0}}, {"type": "Feature", "geometry": {"type": "Point", "coordinates": [127.1294507, 36.7793308]}, "properties": {"name": "꿈을이루는교회", "address": "(31204) 충남 천안시 동남구 통정2길 5-22", "members_num": 100.0}}, {"type": "Feature", "geometry": {"type": "Point", "coordinates": [127.1512084, 36.788146]}, "properties": {"name": "돌담길교회", "address": "(31190) 충남 천안시 동남구 청수로 35-1, 2층", "members_num": 30.0}}, {"type": "Feature", "geometry": {"type": "Point", "coordinates": [127.1600615, 36.7984871]}, "properties": {"name": "초대교회", "address": "(31192) 충남 천안시 동남구 충무로492 초대교회", "members_num": 20.0}}, {"type": "Feature", "geometry": {"type": "Point", "coordinates": [127.1328678, 36.7699262]}, "properties": {"name": "하늘사랑교회", "address": "(31207) 충남 천안시 동남구 통정8로 66로", "members_num": 35.0}}, {"type": "Feature", "geometry": {"type": "Point", "coordinates": [127.123595, 36.7884839]}, "properties": {"name": "이웃사랑교회", "address": "(31177) 충남 천안시 동남구 신방동 74-51 2층 이웃사랑교회", "members_num": 12.0}}, {"type": "Feature", "geometry": {"type": "Point", "coordinates": [127.7904145, 36.9767799]}, "properties": {"name": "행복한교회", "address": "(27462) 충북 충주시 주덕읍 신덕로 1307", "members_num": 66.0}}, {"type": "Feature", "geometry": {"type": "Point", "coordinates": [126.3044891, 36.7483706]}, "properties": {"name": "푸른교회", "address": "(32143) 충남 태안군 태안읍 후곡로131-6 2층", "members_num": 25.0}}, {"type": "Feature", "geometry": {"type": "Point", "coordinates": [127.3899021, 36.3213206]}, "properties": {"name": "선지교회", "address": "(34888) 대전 중구 태평로35 216-204", "members_num": 0.0}}, {"type": "Feature", "geometry": {"type": "Point", "coordinates": [127.4404146, 36.3097341]}, "properties": {"name": "한소망교회", "address": "(35060) 대전 중구 대종로253", "members_num": 22.0}}, {"type": "Feature", "geometry": {"type": "Point", "coordinates": [126.6566553, 36.9092131]}, "properties": {"name": "원당교회", "address": "(31763) 충남 당진시 원당골길 51", "members_num": 50.0}}, {"type": "Feature", "geometry": {"type": "Point", "coordinates": [127.7954202, 36.97452990000001]}, "properties": {"name": "주덕드림교회", "address": "(27462) 충북 충주시 주덕읍 신양5길 16 (27462) 충북 충주시 주덕읍 신양5길 16", "members_num": 40.0}}, {"type": "Feature", "geometry": {"type": "Point", "coordinates": [126.4629652, 36.7754995]}, "properties": {"name": "주반석교회", "address": "(31994) 충남 서산시 한마음11로 8", "members_num": 15.0}}, {"type": "Feature", "geometry": {"type": "Point", "coordinates": [127.3487052, 36.3630001]}, "properties": {"name": "열방선교교회", "address": "(34137) 대전 유성구 궁동로 18번길 21-6", "members_num": 80.0}}, {"type": "Feature", "geometry": {"type": "Point", "coordinates": [127.5187258, 36.6045661]}, "properties": {"name": "청주안디옥교회", "address": "(28809) 충북 청주시 상당구 월운로116 힐데스하임아파트 105동1102호", "members_num": 15.0}}, {"type": "Feature", "geometry": {"type": "Point", "coordinates": [127.4410954, 36.33389630000001]}, "properties": {"name": "대전동문교회", "address": "(34605) 대전 동구 계족로 220", "members_num": 150.0}}, {"type": "Feature", "geometry": {"type": "Point", "coordinates": [127.3110581, 36.3915055]}, "properties": {"name": "이음교회", "address": "(34069) 대전 유성구 반석로32 양지타워 302-1호", "members_num": 30.0}}, {"type": "Feature", "geometry": {"type": "Point", "coordinates": [127.3713041, 36.311445]}, "properties": {"name": "하늘소망교회", "address": "(35340) 대전 서구 계백로1369", "members_num": 120.0}}, {"type": "Feature", "geometry": {"type": "Point", "coordinates": [126.5269883, 36.1630471]}, "properties": {"name": "십자가감리교회", "address": "(33603) 충남 서천군 서면 춘장대로 122", "members_num": 10.0}}, {"type": "Feature", "geometry": {"type": "Point", "coordinates": [126.5628791, 36.3468476]}, "properties": {"name": "서해중앙교회", "address": "(33492) 충남 보령시 왕대산길 365", "members_num": 30.0}}, {"type": "Feature", "geometry": {"type": "Point", "coordinates": [126.5850181, 36.2931336]}, "properties": {"name": "남남포중앙교회", "address": "(33497) 충남 보령시 남포면 소달길 8", "members_num": 50.0}}, {"type": "Feature", "geometry": {"type": "Point", "coordinates": [127.435427, 36.869869]}, "properties": {"name": "한샘교회", "address": "(27844) 충북 진천군 진천읍 장관2길 114", "members_num": 30.0}}, {"type": "Feature", "geometry": {"type": "Point", "coordinates": [127.4843484, 36.6704589]}, "properties": {"name": "청원순복음교회", "address": "(28329) 충북 청주시 청원구 공항로 150번길 5 청림빌딩 5층", "members_num": 30.0}}, {"type": "Feature", "geometry": {"type": "Point", "coordinates": [127.3789802, 36.3195322]}, "properties": {"name": "서문제일교회", "address": "(35330) 대전 서구 조달청길 115", "members_num": 140.0}}, {"type": "Feature", "geometry": {"type": "Point", "coordinates": [127.5405134, 36.7099087]}, "properties": {"name": "미소교회", "address": "(28150) 충북 청주시 청원구 내수읍 도원세교로 63 우창진주2차 203동 405호", "members_num": 15.0}}, {"type": "Feature", "geometry": {"type": "Point", "coordinates": [127.4605107, 36.647696]}, "properties": {"name": "초대감리교회", "address": "(28449) 충북 청주시 흥덕구 과상미로 101번길 27-1", "members_num": 30.0}}, {"type": "Feature", "geometry": {"type": "Point", "coordinates": [127.4478832, 36.5608382]}, "properties": {"name": "청주금식수양관엘림교회", "address": "(28182) 충북 청주시 서원구 남이면척산1구29~5", "members_num": 55.0}}, {"type": "Feature", "geometry": {"type": "Point", "coordinates": [127.4247899, 36.6237326]}, "properties": {"name": "초원교회", "address": "(28376) 충북 청주시 흥덕구 가로수로1144번길 67-7", "members_num": 100.0}}, {"type": "Feature", "geometry": {"type": "Point", "coordinates": [127.4804017, 36.6177672]}, "properties": {"name": "새생명교회", "address": "(28693) 충북 청주시 서원구 구룡산로 326번길 19-11", "members_num": 9.0}}, {"type": "Feature", "geometry": {"type": "Point", "coordinates": [127.5008286, 36.612018]}, "properties": {"name": "새희망교회", "address": "(28772) 충북 청주시 상당구 청주시상당구월평로143 2층", "members_num": 7.0}}, {"type": "Feature", "geometry": {"type": "Point", "coordinates": [127.5077348, 36.61552280000001]}, "properties": {"name": "용암동산교회", "address": "(28767) 충북 청주시 상당구 원봉로 68-7", "members_num": 100.0}}, {"type": "Feature", "geometry": {"type": "Point", "coordinates": [127.3744328, 36.31226789999999]}, "properties": {"name": "더웨이교회", "address": "(35335) 대전 서구 도솔로18-1, 3층", "members_num": 45.0}}, {"type": "Feature", "geometry": {"type": "Point", "coordinates": [127.4549146, 36.3547059]}, "properties": {"name": "대전지구촌교회", "address": "(34416) 대전 대덕구 우암로404 3층", "members_num": 18.0}}, {"type": "Feature", "geometry": {"type": "Point", "coordinates": [127.3357295, 36.3530686]}, "properties": {"name": "겸온교회", "address": "(34177) 대전 유성구 계룡로52번길48 1층", "members_num": 22.0}}, {"type": "Feature", "geometry": {"type": "Point", "coordinates": [126.6963903, 36.0116761]}, "properties": {"name": "예장합동", "address": "(33672) 충남 서천군 장항로171번길9", "members_num": 50.0}}, {"type": "Feature", "geometry": {"type": "Point", "coordinates": [127.0869652, 36.8925086]}, "properties": {"name": "의식교회", "address": "(31414) 충남 아산시 음봉면 신의길208번길 25", "members_num": 40.0}}, {"type": "Feature", "geometry": {"type": "Point", "coordinates": [127.5045181, 36.6129561]}, "properties": {"name": "생명의빛교회", "address": "(28773) 충북 청주시 상당구 충북 청주시 상당구 용암동 3267", "members_num": 22.0}}, {"type": "Feature", "geometry": {"type": "Point", "coordinates": [126.6129979, 36.341458]}, "properties": {"name": "보령초대교회", "address": "(33481) 충남 보령시 명천로 11", "members_num": 300.0}}, {"type": "Feature", "geometry": {"type": "Point", "coordinates": [127.5582383, 36.9261813]}, "properties": {"name": "순복음맹동중앙교회", "address": "(27733) 충북 음성군 맹동면 덕금로 408-5", "members_num": 20.0}}, {"type": "Feature", "geometry": {"type": "Point", "coordinates": [127.511939, 36.5901372]}, "properties": {"name": "예수천국교회", "address": "(28187) 충북 청주시 상당구 남일면 효촌송암길 45", "members_num": 12.0}}, {"type": "Feature", "geometry": {"type": "Point", "coordinates": [127.4295142, 36.3496759]}, "properties": {"name": "누리다교회", "address": "(34553) 대전 동구 홍도동 2-9번지", "members_num": 100.0}}, {"type": "Feature", "geometry": {"type": "Point", "coordinates": [127.3645337, 36.2998619]}, "properties": {"name": "수밋들교회", "address": "(35398) 대전 서구 정림서로138번길21 백목련아파트 유치원동", "members_num": 20.0}}, {"type": "Feature", "geometry": {"type": "Point", "coordinates": [127.427208, 36.6357812]}, "properties": {"name": "순복음샘물교회", "address": "(28416) 충북 청주시 흥덕구 진재로55번길 45-13 에덴빌1층", "members_num": 20.0}}, {"type": "Feature", "geometry": {"type": "Point", "coordinates": [127.4407034, 36.6091056]}, "properties": {"name": "순복음풍성한교회", "address": "(28386) 충북 청주시 서원구 대림로 421번길 12-24 순복음풍성한교회", "members_num": 25.0}}, {"type": "Feature", "geometry": {"type": "Point", "coordinates": [127.4937563, 36.6130768]}, "properties": {"name": "청주살림교회", "address": "(28793) 충북 청주시 서원구 무심서로 207", "members_num": 50.0}}, {"type": "Feature", "geometry": {"type": "Point", "coordinates": [127.4653776, 36.6090292]}, "properties": {"name": "청주비전교회", "address": "(28630) 충북 청주시 서원구 두꺼비로 48 2층 비전교회", "members_num": 15.0}}, {"type": "Feature", "geometry": {"type": "Point", "coordinates": [127.4490239, 36.6618531]}, "properties": {"name": "더행복한교회", "address": "(28293) 충북 청주시 흥덕구 송화로108번길30", "members_num": 30.0}}, {"type": "Feature", "geometry": {"type": "Point", "coordinates": [127.4377391, 36.9909836]}, "properties": {"name": "참조은교회", "address": "(27802) 충북 진천군 화랑길113 2층", "members_num": 20.0}}, {"type": "Feature", "geometry": {"type": "Point", "coordinates": [127.2646197, 36.3634429]}, "properties": {"name": "하은제일교회", "address": "(32624) 충남 공주시 반포면사봉길106-3", "members_num": 30.0}}, {"type": "Feature", "geometry": {"type": "Point", "coordinates": [126.8011344, 36.6583391]}, "properties": {"name": "입침감리교회", "address": "(32447) 충남 예산군 입침큰말길 37-7", "members_num": 30.0}}, {"type": "Feature", "geometry": {"type": "Point", "coordinates": [126.4336105, 37.0525274]}, "properties": {"name": "난지도감리교회", "address": "(31708) 충남 당진시 석문면 난지1길205-12", "members_num": 50.0}}, {"type": "Feature", "geometry": {"type": "Point", "coordinates": [127.5165121, 36.6661495]}, "properties": {"name": "예수사랑교회", "address": "(28782) 충북 청주시 상당구 용암로3덕성상가 지하", "members_num": 30.0}}, {"type": "Feature", "geometry": {"type": "Point", "coordinates": [127.6226177, 37.0855864]}, "properties": {"name": "순복음생수교회", "address": "(27613) 충북 음성군 감곡면음성로 2293번길 7 순복음생수교회", "members_num": 15.0}}, {"type": "Feature", "geometry": {"type": "Point", "coordinates": [127.4269354, 36.637382]}, "properties": {"name": "하복대순복음교회", "address": "(28414) 충북 청주시 흥덕구 증안로29", "members_num": 50.0}}, {"type": "Feature", "geometry": {"type": "Point", "coordinates": [127.0093218, 36.1496644]}, "properties": {"name": "강경교회", "address": "(32940) 충남 논산시 강경읍 여강로 1307", "members_num": 45.0}}, {"type": "Feature", "geometry": {"type": "Point", "coordinates": [127.5022623, 36.1360149]}, "properties": {"name": "군북교회", "address": "(32721) 충남 금산군 군북면 일흔이재로 88", "members_num": 100.0}}, {"type": "Feature", "geometry": {"type": "Point", "coordinates": [127.4759352, 36.6594531]}, "properties": {"name": "충만한교회", "address": "(28343) 충북 청주시 청원구 제1순환로 342번길 24, 2층", "members_num": 50.0}}, {"type": "Feature", "geometry": {"type": "Point", "coordinates": [126.4370621, 36.9301517]}, "properties": {"name": "대산제일교회", "address": "(31912) 충남 서산시 대산읍 탑성골2길38", "members_num": 500.0}}, {"type": "Feature", "geometry": {"type": "Point", "coordinates": [127.5824865, 36.7803451]}, "properties": {"name": "한가람교회", "address": "(27936) 충북 증평군 증평읍역전로71 2층", "members_num": 30.0}}, {"type": "Feature", "geometry": {"type": "Point", "coordinates": [126.552338, 36.2602604]}, "properties": {"name": "월전교회", "address": "(33502) 충남 보령시 남포면 남포방조제로 628", "members_num": 70.0}}, {"type": "Feature", "geometry": {"type": "Point", "coordinates": [126.9600001, 36.7041372]}, "properties": {"name": "강장리교회", "address": "(31555) 충남 아산시 송악로 76번길 42-16", "members_num": 10.0}}, {"type": "Feature", "geometry": {"type": "Point", "coordinates": [127.2344, 36.5050737]}, "properties": {"name": "예함교회", "address": "(30063) 세종 세종시 마음로70에셀프라자5층", "members_num": 170.0}}, {"type": "Feature", "geometry": {"type": "Point", "coordinates": [127.4731827, 36.6632148]}, "properties": {"name": "청주목양교회", "address": "(28341) 충북 청주시 청원구 율봉로25~1 (101)", "members_num": 0.0}}, {"type": "Feature", "geometry": {"type": "Point", "coordinates": [127.4887504, 36.6214268]}, "properties": {"name": "순복음생명샘교회", "address": "(28704) 충북 청주시 서원구 구룡산로 389번길52 2층", "members_num": 30.0}}, {"type": "Feature", "geometry": {"type": "Point", "coordinates": [127.3677662, 36.3531247]}, "properties": {"name": "샘물교회", "address": "(35275) 대전 서구 계룡로 354번길 8", "members_num": 20.0}}, {"type": "Feature", "geometry": {"type": "Point", "coordinates": [127.4447649, 36.3460549]}, "properties": {"name": "한소망교회", "address": "(34586) 대전 동구 동대전로 283번길 6", "members_num": 30.0}}, {"type": "Feature", "geometry": {"type": "Point", "coordinates": [127.4710647, 36.6559204]}, "properties": {"name": "선한순복음교회", "address": "(28456) 충북 청주시 흥덕구 사운로324번길20 두진백로상가 202호", "members_num": 15.0}}, {"type": "Feature", "geometry": {"type": "Point", "coordinates": [127.1378479, 36.8231007]}, "properties": {"name": "늘푸른초장교회", "address": "(31134) 충남 천안시 서북구 서부16길 11. 2층", "members_num": 20.0}}, {"type": "Feature", "geometry": {"type": "Point", "coordinates": [126.5413105, 36.2451784]}, "properties": {"name": "무창포교회", "address": "(33508) 충남 보령시 웅천읍 간드리3길 37", "members_num": 50.0}}, {"type": "Feature", "geometry": {"type": "Point", "coordinates": [128.1680319, 37.0651254]}, "properties": {"name": "금성감리교회", "address": "(27207) 충북 제천시 금성면 청풍호로31길 7", "members_num": 70.0}}, {"type": "Feature", "geometry": {"type": "Point", "coordinates": [127.3532896, 36.2979508]}, "properties": {"name": "사랑이꽃피는교회", "address": "(35390) 대전 서구 가수원로37 사랑이꽃피는교회 2층", "members_num": 40.0}}, {"type": "Feature", "geometry": {"type": "Point", "coordinates": [127.2818245, 36.7313085]}, "properties": {"name": "수신제일교회", "address": "(31251) 충남 천안시 동남구 수신면 수신로436-6수신제일교회", "members_num": 45.0}}, {"type": "Feature", "geometry": {"type": "Point", "coordinates": [127.1397624, 36.7809061]}, "properties": {"name": "포도원감리교회", "address": "(31202) 충남 천안시 동남구 풍세로 801-20", "members_num": 20.0}}, {"type": "Feature", "geometry": {"type": "Point", "coordinates": [127.5035481, 36.6209878]}, "properties": {"name": "금천그돌교회", "address": "(28739) 충북 청주시 상당구 금천동 139-34", "members_num": 22.0}}, {"type": "Feature", "geometry": {"type": "Point", "coordinates": [128.4168973, 37.093765]}, "properties": {"name": "별방교회", "address": "(27017) 충북 단양군 영춘면 별방만종로 602", "members_num": 50.0}}, {"type": "Feature", "geometry": {"type": "Point", "coordinates": [127.1682781, 36.7861021]}, "properties": {"name": "양광교회", "address": "(31070) 충남 천안시 동남구 샛골길 1-12", "members_num": 30.0}}, {"type": "Feature", "geometry": {"type": "Point", "coordinates": [127.1791751, 36.7606393]}, "properties": {"name": "은혜샘교회", "address": "(31224) 충남 천안시 동남구 삼성5길 아이조움프라자 201호 은혜샘교회", "members_num": 20.0}}, {"type": "Feature", "geometry": {"type": "Point", "coordinates": [127.1821418, 36.8744194]}, "properties": {"name": "예수자랑사모교회", "address": "(31047) 충남 천안시 서북구 성거읍 문덕리 333-7", "members_num": 10.0}}, {"type": "Feature", "geometry": {"type": "Point", "coordinates": [127.2736801, 36.8090991]}, "properties": {"name": "북면교회", "address": "(31241) 충남 천안시 동남구 북면 매송1길 107", "members_num": 15.0}}, {"type": "Feature", "geometry": {"type": "Point", "coordinates": [127.1756763, 36.79484240000001]}, "properties": {"name": "천안성광교회", "address": "(330 070) 충남 천안시 동남구 정골2길 35", "members_num": 29.0}}, {"type": "Feature", "geometry": {"type": "Point", "coordinates": [127.3075269, 36.340757]}, "properties": {"name": "대전사랑의교회", "address": "(34210) 대전 유성구 학하복용서로 19", "members_num": 100.0}}, {"type": "Feature", "geometry": {"type": "Point", "coordinates": [127.3196891, 36.8033726]}, "properties": {"name": "매성교회", "address": "(31240) 충남 천안시 동남구 병천면 봉항로497", "members_num": 20.0}}, {"type": "Feature", "geometry": {"type": "Point", "coordinates": [127.3494357, 36.7781935]}, "properties": {"name": "동면교회", "address": "(31258) 충남 천안시 동남구 동면 동산1길 65", "members_num": 25.0}}, {"type": "Feature", "geometry": {"type": "Point", "coordinates": [126.4618612, 36.7871925]}, "properties": {"name": "서산농아교회", "address": "(31977) 충남 서산시 학동9로24", "members_num": 30.0}}, {"type": "Feature", "geometry": {"type": "Point", "coordinates": [127.316586, 36.7574249]}, "properties": {"name": "기독교대한감리회", "address": "(31257) 충남 천안시 동남구 병천면 유관순생가길18-4", "members_num": 40.0}}, {"type": "Feature", "geometry": {"type": "Point", "coordinates": [127.9220448, 36.9696559]}, "properties": {"name": "하늘샘교회", "address": "(27421) 충북 충주시 성터11길5", "members_num": 20.0}}, {"type": "Feature", "geometry": {"type": "Point", "coordinates": [127.1367625, 36.7658553]}, "properties": {"name": "푸른하늘교회", "address": "(31206) 충남 천안시 동남구 풍세로 708", "members_num": 20.0}}, {"type": "Feature", "geometry": {"type": "Point", "coordinates": [126.5776668, 36.5773641]}, "properties": {"name": "홍성한빛감리교회", "address": "(32209) 충남 홍성군 결성면 백야로 68번길132~30", "members_num": 25.0}}, {"type": "Feature", "geometry": {"type": "Point", "coordinates": [126.4236207, 36.7904063]}, "properties": {"name": "갈산감리교회", "address": "(31963) 충남 서산시 갈산9길 6", "members_num": 4.0}}, {"type": "Feature", "geometry": {"type": "Point", "coordinates": [126.6816397, 36.6474602]}, "properties": {"name": "내포제자교회", "address": "(32266) 충남 홍성군 홍북읍 홍예로 LH스타힐스 120동 2304호", "members_num": 40.0}}, {"type": "Feature", "geometry": {"type": "Point", "coordinates": [127.4481027, 36.6266055]}, "properties": {"name": "희망찬교회", "address": "(28604) 충북 청주시 흥덕구 신율로 84", "members_num": 25.0}}, {"type": "Feature", "geometry": {"type": "Point", "coordinates": [126.9993711, 36.7764073]}, "properties": {"name": "온마음교회", "address": "(31570) 충남 아산시 어의정로17번길 6-53", "members_num": 22.0}}, {"type": "Feature", "geometry": {"type": "Point", "coordinates": [127.5116113, 36.9374938]}, "properties": {"name": "평화침례교회", "address": "(27678) 충북 음성군 대소면 된말길 93", "members_num": 77.0}}, {"type": "Feature", "geometry": {"type": "Point", "coordinates": [126.7827989, 36.9432306]}, "properties": {"name": "영광감리교회", "address": "(2층 영광감리교회) 충남 당진시 송악읍 신복운로 6길 25", "members_num": 13.0}}, {"type": "Feature", "geometry": {"type": "Point", "coordinates": [127.7484673, 37.1580001]}, "properties": {"name": "영광교회", "address": "(27300) 충북 충주시 앙성면 앙암로648", "members_num": 50.0}}, {"type": "Feature", "geometry": {"type": "Point", "coordinates": [126.805471, 36.8980432]}, "properties": {"name": "은수감리교회", "address": "(31743) 충남 당진시 신평면 샛터로250", "members_num": 60.0}}, {"type": "Feature", "geometry": {"type": "Point", "coordinates": [126.71032, 36.08753129999999]}, "properties": {"name": "성민감리교회", "address": "(33633) 충남 서천군 화금동길 152 성민교회", "members_num": 100.0}}, {"type": "Feature", "geometry": {"type": "Point", "coordinates": [126.6585304, 36.5831283]}, "properties": {"name": "행복한감리교회", "address": "(32244) 충남 홍성군 홍성읍충서로1132-50", "members_num": 30.0}}, {"type": "Feature", "geometry": {"type": "Point", "coordinates": [127.3851814, 36.3024746]}, "properties": {"name": "백석", "address": "(35080) 대전 중구 유등천동로 198번길 24", "members_num": 70.0}}, {"type": "Feature", "geometry": {"type": "Point", "coordinates": [126.7899758, 36.7518164]}, "properties": {"name": "예림교회", "address": "(32420) 충남 예산군 신암면 용산로 283", "members_num": 30.0}}, {"type": "Feature", "geometry": {"type": "Point", "coordinates": [127.9204817, 37.0324998]}, "properties": {"name": "늘푸른군인교회", "address": "(27443) 충북 충주시 지등로29 육군 제3105부대", "members_num": 50.0}}, {"type": "Feature", "geometry": {"type": "Point", "coordinates": [126.6662271, 36.6083358]}, "properties": {"name": "신경감리교회", "address": "(32218) 충남 홍성군 충서로 1575번길 83", "members_num": 100.0}}, {"type": "Feature", "geometry": {"type": "Point", "coordinates": [127.5282429, 36.9008463]}, "properties": {"name": "늘찬양교회", "address": "(27875) 충북 진천군 덕산읍 연미1길 29, 202호", "members_num": 20.0}}, {"type": "Feature", "geometry": {"type": "Point", "coordinates": [126.501543, 36.9950262]}, "properties": {"name": "초락제일교회", "address": "(31707) 충남 당진시 석문면 초락1로 174", "members_num": 70.0}}, {"type": "Feature", "geometry": {"type": "Point", "coordinates": [126.6866743, 36.6509203]}, "properties": {"name": "내포중심교회", "address": "(32268) 충남 홍성군 홍북읍 신대2길 77", "members_num": 90.0}}, {"type": "Feature", "geometry": {"type": "Point", "coordinates": [127.5040826, 36.6226732]}, "properties": {"name": "제자들교회", "address": "(28739) 충북 청주시 상당구 수영로 198 효성A. 상가 303호", "members_num": 0.0}}, {"type": "Feature", "geometry": {"type": "Point", "coordinates": [127.4558241, 36.6437208]}, "properties": {"name": "하늘빛교회", "address": "(28453) 충북 청주시 흥덕구 과상미로9번길105호2층", "members_num": 30.0}}, {"type": "Feature", "geometry": {"type": "Point", "coordinates": [126.6709053, 36.6005553]}, "properties": {"name": "내포영락교회", "address": "(충남대롱50) 충남 홍성군", "members_num": 66.0}}, {"type": "Feature", "geometry": {"type": "Point", "coordinates": [126.684993, 36.6573184]}, "properties": {"name": "내포감리교회", "address": "(32257) 충남 홍성군 홍북읍 애향2길 22", "members_num": 27.0}}, {"type": "Feature", "geometry": {"type": "Point", "coordinates": [127.4816207, 36.6178038]}, "properties": {"name": "수곡중앙교회", "address": "(28693) 충북 청주시 서원구 구룡산로 338번길 16-4", "members_num": 100.0}}, {"type": "Feature", "geometry": {"type": "Point", "coordinates": [126.7690444, 36.82800659999999]}, "properties": {"name": "소망교회", "address": "(31754) 충남 당진시 합덕읍 덕평로 584.2층", "members_num": 12.0}}, {"type": "Feature", "geometry": {"type": "Point", "coordinates": [127.012431, 36.79195929999999]}, "properties": {"name": "주소망교회", "address": "(31518) 충남 아산시 문화로 225-11", "members_num": 33.0}}, {"type": "Feature", "geometry": {"type": "Point", "coordinates": [127.4050987, 36.3358621]}, "properties": {"name": "주생명성결교회", "address": "(34818) 대전 중구 어덕마을로58 지하(교회)", "members_num": 4.0}}, {"type": "Feature", "geometry": {"type": "Point", "coordinates": [126.8907745, 36.5929297]}, "properties": {"name": "참기쁨교회", "address": "(32453) 충남 예산군 신양면 차동로 317~8", "members_num": 20.0}}, {"type": "Feature", "geometry": {"type": "Point", "coordinates": [127.4672184, 36.9494466]}, "properties": {"name": "두란노교회", "address": "(27673) 충북 음성군 쇠머리길6번길54", "members_num": 20.0}}, {"type": "Feature", "geometry": {"type": "Point", "coordinates": [127.3130917, 36.3915055]}, "properties": {"name": "함께꿈꾸는교회", "address": "(34068) 대전 유성구 반석로13 웰빙타운9층", "members_num": 90.0}}, {"type": "Feature", "geometry": {"type": "Point", "coordinates": [126.6041899, 36.9393523]}, "properties": {"name": "고대중앙교회", "address": "(31792) 충남 당진시 고대면 고대로 222~8", "members_num": 77.0}}, {"type": "Feature", "geometry": {"type": "Point", "coordinates": [127.1644959, 36.94821040000001]}, "properties": {"name": "도하교회", "address": "(31791) 충남 천안시 서북구 성환읍 도감1길 4", "members_num": 90.0}}, {"type": "Feature", "geometry": {"type": "Point", "coordinates": [127.1328155, 36.8169041]}, "properties": {"name": "성문교회", "address": "(31140) 충남 천안시 동남구 개목3길26", "members_num": 200.0}}, {"type": "Feature", "geometry": {"type": "Point", "coordinates": [126.5935899, 36.9566728]}, "properties": {"name": "장항제일교회", "address": "(31791) 충남 당진시 고대면 원장항길 34", "members_num": 80.0}}, {"type": "Feature", "geometry": {"type": "Point", "coordinates": [126.6011927, 36.9029845]}, "properties": {"name": "항곡감리교회", "address": "(31794) 충남 당진시 고대면 항곡 5길 58", "members_num": 45.0}}, {"type": "Feature", "geometry": {"type": "Point", "coordinates": [126.575478, 36.9821782]}, "properties": {"name": "영산교회", "address": "(31791) 충남 당진시 고대면 성산로 416", "members_num": 50.0}}, {"type": "Feature", "geometry": {"type": "Point", "coordinates": [126.5930021, 36.9814143]}, "properties": {"name": "석문감리교회", "address": "(31703) 충남 당진시 석문면 보덕포로1027", "members_num": 200.0}}, {"type": "Feature", "geometry": {"type": "Point", "coordinates": [126.5079, 37.031604]}, "properties": {"name": "대호감리교회", "address": "(31700) 충남 당진시 석문면 대호만로 2255번지", "members_num": 70.0}}, {"type": "Feature", "geometry": {"type": "Point", "coordinates": [126.6075724, 36.9240549]}, "properties": {"name": "고대제일교회", "address": "(31793) 충남 당진시 고대면 하용길3", "members_num": 200.0}}, {"type": "Feature", "geometry": {"type": "Point", "coordinates": [126.5056164, 36.9922722]}, "properties": {"name": "초락감리교회", "address": "(31707) 충남 당진시 석문면 초락1로 122-13", "members_num": 75.0}}, {"type": "Feature", "geometry": {"type": "Point", "coordinates": [126.5603086, 37.0254432]}, "properties": {"name": "장고항교회", "address": "(31701) 충남 당진시 석문면 석문방조제로1978", "members_num": 100.0}}, {"type": "Feature", "geometry": {"type": "Point", "coordinates": [127.9155624, 36.9674581]}, "properties": {"name": "시온성교회", "address": "(27418) 충북 충주시 사직로27 시온성교회", "members_num": 30.0}}, {"type": "Feature", "geometry": {"type": "Point", "coordinates": [128.4175382, 37.0958408]}, "properties": {"name": "별방순복음교회", "address": "(별방순복음교회) 충북 단양군 영춘면 별방 창원로422", "members_num": 10.0}}, {"type": "Feature", "geometry": {"type": "Point", "coordinates": [127.1080509, 36.4544344]}, "properties": {"name": "새생명교회", "address": "(32543) 충남 공주시 웅진절골3길25. 경일 아파트 가동 404", "members_num": 10.0}}, {"type": "Feature", "geometry": {"type": "Point", "coordinates": [127.7859324, 36.9564263]}, "properties": {"name": "신성교회", "address": "(27464) 충북 충주시 주덕읍 청미길 100-32", "members_num": 15.0}}, {"type": "Feature", "geometry": {"type": "Point", "coordinates": [127.3464436, 36.3608903]}, "properties": {"name": "예문교회", "address": "(34183) 대전 유성구 궁동 487-4 남양빌딩 지하 예문교회", "members_num": 30.0}}, {"type": "Feature", "geometry": {"type": "Point", "coordinates": [127.9493747, 37.0562613]}, "properties": {"name": "마흘제일교회", "address": "(27319) 충북 충주시 동량면 마흘동녁길33", "members_num": 33.0}}, {"type": "Feature", "geometry": {"type": "Point", "coordinates": [127.7340891, 36.6617757]}, "properties": {"name": "청천순복음교회", "address": "(28063) 충북 괴산군 청천면 청천11길 5-1", "members_num": 40.0}}, {"type": "Feature", "geometry": {"type": "Point", "coordinates": [127.0133285, 36.3780592]}, "properties": {"name": "공주대학교회", "address": "(32607) 충남 공주시 탄천면 합천1길18", "members_num": 15.0}}, {"type": "Feature", "geometry": {"type": "Point", "coordinates": [126.4628857, 36.8387483]}, "properties": {"name": "서산좋은교회", "address": "(31930) 충남 서산시 성연면 성연로 223, 2층", "members_num": 50.0}}, {"type": "Feature", "geometry": {"type": "Point", "coordinates": [126.7667881, 36.6242538]}, "properties": {"name": "예산전원교회", "address": "(32447) 충남 예산군 응봉면 건지화1길 12", "members_num": 60.0}}, {"type": "Feature", "geometry": {"type": "Point", "coordinates": [127.9284776, 36.9703278]}, "properties": {"name": "서부", "address": "(27409) 충북 충주시 충주시 사직산 16길 46", "members_num": 200.0}}, {"type": "Feature", "geometry": {"type": "Point", "coordinates": [128.1996643, 37.1419643]}, "properties": {"name": "새로남교회", "address": "(27161) 충북 제천시 용두대로17안길 6", "members_num": 30.0}}, {"type": "Feature", "geometry": {"type": "Point", "coordinates": [128.2627046, 37.1883567]}, "properties": {"name": "송학교회", "address": "(27123) 충북 제천시 송학면 옥천길 22-1", "members_num": 100.0}}, {"type": "Feature", "geometry": {"type": "Point", "coordinates": [128.217094, 37.14826619999999]}, "properties": {"name": "제천동산교회", "address": "(27152) 충북 제천시 용두천로238", "members_num": 350.0}}, {"type": "Feature", "geometry": {"type": "Point", "coordinates": [127.4809428, 36.1090621]}, "properties": {"name": "금산예닮교회", "address": "(32729) 충남 금산군 금산읍 북사직로 10", "members_num": 40.0}}, {"type": "Feature", "geometry": {"type": "Point", "coordinates": [127.7246112, 36.2103969]}, "properties": {"name": "구세군각계교회", "address": "(03756) 충북 영동군 심천면 각계1길 22-5", "members_num": 200.0}}, {"type": "Feature", "geometry": {"type": "Point", "coordinates": [127.4333513, 36.3185668]}, "properties": {"name": "새빛사랑교회", "address": "(35027) 대전 중구 문창로69번길50", "members_num": 10.0}}, {"type": "Feature", "geometry": {"type": "Point", "coordinates": [126.6364034, 36.4863925]}, "properties": {"name": "담산침례교회", "address": "(32285) 충남 홍성군 광천읍 담산리 87", "members_num": 20.0}}, {"type": "Feature", "geometry": {"type": "Point", "coordinates": [127.4254426, 36.362735]}, "properties": {"name": "양무리침례교회", "address": "(34390) 대전 대덕구 중리로42", "members_num": 200.0}}, {"type": "Feature", "geometry": {"type": "Point", "coordinates": [126.7695632, 36.9346773]}, "properties": {"name": "기독교대한감리회", "address": "(31723) 충남 당진시 송악읍 장대골길 178", "members_num": 11.0}}, {"type": "Feature", "geometry": {"type": "Point", "coordinates": [127.3394053, 36.3521203]}, "properties": {"name": "주우리교회", "address": "(34179) 대전 유성구 도안대로579", "members_num": 150.0}}, {"type": "Feature", "geometry": {"type": "Point", "coordinates": [127.7626538, 36.131367]}, "properties": {"name": "양승열목사", "address": "(29155) 충북 영동군 양강면 남전4길10-29", "members_num": 0.0}}, {"type": "Feature", "geometry": {"type": "Point", "coordinates": [127.6858877, 36.0965776]}, "properties": {"name": "학산교회", "address": "(29166) 충북 영동군 학산면 서산로2길 13-10", "members_num": 150.0}}, {"type": "Feature", "geometry": {"type": "Point", "coordinates": [127.645383, 36.1006122]}, "properties": {"name": "광평교회", "address": "(29164) 충북 영동군 학산면 넘벌 2길 7-2", "members_num": 50.0}}, {"type": "Feature", "geometry": {"type": "Point", "coordinates": [127.766553, 36.0213371]}, "properties": {"name": "세광교회", "address": "(29158) 충북 영동군 용화면 민주지산로 103-11", "members_num": 50.0}}, {"type": "Feature", "geometry": {"type": "Point", "coordinates": [127.6668255, 36.1234916]}, "properties": {"name": "양산교회", "address": "(29161) 충북 영동군 양산면 가곡5길6-20", "members_num": 100.0}}, {"type": "Feature", "geometry": {"type": "Point", "coordinates": [126.5553827, 36.3292262]}, "properties": {"name": "영포교회", "address": "(33491) 충남 보령시 해망산길 159(요암동)", "members_num": 40.0}}, {"type": "Feature", "geometry": {"type": "Point", "coordinates": [127.1633162, 36.7931706]}, "properties": {"name": "하늘시선교회", "address": "(31193) 충남 천안시 동남구 천안대로 483-8 신성미소지움 112동 804호", "members_num": 20.0}}, {"type": "Feature", "geometry": {"type": "Point", "coordinates": [127.0995502, 36.3099577]}, "properties": {"name": "호암교회", "address": "(32900) 충남 논산시 노성면 호월로 132", "members_num": 50.0}}, {"type": "Feature", "geometry": {"type": "Point", "coordinates": [127.1225606, 36.5742664]}, "properties": {"name": "정안교회", "address": "(314824) 충남 공주시 정안면 구억말길18-6", "members_num": 30.0}}, {"type": "Feature", "geometry": {"type": "Point", "coordinates": [126.9297799, 36.2406627]}, "properties": {"name": "북고침례교회", "address": "(33185) 충남 부여군 북고로 389-15", "members_num": 30.0}}, {"type": "Feature", "geometry": {"type": "Point", "coordinates": [126.7294068, 36.355945]}, "properties": {"name": "외산중앙성결교회", "address": "(33100) 충남 부여군 외산면 만수로 895번길 46", "members_num": 15.0}}, {"type": "Feature", "geometry": {"type": "Point", "coordinates": [127.1290916, 36.1090607]}, "properties": {"name": "소양교회", "address": "(33016) 충남 논산시 연무읍 소룡길 48-24", "members_num": 40.0}}, {"type": "Feature", "geometry": {"type": "Point", "coordinates": [127.0981889, 36.233782]}, "properties": {"name": "연산교회", "address": "(32913) 충남 논산시 연산면 천동로 1길 13-6", "members_num": 33.0}}, {"type": "Feature", "geometry": {"type": "Point", "coordinates": [128.4072594, 36.9759117]}, "properties": {"name": "금곡순복음교회", "address": "(27024) 충북 단양군 단양읍 금곡2길 11-2", "members_num": 30.0}}, {"type": "Feature", "geometry": {"type": "Point", "coordinates": [127.1480887, 36.4909491]}, "properties": {"name": "산성교회", "address": "(32589) 충남 공주시 연수원길 120 2층", "members_num": 30.0}}, {"type": "Feature", "geometry": {"type": "Point", "coordinates": [127.1158526, 36.1210409]}, "properties": {"name": "구자곡교회", "address": "(33011) 충남 논산시 연무로 366번길 24-6", "members_num": 20.0}}, {"type": "Feature", "geometry": {"type": "Point", "coordinates": [127.6969148, 36.3955454]}, "properties": {"name": "오덕교회", "address": "(29008) 충북 옥천군 안내면 오덕1길 18", "members_num": 20.0}}, {"type": "Feature", "geometry": {"type": "Point", "coordinates": [127.791663, 36.9596968]}, "properties": {"name": "행복한교회", "address": "(27464) 충북 충주시 주덕읍 청미길 57", "members_num": 10.0}}, {"type": "Feature", "geometry": {"type": "Point", "coordinates": [127.928688, 36.9598369]}, "properties": {"name": "안디옥교회", "address": "(27415) 충북 충주시 신촌2길29.상가동 302호", "members_num": 20.0}}, {"type": "Feature", "geometry": {"type": "Point", "coordinates": [127.9249737, 36.9557737]}, "properties": {"name": "열매맺는교회", "address": "(27502) 충북 충주시 호암수청1로59", "members_num": 100.0}}, {"type": "Feature", "geometry": {"type": "Point", "coordinates": [127.8846942, 36.9857238]}, "properties": {"name": "창동감리교회", "address": "(27449) 충북 충주시 중앙탑면 갈마2길 13", "members_num": 25.0}}, {"type": "Feature", "geometry": {"type": "Point", "coordinates": [127.6940342, 37.0139511]}, "properties": {"name": "충주동락감리교회", "address": "(27455) 충북 충주시 신니면 신덕로 257-15 (27455) 충북 충주시 신니면 신덕로 257-15", "members_num": 50.0}}, {"type": "Feature", "geometry": {"type": "Point", "coordinates": [127.7831509, 36.9862173]}, "properties": {"name": "한빛교회", "address": "(302동403호) 충북 충주시 주덕읍 화개4길29", "members_num": 50.0}}, {"type": "Feature", "geometry": {"type": "Point", "coordinates": [127.8274806, 36.9890083]}, "properties": {"name": "신촌감리교회", "address": "(27466) 충북 충주시 대소원면 첨단산업2로41 104동405호", "members_num": 60.0}}, {"type": "Feature", "geometry": {"type": "Point", "coordinates": [127.9180557, 36.9834255]}, "properties": {"name": "샘물교회", "address": "(27359) 충북 충주시 금릉로46 부영1차@103동412호", "members_num": 0.0}}, {"type": "Feature", "geometry": {"type": "Point", "coordinates": [127.777298, 36.9737168]}, "properties": {"name": "성광교회", "address": "(27463) 충북 충주시 주덕읍 은버들 1길20", "members_num": 10.0}}, {"type": "Feature", "geometry": {"type": "Point", "coordinates": [127.9269689, 36.9809648]}, "properties": {"name": "꿈이있는교회", "address": "(27364) 충북 충주시 국원대로97-1", "members_num": 32.0}}, {"type": "Feature", "geometry": {"type": "Point", "coordinates": [126.7834451, 36.9410529]}, "properties": {"name": "송악권능교회", "address": "(31724) 충남 당진시 송악읍 신복운로 173", "members_num": 100.0}}, {"type": "Feature", "geometry": {"type": "Point", "coordinates": [127.124072, 36.893799]}, "properties": {"name": "김문호", "address": "(31030) 충남 천안시 서북구 직산읍 양당율금길 4-30 103-809 산호아파트", "members_num": 30.0}}, {"type": "Feature", "geometry": {"type": "Point", "coordinates": [127.0586275, 36.4594486]}, "properties": {"name": "옥성침례교회", "address": "(32532) 충남 공주시 우성면 서머리길 10", "members_num": 110.0}}, {"type": "Feature", "geometry": {"type": "Point", "coordinates": [126.6491281, 36.6868998]}, "properties": {"name": "충의감리교회", "address": "(32407) 충남 예산군 시량보부상로21", "members_num": 20.0}}, {"type": "Feature", "geometry": {"type": "Point", "coordinates": [126.5590301, 36.3357175]}, "properties": {"name": "남곡침례교회", "address": "(33491) 충남 보령시 남서 1길 74", "members_num": 12.0}}, {"type": "Feature", "geometry": {"type": "Point", "coordinates": [126.6669622, 36.5108863]}, "properties": {"name": "승전침례교회", "address": "(32298) 충남 홍성군 장곡면 장곡길 92번길96", "members_num": 20.0}}, {"type": "Feature", "geometry": {"type": "Point", "coordinates": [126.7130505, 36.68551739999999]}, "properties": {"name": "평촌감리교회", "address": "(32416) 충남 예산군 삽교읍 수평로 321-8", "members_num": 30.0}}, {"type": "Feature", "geometry": {"type": "Point", "coordinates": [126.6874712, 36.0150305]}, "properties": {"name": "장항늘푸른교회", "address": "(33666) 충남 서천군 장항읍 신창서로 72", "members_num": 40.0}}, {"type": "Feature", "geometry": {"type": "Point", "coordinates": [126.7226476, 36.7805628]}, "properties": {"name": "예덕감리교회", "address": "(32401) 충남 예산군 고덕면 예덕로 1005-10", "members_num": 40.0}}, {"type": "Feature", "geometry": {"type": "Point", "coordinates": [126.5608943, 36.5430033]}, "properties": {"name": "성곡교회", "address": "(32211) 충남 홍성군 결성면 구성남로256-6", "members_num": 20.0}}, {"type": "Feature", "geometry": {"type": "Point", "coordinates": [126.5812565, 36.9642322]}, "properties": {"name": "고산침례교회", "address": "(31791) 충남 당진시 고대면 고대로 431-25", "members_num": 30.0}}, {"type": "Feature", "geometry": {"type": "Point", "coordinates": [128.1893905, 37.0592473]}, "properties": {"name": "합동보수", "address": "(27210) 충북 제천시 신담길 232-9", "members_num": 55.0}}, {"type": "Feature", "geometry": {"type": "Point", "coordinates": [126.528669, 36.4809191]}, "properties": {"name": "천북제일침례교회", "address": "(33402) 충남 보령시 천북면 하궁길 28-10", "members_num": 100.0}}, {"type": "Feature", "geometry": {"type": "Point", "coordinates": [126.5693947, 36.3927353]}, "properties": {"name": "성광침례교회", "address": "(33415) 충남 보령시 주교면 울계3길20", "members_num": 40.0}}, {"type": "Feature", "geometry": {"type": "Point", "coordinates": [126.4812882, 36.7925218]}, "properties": {"name": "참사랑교회", "address": "(31966) 충남 서산시 잠홍1길15", "members_num": 30.0}}, {"type": "Feature", "geometry": {"type": "Point", "coordinates": [126.8317297, 36.6904962]}, "properties": {"name": "산성제일교회", "address": "(32430) 충남 예산군 예산읍 역전로126번길 17-4", "members_num": 30.0}}, {"type": "Feature", "geometry": {"type": "Point", "coordinates": [127.0590232, 36.9232463]}, "properties": {"name": "서광교회", "address": "(31409) 충남 아산시 둔포면 석곡리 1374 3층", "members_num": 50.0}}, {"type": "Feature", "geometry": {"type": "Point", "coordinates": [126.797385, 36.6877532]}, "properties": {"name": "오가교회", "address": "(32425) 충남 예산군 오가면 역말2길 60", "members_num": 150.0}}, {"type": "Feature", "geometry": {"type": "Point", "coordinates": [126.7952185, 36.667774]}, "properties": {"name": "신장교회", "address": "(32426) 충남 예산군 오가면 신장길 8", "members_num": 30.0}}, {"type": "Feature", "geometry": {"type": "Point", "coordinates": [127.1512346, 36.4133724]}, "properties": {"name": "기독교대한감리회", "address": "(24514) 충남 공주시 여사울2길 1번 열린문교회", "members_num": 30.0}}, {"type": "Feature", "geometry": {"type": "Point", "coordinates": [126.6753756, 36.2938304]}, "properties": {"name": "미산제일침례교회", "address": "(33512) 충남 보령시 미산면 도화담안길 4-4", "members_num": 60.0}}, {"type": "Feature", "geometry": {"type": "Point", "coordinates": [126.4981992, 36.4574042]}, "properties": {"name": "학성교회", "address": "(33401) 충남 보령시 천북면 학성염전길 4-2", "members_num": 40.0}}, {"type": "Feature", "geometry": {"type": "Point", "coordinates": [127.3922934, 36.3066751]}, "properties": {"name": "성원중앙침례교회", "address": "(35011) 대전 중구 선성로 31 이층", "members_num": 20.0}}, {"type": "Feature", "geometry": {"type": "Point", "coordinates": [126.6113283, 36.3513889]}, "properties": {"name": "선한이웃교회", "address": "(33436) 충남 보령시 원평3길12", "members_num": 12.0}}, {"type": "Feature", "geometry": {"type": "Point", "coordinates": [128.3319748, 37.1372406]}, "properties": {"name": "선암제일교회", "address": "(27015) 충북 단양군 석교1길 18", "members_num": 25.0}}, {"type": "Feature", "geometry": {"type": "Point", "coordinates": [127.4505675, 36.3460148]}, "properties": {"name": "한샘교회", "address": "(34507) 대전 동구 동대전로 256번길 75 506호", "members_num": 27.0}}, {"type": "Feature", "geometry": {"type": "Point", "coordinates": [127.3152746, 36.1612126]}, "properties": {"name": "도산교회", "address": "(33028) 충남 논산시 수락로5번길28-6", "members_num": 40.0}}, {"type": "Feature", "geometry": {"type": "Point", "coordinates": [127.1100914, 36.1684586]}, "properties": {"name": "은진교회", "address": "(33001) 충남 논산시 은진면 매죽헌로37번길 44", "members_num": 50.0}}, {"type": "Feature", "geometry": {"type": "Point", "coordinates": [127.2441038, 36.1203164]}, "properties": {"name": "양촌제일감리교회", "address": "(33024) 충남 논산시 양촌면 이메길 145-12", "members_num": 18.0}}, {"type": "Feature", "geometry": {"type": "Point", "coordinates": [127.3735827, 36.305469]}, "properties": {"name": "함동교회", "address": "(35404) 대전 서구 복수서로10 계룡상가 101호", "members_num": 50.0}}, {"type": "Feature", "geometry": {"type": "Point", "coordinates": [126.6369121, 36.8917928]}, "properties": {"name": "당진제자교회", "address": "(31772) 충남 당진시 무수동로162.2층", "members_num": 30.0}}, {"type": "Feature", "geometry": {"type": "Point", "coordinates": [127.1217205, 36.4490635]}, "properties": {"name": "공주목양교회", "address": "(32549) 충남 공주시 약령길 4-1", "members_num": 15.0}}, {"type": "Feature", "geometry": {"type": "Point", "coordinates": [127.1586646, 36.800159]}, "properties": {"name": "천안 비전감리교회", "address": "(31186) 충남 천안시 동남구 원거리 6길 18 2층", "members_num": 10.0}}, {"type": "Feature", "geometry": {"type": "Point", "coordinates": [127.2526672, 36.4798327]}, "properties": {"name": "세종한울교회", "address": "(30130) 세종 세종시 누리로 106 송원프라자 201호", "members_num": 100.0}}, {"type": "Feature", "geometry": {"type": "Point", "coordinates": [128.3968234, 36.8453341]}, "properties": {"name": "장정교회", "address": "(27029) 충북 단양군 대강면 장정길5 장정교회", "members_num": 25.0}}, {"type": "Feature", "geometry": {"type": "Point", "coordinates": [127.4565327, 36.5455627]}, "properties": {"name": "등동교회", "address": "(28207) 충북 청주시 상당구 문의면 등동1길 22 등동교회", "members_num": 14.0}}, {"type": "Feature", "geometry": {"type": "Point", "coordinates": [127.3848185, 36.43460220000001]}, "properties": {"name": "호산나교회", "address": "(34008) 대전 유성구 구즉로57번길 8-2", "members_num": 30.0}}, {"type": "Feature", "geometry": {"type": "Point", "coordinates": [127.5045181, 36.6129561]}, "properties": {"name": "생명의빛교회", "address": "(28773) 충북 청주시 상당구 중흥로71", "members_num": 30.0}}, {"type": "Feature", "geometry": {"type": "Point", "coordinates": [127.1096581, 36.8204217]}, "properties": {"name": "우리가교회", "address": "(31156) 충남 천안시 서북구 불당23로 73-27 216호", "members_num": 150.0}}, {"type": "Feature", "geometry": {"type": "Point", "coordinates": [127.5399481, 36.9088041]}, "properties": {"name": "한마음교회", "address": "(27738) 충북 음성군 맹동면 장성 1길 10 2층", "members_num": 20.0}}, {"type": "Feature", "geometry": {"type": "Point", "coordinates": [126.9543916, 36.7830648]}, "properties": {"name": "사귐의교회", "address": "(31533) 충남 아산시 신창면 행목로 218, 201호", "members_num": 10.0}}, {"type": "Feature", "geometry": {"type": "Point", "coordinates": [127.5534368, 36.3907527]}, "properties": {"name": "내적치유전원교회", "address": "(29002) 충북 옥천군 군북면 방아실길 248", "members_num": 15.0}}, {"type": "Feature", "geometry": {"type": "Point", "coordinates": [126.6574227, 36.6123192]}, "properties": {"name": "주대사침례교회", "address": "(32216) 충남 홍성군 소향길50번길47", "members_num": 20.0}}, {"type": "Feature", "geometry": {"type": "Point", "coordinates": [126.8254975, 36.6205343]}, "properties": {"name": "예산영광교회", "address": "(32449) 충남 예산군 대흥면 하탄방길 14", "members_num": 3.0}}, {"type": "Feature", "geometry": {"type": "Point", "coordinates": [127.2873883, 36.3615066]}, "properties": {"name": "새에덴교회", "address": "(34150) 대전 유성구 대전시유성구현충원로197", "members_num": 10.0}}, {"type": "Feature", "geometry": {"type": "Point", "coordinates": [126.7042832, 36.0557762]}, "properties": {"name": "행복한어리교회", "address": "(33654) 충남 서천군 마서면 어리길 198", "members_num": 0.0}}, {"type": "Feature", "geometry": {"type": "Point", "coordinates": [127.2497483, 36.511334]}, "properties": {"name": "세종기쁨의교회", "address": "(30100) 세종 세종시 보듬3로91 213호 세종기쁨의교회", "members_num": 20.0}}, {"type": "Feature", "geometry": {"type": "Point", "coordinates": [127.2485387, 36.4953092]}, "properties": {"name": "밀밭", "address": "(30124) 세종 세종시 다정중앙로 53", "members_num": 15.0}}, {"type": "Feature", "geometry": {"type": "Point", "coordinates": [126.9497146, 36.5520236]}, "properties": {"name": "유구성결교회", "address": "(32506) 충남 공주시 유구읍 중앙1길 83-9", "members_num": 100.0}}, {"type": "Feature", "geometry": {"type": "Point", "coordinates": [126.8083557, 36.8648388]}, "properties": {"name": "신당찬양교회", "address": "(31745) 충남 당진시 신평면 신당길130", "members_num": 2.0}}, {"type": "Feature", "geometry": {"type": "Point", "coordinates": [126.952554, 36.79185500000001]}, "properties": {"name": "아산큰길교회", "address": "(31530) 충남 아산시 서부북로933-30 104-414", "members_num": 8.0}}, {"type": "Feature", "geometry": {"type": "Point", "coordinates": [127.3663285, 36.3567409]}, "properties": {"name": "샛별교회", "address": "(35223) 대전 서구 월평중로 24번길 43", "members_num": 40.0}}, {"type": "Feature", "geometry": {"type": "Point", "coordinates": [127.239136, 36.57436620000001]}, "properties": {"name": "세종주님의교회", "address": "(30045) 세종 세종시 연서면 효교로 124", "members_num": 75.0}}, {"type": "Feature", "geometry": {"type": "Point", "coordinates": [127.2361091, 36.5191459]}, "properties": {"name": "와보라대흥교회", "address": "(30062) 세종 세종시 마음로 272-9", "members_num": 8.0}}, {"type": "Feature", "geometry": {"type": "Point", "coordinates": [127.3902369, 36.3040899]}, "properties": {"name": "주영광침례교회", "address": "(35055) 대전 중구 산성동 303-95 2층", "members_num": 30.0}}, {"type": "Feature", "geometry": {"type": "Point", "coordinates": [127.9171949, 36.2234435]}, "properties": {"name": "황간제일교회", "address": "(29115) 충북 영동군 황간면 민주지산로 4039", "members_num": 25.0}}, {"type": "Feature", "geometry": {"type": "Point", "coordinates": [127.9344314, 36.9851765]}, "properties": {"name": "충북제일교회", "address": "(33) 충북 충주시 동수 9길", "members_num": 120.0}}, {"type": "Feature", "geometry": {"type": "Point", "coordinates": [126.4464818, 36.8423035]}, "properties": {"name": "서산기쁨침례교회", "address": "(31920) 충남 서산시 지곡면 충의로 762-78 늘푸른오스카빌 111동101호", "members_num": 20.0}}, {"type": "Feature", "geometry": {"type": "Point", "coordinates": [126.8273307, 36.748977]}, "properties": {"name": "두곡제일성결교회", "address": "(32417) 충남 예산군 신암면 두곡3길 8", "members_num": 60.0}}, {"type": "Feature", "geometry": {"type": "Point", "coordinates": [126.746387, 36.3253939]}, "properties": {"name": "화성교회", "address": "(33101) 충남 부여군 신성길 105", "members_num": 30.0}}, {"type": "Feature", "geometry": {"type": "Point", "coordinates": [127.9860677, 36.84616949999999]}, "properties": {"name": "수안보감리교회", "address": "(27497) 충북 충주시", "members_num": 40.0}}, {"type": "Feature", "geometry": {"type": "Point", "coordinates": [127.3705598, 36.3243696]}, "properties": {"name": "예장통합", "address": "(35336) 대전 서구 배재로178 3층", "members_num": 30.0}}, {"type": "Feature", "geometry": {"type": "Point", "coordinates": [127.3011103, 36.4845533]}, "properties": {"name": "맑은물세종교회", "address": "(30150) 세종 세종시 소담1로 16, 지엘플렉스2 지하 101호", "members_num": 40.0}}, {"type": "Feature", "geometry": {"type": "Point", "coordinates": [127.3040906, 36.3837329]}, "properties": {"name": "호산나교회", "address": "(34017) 대전 유성구 지족로218-33", "members_num": 50.0}}, {"type": "Feature", "geometry": {"type": "Point", "coordinates": [127.3865057, 36.3034738]}, "properties": {"name": "양문교회", "address": "(35056) 대전 중구 대둔산로384 301호", "members_num": 32.0}}, {"type": "Feature", "geometry": {"type": "Point", "coordinates": [127.4505675, 36.3460148]}, "properties": {"name": "반석위에세운교회", "address": "(34507) 대전 동구 동대전로 256번길 75 동아상가2층", "members_num": 10.0}}, {"type": "Feature", "geometry": {"type": "Point", "coordinates": [127.4200696, 36.1100356]}, "properties": {"name": "금산주맘교회", "address": "(398-21 주맘교회) 충남 금산군 열두봉길", "members_num": 10.0}}, {"type": "Feature", "geometry": {"type": "Point", "coordinates": [127.418868, 36.3200608]}, "properties": {"name": "에벤에셀교회", "address": "(34947) 대전 중구 대전시 중구 대흥로 24번길 45-8", "members_num": 25.0}}, {"type": "Feature", "geometry": {"type": "Point", "coordinates": [127.4300842, 36.3621583]}, "properties": {"name": "고은빛교회", "address": "(34390) 대전 대덕구 중리동로40번길14-16", "members_num": 16.0}}, {"type": "Feature", "geometry": {"type": "Point", "coordinates": [127.393029, 36.3126968]}, "properties": {"name": "대전상당교회", "address": "(34982) 대전 중구 문화로71", "members_num": 20.0}}, {"type": "Feature", "geometry": {"type": "Point", "coordinates": [127.4023636, 36.3088414]}, "properties": {"name": "어울림교회", "address": "(35004) 대전 중구 천근로14", "members_num": 7.0}}, {"type": "Feature", "geometry": {"type": "Point", "coordinates": [127.1454044, 36.4757741]}, "properties": {"name": "공주중앙성결교회", "address": "(32578) 충남 공주시 신금1길 77", "members_num": 300.0}}, {"type": "Feature", "geometry": {"type": "Point", "coordinates": [127.4408337, 36.3060067]}, "properties": {"name": "빛교회", "address": "(35064) 대전 중구 돌다리로 41, 2층", "members_num": 13.0}}, {"type": "Feature", "geometry": {"type": "Point", "coordinates": [127.4160906, 36.335845]}, "properties": {"name": "명광교회", "address": "(34840) 대전 중구 동서대로1440번길5아르젠상가205호", "members_num": 30.0}}, {"type": "Feature", "geometry": {"type": "Point", "coordinates": [127.4323664, 36.3141256]}, "properties": {"name": "하예성교회", "address": "(35023) 대전 중구 보문로90-31", "members_num": 55.0}}, {"type": "Feature", "geometry": {"type": "Point", "coordinates": [127.3383656, 36.3496342]}, "properties": {"name": "주님의반석교회", "address": "(34180) 대전 유성구 유성대로 160-1 2층", "members_num": 4.0}}, {"type": "Feature", "geometry": {"type": "Point", "coordinates": [127.3191427, 36.3195466]}, "properties": {"name": "열린문교회", "address": "(34218) 대전 유성구 유성대로 250번길", "members_num": 30.0}}, {"type": "Feature", "geometry": {"type": "Point", "coordinates": [127.4358217, 36.3112553]}, "properties": {"name": "보문제일교회", "address": "(35048) 대전 중구 사득로 75번길 47", "members_num": 80.0}}, {"type": "Feature", "geometry": {"type": "Point", "coordinates": [127.4813946, 36.6686283]}, "properties": {"name": "성은교회", "address": "(28339) 충북 청주시 청원구 공항로 141번길 58 2층", "members_num": 40.0}}, {"type": "Feature", "geometry": {"type": "Point", "coordinates": [127.2346597, 36.5192791]}, "properties": {"name": "세종동행교회", "address": "(30062) 세종 세종시 마음로 264. 고운프라자 601호", "members_num": 30.0}}, {"type": "Feature", "geometry": {"type": "Point", "coordinates": [126.3507525, 36.490383]}, "properties": {"name": "성광감리교회", "address": "(32166) 충청남도 태안군 안면읍 뛰밭머리길 173-4 성광교회", "members_num": 30.0}}, {"type": "Feature", "geometry": {"type": "Point", "coordinates": [128.2013411, 37.117609]}, "properties": {"name": "강명교회", "address": "(27202) 충청북도 제천시 명지로2길 8", "members_num": 20.0}}, {"type": "Feature", "geometry": {"type": "Point", "coordinates": [126.202694, 36.6987744]}, "properties": {"name": "연포교회", "address": "(32130) 충청남도 태안군 근흥면 도황길185", "members_num": 45.0}}, {"type": "Feature", "geometry": {"type": "Point", "coordinates": [126.3050052, 36.7454712]}, "properties": {"name": "참아름다운교회", "address": "(32144) 충청남도 태안군 태안읍 정주내 3길 10-10.", "members_num": 120.0}}, {"type": "Feature", "geometry": {"type": "Point", "coordinates": [126.3484461, 36.4514154]}, "properties": {"name": "신야감리교회", "address": "(32169) 충청남도 태안군 안면읍 중신로 351-42", "members_num": 20.0}}, {"type": "Feature", "geometry": {"type": "Point", "coordinates": [126.2921002, 36.7554173]}, "properties": {"name": "태안중앙교회", "address": "(32142) 충청남도 태안군 태안읍 동백로 191-5", "members_num": 200.0}}, {"type": "Feature", "geometry": {"type": "Point", "coordinates": [128.2091251, 37.1391985]}, "properties": {"name": "희망의감리교회", "address": "(27169) 충청북도 제천시 숭문로 100", "members_num": 20.0}}, {"type": "Feature", "geometry": {"type": "Point", "coordinates": [126.1364225, 36.7361408]}, "properties": {"name": "파도교회", "address": "(32124) 충청남도 태안군 소원면 파도길 20-30", "members_num": 100.0}}, {"type": "Feature", "geometry": {"type": "Point", "coordinates": [127.3931544, 36.3437294]}, "properties": {"name": "현암교회", "address": "(302-857`) 대전광역시 서구 도솔로 442", "members_num": 200.0}}, {"type": "Feature", "geometry": {"type": "Point", "coordinates": [127.4316562, 36.3638752]}, "properties": {"name": "대전안디옥교회", "address": "(34411) 대전광역시 대덕구 계족로586번길 12", "members_num": 35.0}}, {"type": "Feature", "geometry": {"type": "Point", "coordinates": [127.2516303, 36.2734723]}, "properties": {"name": "대한예수교복음교회", "address": "(32826) 충남 계룡시 장안로 43(대승B/D 407호", "members_num": 12.0}}, {"type": "Feature", "geometry": {"type": "Point", "coordinates": [127.4242336, 36.4422255]}, "properties": {"name": "명문교회", "address": "(34333) 대전 대덕구 덕암북로72번길 45 명문교회", "members_num": 12.0}}, {"type": "Feature", "geometry": {"type": "Point", "coordinates": [127.3490497, 36.4002135]}, "properties": {"name": "국군믿음교회", "address": "(34059) 대전광역시 유성구 자운로 90 국군믿음교회", "members_num": 70.0}}, {"type": "Feature", "geometry": {"type": "Point", "coordinates": [126.6008771, 36.3507627]}, "properties": {"name": "동승교회", "address": "(33429) 충청남도 보령시 226", "members_num": 35.0}}, {"type": "Feature", "geometry": {"type": "Point", "coordinates": [127.3577649, 36.3548739]}, "properties": {"name": "홀리파이어교회", "address": "(35225) 충청남도 대전시 서구 월평서로", "members_num": 5.0}}, {"type": "Feature", "geometry": {"type": "Point", "coordinates": [127.5129892, 36.2548486]}, "properties": {"name": "군서제일교회", "address": "(29060) 충청북도 옥천군 군서면 상지1길 22-6", "members_num": 30.0}}, {"type": "Feature", "geometry": {"type": "Point", "coordinates": [127.4155312, 36.3574367]}, "properties": {"name": "한그루교회", "address": "(34436) 대전광역시 대덕구 대전로1158 2층 203호", "members_num": 88.0}}, {"type": "Feature", "geometry": {"type": "Point", "coordinates": [127.3555025, 36.8063477]}, "properties": {"name": "행암교회", "address": "(31258) 충남 천안시 동남구동면동산행암길331-4", "members_num": 100.0}}, {"type": "Feature", "geometry": {"type": "Point", "coordinates": [127.3585209, 36.3632212]}, "properties": {"name": "한국마라나타교회", "address": "(34155) 대전광역시 유성구 어은로48번길 28번지 2층", "members_num": 5.0}}, {"type": "Feature", "geometry": {"type": "Point", "coordinates": [127.3833363, 36.3319333]}, "properties": {"name": "주님의교회", "address": "(35314) 대전광역시 서구 내동 9번지 맑은아침아파트 A상가 3층", "members_num": 50.0}}, {"type": "Feature", "geometry": {"type": "Point", "coordinates": [126.9137468, 36.2805824]}, "properties": {"name": "한사랑교회", "address": "(33149) 충남 부여군 의열로 9", "members_num": 150.0}}, {"type": "Feature", "geometry": {"type": "Point", "coordinates": [127.0451789, 36.481753]}, "properties": {"name": "내주성결교회", "address": "(32522) 충청남도 공주시 통천포길 257(사곡면)", "members_num": 8.0}}, {"type": "Feature", "geometry": {"type": "Point", "coordinates": [127.5123989, 36.61944510000001]}, "properties": {"name": "청주소풍교회", "address": "(충청북도) 청주시 상당구 용암북로120번길 31-1", "members_num": 150.0}}, {"type": "Feature", "geometry": {"type": "Point", "coordinates": [128.1943072, 37.1708071]}, "properties": {"name": "아름다움동행교회/독립", "address": "(27135) 충북 제천시 대학로 253 아름다운동행교회", "members_num": 25.0}}, {"type": "Feature", "geometry": {"type": "Point", "coordinates": [127.9155103, 37.0088549]}, "properties": {"name": "하늘꿈동산교회", "address": "(27435) 충청북도 충주시 충원대로930, 3층", "members_num": 25.0}}, {"type": "Feature", "geometry": {"type": "Point", "coordinates": [127.4239414, 36.3650348]}, "properties": {"name": "대덕중앙교회", "address": "(34388) 대전 대덕구 중리서로64-1", "members_num": 30.0}}, {"type": "Feature", "geometry": {"type": "Point", "coordinates": [127.3332207, 36.2960301]}, "properties": {"name": "메아리침례교회", "address": "(35376) 충청남도 서구 구봉로 92", "members_num": 200.0}}, {"type": "Feature", "geometry": {"type": "Point", "coordinates": [126.9978267, 36.7756244]}, "properties": {"name": "양문교회", "address": "(한국) 충청남도 아산시 온중로 54번길 3", "members_num": 120.0}}, {"type": "Feature", "geometry": {"type": "Point", "coordinates": [126.4395894, 36.8133381]}, "properties": {"name": "햇빛교회", "address": "(31933) 충청남도 서산시 성연면 일호리1길 21-20", "members_num": 120.0}}, {"type": "Feature", "geometry": {"type": "Point", "coordinates": [127.1446672, 36.4731021]}, "properties": {"name": "벧엘교회", "address": "(충남 공주시 신관동) 충남공주시 신금2길48 406~1403호", "members_num": 0.0}}, {"type": "Feature", "geometry": {"type": "Point", "coordinates": [127.352489, 36.29970429999999]}, "properties": {"name": "새소망순복음교회", "address": "(35390) 대전광역시 서구 가수원로 51 새소망순복음교회", "members_num": 40.0}}, {"type": "Feature", "geometry": {"type": "Point", "coordinates": [127.1321505, 36.9162557]}, "properties": {"name": "순복음회복하는교회", "address": "(31016) 충남 천안시 서북구 성환 11길 40. 2층", "members_num": 12.0}}, {"type": "Feature", "geometry": {"type": "Point", "coordinates": [127.3551635, 36.2994163]}, "properties": {"name": "주만따라가는교회", "address": "(35389) 대전시 서구 벌곡로 1321-10 대전시 2층", "members_num": 10.0}}, {"type": "Feature", "geometry": {"type": "Point", "coordinates": [127.1511919, 36.8794961]}, "properties": {"name": "새봄교회", "address": "(31037) 충남 천안시 서북구직산읍삼은5길11,메인빌딩4층401호새봄교회", "members_num": 200.0}}, {"type": "Feature", "geometry": {"type": "Point", "coordinates": [127.3244714, 36.4944926]}, "properties": {"name": "세종하나교회", "address": "(30141) 세종특별자치시 집현서2로 8", "members_num": 80.0}}, {"type": "Feature", "geometry": {"type": "Point", "coordinates": [127.1525605, 36.9661547]}, "properties": {"name": "예수사랑교회", "address": "(3114) 충청남도 천안시 서북구 성환읍 대령길 5-2", "members_num": 30.0}}, {"type": "Feature", "geometry": {"type": "Point", "coordinates": [127.4253157, 36.3414221]}, "properties": {"name": "산돌교회", "address": "(34568) 대저광역시 대전광역시 동구 대전로 938ㅡ1 3층(삼성동)", "members_num": 2.0}}, {"type": "Feature", "geometry": {"type": "Point", "coordinates": [127.1556676, 36.8166015]}, "properties": {"name": "천안성문교회", "address": "(31123) 충청남도 천안시 먹거리7길6 성문교회", "members_num": 200.0}}, {"type": "Feature", "geometry": {"type": "Point", "coordinates": [126.6466903, 36.887232]}, "properties": {"name": "세움교회", "address": "(31774) 충청남도 충청남도 충남 당진시 시청2로 49-19 롯데시네마 타워 615호", "members_num": 20.0}}, {"type": "Feature", "geometry": {"type": "Point", "coordinates": [127.5329446, 36.1434408]}, "properties": {"name": "구상교회", "address": "(32719) 충남 금산군 제원면 구상1길 7-1", "members_num": 13.0}}, {"type": "Feature", "geometry": {"type": "Point", "coordinates": [127.4333766, 36.3408971]}, "properties": {"name": "동대전감리교회", "address": "(150-212) 대전광역시 동구 우암로 147번길 23", "members_num": 150.0}}, {"type": "Feature", "geometry": {"type": "Point", "coordinates": [126.6726754, 36.1997966]}, "properties": {"name": "오동교회", "address": "(33514) 충청남도 보령시 미산면 대농2길 113", "members_num": 50.0}}, {"type": "Feature", "geometry": {"type": "Point", "coordinates": [127.426426, 36.4464354]}, "properties": {"name": "대전하늘빛교회", "address": "(34319) 대전광역시 대덕구 석봉로 38번길 13", "members_num": 40.0}}, {"type": "Feature", "geometry": {"type": "Point", "coordinates": [127.380859, 36.2989197]}, "properties": {"name": "예향교회", "address": "(35415) 대전광역시 서구 복수남로12번길 36", "members_num": 20.0}}, {"type": "Feature", "geometry": {"type": "Point", "coordinates": [126.6166808, 36.2504707]}, "properties": {"name": "성동교회", "address": "(33503) 충청남도 보령시 웅천읍 성동큰길 242-7 (성동리, 성동교회)", "members_num": 60.0}}, {"type": "Feature", "geometry": {"type": "Point", "coordinates": [127.8660941, 36.7848996]}, "properties": {"name": "칠성영광교회", "address": "(28019) 충청북도 괴산군 칠성면 칠성로3길31", "members_num": 30.0}}, {"type": "Feature", "geometry": {"type": "Point", "coordinates": [127.3752671, 36.32618009999999]}, "properties": {"name": "새삶교회", "address": "(35323) 대전 서구 도솔로192", "members_num": 20.0}}, {"type": "Feature", "geometry": {"type": "Point", "coordinates": [127.3718355, 36.3169059]}, "properties": {"name": "함께가는교회", "address": "(35338) 대전광역시 서구 도솔4길,24", "members_num": 5.0}}, {"type": "Feature", "geometry": {"type": "Point", "coordinates": [127.5582383, 36.9261813]}, "properties": {"name": "하늘생명교회", "address": "(27733) 충북 음성군 맹동면 대동로19 2층", "members_num": 60.0}}, {"type": "Feature", "geometry": {"type": "Point", "coordinates": [126.8759082, 36.2177712]}, "properties": {"name": "점리장로교회", "address": "(충남 부여군 임천면 충절로1535번길) 점리장로교회", "members_num": 33218.0}}, {"type": "Feature", "geometry": {"type": "Point", "coordinates": [127.3132255, 36.5986466]}, "properties": {"name": "새중앙교회", "address": "(28169) 충청북도 청주시 흥덕구 오송읍 정중연제로24-12", "members_num": 50.0}}, {"type": "Feature", "geometry": {"type": "Point", "coordinates": [127.2312008, 36.5081045]}, "properties": {"name": "세종다사랑교회", "address": "(30063) 충남 세종특별자치시 고운서1길 4. 소연빌딩 2층", "members_num": 7.0}}, {"type": "Feature", "geometry": {"type": "Point", "coordinates": [127.3824813, 36.3382824]}, "properties": {"name": "보배로운교회", "address": "(35292) 대전광역시 서구 괴정로94", "members_num": 13.0}}, {"type": "Feature", "geometry": {"type": "Point", "coordinates": [126.91481, 36.1588139]}, "properties": {"name": "와종교회", "address": "(33224) 충남 부여군 부흥로 237-4 와종교회", "members_num": 30.0}}, {"type": "Feature", "geometry": {"type": "Point", "coordinates": [127.1733575, 36.62462360000001]}, "properties": {"name": "시월애 선교회", "address": "(30007) 세종 세종시 전의면 윗다락골길 32-5", "members_num": 25.0}}, {"type": "Feature", "geometry": {"type": "Point", "coordinates": [127.0726869, 36.2605859]}, "properties": {"name": "대한예수교장로회", "address": "(32919) 충청남도 논산시 광석면 오강2길 18", "members_num": 20.0}}, {"type": "Feature", "geometry": {"type": "Point", "coordinates": [126.7711833, 36.808113]}, "properties": {"name": "기독교대한감리회", "address": "(31812) 충남 당진시 합덕읍 문화길 17", "members_num": 150.0}}, {"type": "Feature", "geometry": {"type": "Point", "coordinates": [127.0192251, 36.2311556]}, "properties": {"name": "비당교회", "address": "(33178) 충청남도 부여군 석성면 비당로265번길 16", "members_num": 30.0}}, {"type": "Feature", "geometry": {"type": "Point", "coordinates": [127.056566, 36.2053546]}, "properties": {"name": "원봉", "address": "(32926) 충청남도 논산시 성동면 원봉길 76", "members_num": 40.0}}, {"type": "Feature", "geometry": {"type": "Point", "coordinates": [127.0891034, 36.2592079]}, "properties": {"name": "산성감리교회", "address": "(32919) 충청남도 논산시 광석면 사월길 149-18", "members_num": 30.0}}, {"type": "Feature", "geometry": {"type": "Point", "coordinates": [127.0862104, 36.1869167]}, "properties": {"name": "강산좋은교회", "address": "(32959) 충청남도 논산시 구르뫼 1길 30-14 강산좋은교회", "members_num": 20.0}}, {"type": "Feature", "geometry": {"type": "Point", "coordinates": [127.4541152, 36.3164828]}, "properties": {"name": "창성교회", "address": "(34673) 대전광역시 동구 옥천로 134-21", "members_num": 100.0}}, {"type": "Feature", "geometry": {"type": "Point", "coordinates": [126.637828, 36.8885507]}, "properties": {"name": "하늘제자교회", "address": "(31774) 충청남도 당진시 무수동1길12", "members_num": 100.0}}, {"type": "Feature", "geometry": {"type": "Point", "coordinates": [127.6799843, 36.2343559]}, "properties": {"name": "백지리교", "address": "(29062) 충청북도 옥천군 이원면 백지1길 5", "members_num": 20.0}}, {"type": "Feature", "geometry": {"type": "Point", "coordinates": [127.2524441, 36.4845698]}, "properties": {"name": "세종센터교회", "address": "(30127) 세종 세종시 새롬중앙로 34, 크리스마스빌딩 304호", "members_num": 80.0}}, {"type": "Feature", "geometry": {"type": "Point", "coordinates": [126.8887143, 36.1772012]}, "properties": {"name": "임천제일침례교회", "address": "(33221) 충남 부여군 임천면만가로122번길50-8,임천제일침례교회", "members_num": 40.0}}, {"type": "Feature", "geometry": {"type": "Point", "coordinates": [127.4669964, 36.1906157]}, "properties": {"name": "예닮교회", "address": "(32714) 충청남도 금산군 추부면 마전1길38", "members_num": 20.0}}, {"type": "Feature", "geometry": {"type": "Point", "coordinates": [127.9266943, 36.9720594]}, "properties": {"name": "충주은성교회", "address": "(충청북도) 충주시 사직산21길 22 2층 충주은성교회", "members_num": 20.0}}, {"type": "Feature", "geometry": {"type": "Point", "coordinates": [127.889719, 36.0820564]}, "properties": {"name": "물한계곡교회", "address": "(29126) 충청북도 영동군 상촌면 물한계곡로 1061", "members_num": 18.0}}, {"type": "Feature", "geometry": {"type": "Point", "coordinates": [127.2877378, 36.62978409999999]}, "properties": {"name": "세종주원교회", "address": "(30016) 세종특별자치시 조치원읍 안터길109,세종주원교회", "members_num": 30.0}}, {"type": "Feature", "geometry": {"type": "Point", "coordinates": [127.4609952, 36.2974922]}, "properties": {"name": "기독교한국침례회", "address": "(대전광역시) 동구 대성동 33ㅡ1 영락침례교회", "members_num": 150.0}}, {"type": "Feature", "geometry": {"type": "Point", "coordinates": [127.152733, 36.8130741]}, "properties": {"name": "하늘사랑", "address": "(33211) 충청남도 천안시 동남구중앙로163", "members_num": 30.0}}, {"type": "Feature", "geometry": {"type": "Point", "coordinates": [127.375674, 36.3208397]}, "properties": {"name": "성지교회", "address": "(35333) 대전 서구 도산로131-1", "members_num": 50.0}}, {"type": "Feature", "geometry": {"type": "Point", "coordinates": [126.8562845, 36.1298976]}, "properties": {"name": "양화침례교회", "address": "(33215) 충청남도 부여군 양화면 충절로239번길27", "members_num": 15.0}}, {"type": "Feature", "geometry": {"type": "Point", "coordinates": [127.319573, 36.3790235]}, "properties": {"name": "동행교회", "address": "(34079) 대전 유성구 노은동로 219 열매마을3단지 306동 1102호", "members_num": 12.0}}, {"type": "Feature", "geometry": {"type": "Point", "coordinates": [127.1842847, 36.9096212]}, "properties": {"name": "주의말씀교회", "address": "(31033) 충남 천안시 서북구 직산읍 느르머리길135", "members_num": 25.0}}, {"type": "Feature", "geometry": {"type": "Point", "coordinates": [127.4475762, 36.6096482]}, "properties": {"name": "청주성화교회", "address": "(28618) 충청북도 청주시 서원구 성화동989. 101호", "members_num": 15.0}}, {"type": "Feature", "geometry": {"type": "Point", "coordinates": [127.1284889, 36.7885105]}, "properties": {"name": "천안광염교회", "address": "(31176) 충청남도 천안시 동남구 수곡로 81, 4층", "members_num": 60.0}}, {"type": "Feature", "geometry": {"type": "Point", "coordinates": [127.0576293, 36.775683]}, "properties": {"name": "높고영광스러운교회", "address": "(31482) 충청남도 아산시 배방읍 배방로13번길 28-1 엘림타워 3층", "members_num": 23.0}}, {"type": "Feature", "geometry": {"type": "Point", "coordinates": [127.7917143, 36.9109138]}, "properties": {"name": "문광순복음교회", "address": "(27710) 충청북도 음성군 소이면 문등로163번길 18ㅡ27", "members_num": 23.0}}, {"type": "Feature", "geometry": {"type": "Point", "coordinates": [127.4360148, 36.3401918]}, "properties": {"name": "성남감리교회", "address": "(34592) 대전광역시 동구 계족로 311 성남교회", "members_num": 150.0}}, {"type": "Feature", "geometry": {"type": "Point", "coordinates": [127.4125481, 36.3517507]}, "properties": {"name": "깊은샘교회", "address": "(34439) 대전광역시 대전광역시 대덕구 오정로 42번길 15-5", "members_num": 50.0}}, {"type": "Feature", "geometry": {"type": "Point", "coordinates": [127.3778522, 36.3426506]}, "properties": {"name": "두란노감리교회", "address": "(35266) 대전광역시 서구 대덕대로 112번길 56", "members_num": 50.0}}, {"type": "Feature", "geometry": {"type": "Point", "coordinates": [126.7231252, 36.0803976]}, "properties": {"name": "두왕성결교회", "address": "(33632) 충청남도 서천군 서천읍 두왕길 28", "members_num": 40.0}}, {"type": "Feature", "geometry": {"type": "Point", "coordinates": [127.4120748, 36.4467799]}, "properties": {"name": "평화누리교회", "address": "(34323) 대전광역시 대덕구 대덕대로 1470번길 52, 2층", "members_num": 30.0}}, {"type": "Feature", "geometry": {"type": "Point", "coordinates": [127.3874005, 36.3486821]}, "properties": {"name": "수정성결교회", "address": "(대한민국) 대전시 대덕구 667ㅡ21", "members_num": 14.0}}, {"type": "Feature", "geometry": {"type": "Point", "coordinates": [127.8218852, 36.8863845]}, "properties": {"name": "앵천교회", "address": "(28002) 충북 괴산군 불정면 한불로 1258-5", "members_num": 7.0}}, {"type": "Feature", "geometry": {"type": "Point", "coordinates": [127.5038247, 36.0088257]}, "properties": {"name": "신동밀알교회", "address": "(충남 금산군 남일면 신동길78) 충청남도 금산군 남일면 신동길78 1층", "members_num": 30.0}}, {"type": "Feature", "geometry": {"type": "Point", "coordinates": [127.4529789, 36.3328796]}, "properties": {"name": "주향한교회", "address": "(대전시) 동구 용운동 724", "members_num": 15.0}}, {"type": "Feature", "geometry": {"type": "Point", "coordinates": [127.4153234, 36.1361079]}, "properties": {"name": "엄정교회", "address": "(32706) 충청남도 금산군 진산면 하엄정길21", "members_num": 30.0}}, {"type": "Feature", "geometry": {"type": "Point", "coordinates": [127.0286421, 36.1976862]}, "properties": {"name": "성동소망교회", "address": "(32927) 충청남도 논산시 성동면 성동로200번길6-12 성동소망교회", "members_num": 45.0}}, {"type": "Feature", "geometry": {"type": "Point", "coordinates": [127.433864, 36.1732387]}, "properties": {"name": "시온교회", "address": "(32702) 충청남도 금산군 복수면 다복로 394", "members_num": 50.0}}, {"type": "Feature", "geometry": {"type": "Point", "coordinates": [126.8585364, 36.1663205]}, "properties": {"name": "가신침례교회", "address": "(33222) 충남 부여군 임천면 팔충로 1225-4", "members_num": 6.0}}, {"type": "Feature", "geometry": {"type": "Point", "coordinates": [127.3915026, 36.171271]}, "properties": {"name": "수영교회", "address": "(32701) 충청남도 금산군 복수면 수영길 34-4", "members_num": 100.0}}, {"type": "Feature", "geometry": {"type": "Point", "coordinates": [127.5593625, 36.1619043]}, "properties": {"name": "길곡교회", "address": "(32719) 충청남도 금산군 제원면 신안사로 546", "members_num": 14.0}}, {"type": "Feature", "geometry": {"type": "Point", "coordinates": [127.5530264, 36.124429]}, "properties": {"name": "대산교회", "address": "(32720) 충청남도 금산군 대산길 115", "members_num": 20.0}}, {"type": "Feature", "geometry": {"type": "Point", "coordinates": [127.3176263, 36.3043895]}, "properties": {"name": "진원교회", "address": "(34225) 대전광역시 유성구 진잠로149번길17, 연빌딩 3층", "members_num": 10.0}}, {"type": "Feature", "geometry": {"type": "Point", "coordinates": [127.0912075, 36.6211559]}, "properties": {"name": "밝은빛금란교회", "address": "(32510) 충청남도 공주시 정안면 월산송정길 9 밝은빛금란교회", "members_num": 22.0}}, {"type": "Feature", "geometry": {"type": "Point", "coordinates": [127.4263402, 36.5329932]}, "properties": {"name": "나무교회", "address": "(28805) 충청북도 충북 청주시 서원구 353번길 111-1", "members_num": 30.0}}, {"type": "Feature", "geometry": {"type": "Point", "coordinates": [127.4856085, 36.1125629]}, "properties": {"name": "하늘성교회", "address": "(32727) 충청남도 금산군 급산읍 비호산로 54", "members_num": 100.0}}, {"type": "Feature", "geometry": {"type": "Point", "coordinates": [127.1376572, 36.9223275]}, "properties": {"name": "동산의샘교회", "address": "(충청남도) 충청남도 성북구 성월3길 33", "members_num": 15.0}}, {"type": "Feature", "geometry": {"type": "Point", "coordinates": [127.5314625, 36.1588489]}, "properties": {"name": "천을리전원교회", "address": "(32718) 충청남도 금산군 군북면 천을1길 26", "members_num": 100.0}}, {"type": "Feature", "geometry": {"type": "Point", "coordinates": [127.4972095, 36.1293484]}, "properties": {"name": "은총감리교회", "address": "(32721) 충남 금산군 군북면 새말길10-10 은총감리교회", "members_num": 20.0}}, {"type": "Feature", "geometry": {"type": "Point", "coordinates": [127.2480926, 36.5134326]}, "properties": {"name": "세종교회", "address": "(30100) 세종특별시 세종시 아름동 1328", "members_num": 50.0}}, {"type": "Feature", "geometry": {"type": "Point", "coordinates": [127.0689203, 36.1694617]}, "properties": {"name": "채운제일교회", "address": "(32945) 충남 논산시 채운면 탑정로 40번길 43 채운제일교회", "members_num": 50.0}}, {"type": "Feature", "geometry": {"type": "Point", "coordinates": [127.0665583, 36.2123172]}, "properties": {"name": "성산교회", "address": "(32926) 충청남도 논산시 논산평야로 418번길 19-7", "members_num": 50.0}}, {"type": "Feature", "geometry": {"type": "Point", "coordinates": [127.0679723, 36.1429701]}, "properties": {"name": "화정교회", "address": "(32946) 충남 논산시 채운면 화정길 87", "members_num": 70.0}}, {"type": "Feature", "geometry": {"type": "Point", "coordinates": [127.0779941, 36.1728944]}, "properties": {"name": "기독교대한감리회", "address": "(35996) 충청남도 논산시 은진면탑정로101-14", "members_num": 40.0}}, {"type": "Feature", "geometry": {"type": "Point", "coordinates": [127.0199604, 36.1488466]}, "properties": {"name": "채양교회", "address": "(32941) 충청남도 논산시 강경읍 잣디4길 25-1", "members_num": 50.0}}, {"type": "Feature", "geometry": {"type": "Point", "coordinates": [127.0224275, 36.1403461]}, "properties": {"name": "채운동교회", "address": "(32943) 충남 논산시 강경읍 골뜸길37", "members_num": 100.0}}, {"type": "Feature", "geometry": {"type": "Point", "coordinates": [126.8623296, 36.2290627]}, "properties": {"name": "상곡교회", "address": "(33182) 충청남도 부여군 장암면 합곡로35", "members_num": 40.0}}, {"type": "Feature", "geometry": {"type": "Point", "coordinates": [127.3871806, 36.4328675]}, "properties": {"name": "토기장이교회", "address": "(34009) 대전시 유성구 구즉로52번길 40", "members_num": 35.0}}, {"type": "Feature", "geometry": {"type": "Point", "coordinates": [127.3165268, 36.3011545]}, "properties": {"name": "물댄동산교회", "address": "(34228) 충청남도 대전광역시 유성구 진장로92번길 62", "members_num": 70.0}}, {"type": "Feature", "geometry": {"type": "Point", "coordinates": [127.3239738, 36.3868499]}, "properties": {"name": "기쁜우리교회", "address": "(34098) 대전시 유성구 송림로56. 4층(하나빌딩)", "members_num": 50.0}}, {"type": "Feature", "geometry": {"type": "Point", "coordinates": [127.3225335, 36.3146732]}, "properties": {"name": "제자교회", "address": "(34219) 대전광역시 유성구 대정로42번길 68-3 3층", "members_num": 11.0}}, {"type": "Feature", "geometry": {"type": "Point", "coordinates": [127.3919081, 36.3403009]}, "properties": {"name": "새예루살렘교회", "address": "(35264) 대전광역시 서구 도산로393번길47", "members_num": 50.0}}, {"type": "Feature", "geometry": {"type": "Point", "coordinates": [127.3411374, 36.2993352]}, "properties": {"name": "우리들교회", "address": "(35379) 대전시 서구 관저로 171 5층", "members_num": 50.0}}, {"type": "Feature", "geometry": {"type": "Point", "coordinates": [127.1786089, 36.234744]}, "properties": {"name": "장전중앙교회", "address": "(32912) 충남 논산시 연산면 연산사계8길 19-8", "members_num": 30.0}}, {"type": "Feature", "geometry": {"type": "Point", "coordinates": [127.4040134, 36.3989745]}, "properties": {"name": "임마누엘교회", "address": "(34182) 대전시유성구월드컵대로253번안길34나동503 대전시유성구전민로10번길58임마누엘교회", "members_num": 20.0}}, {"type": "Feature", "geometry": {"type": "Point", "coordinates": [127.3645967, 36.3000244]}, "properties": {"name": "함께하는교회", "address": "(35398) 대전시 서구 정림서로134-9", "members_num": 60.0}}, {"type": "Feature", "geometry": {"type": "Point", "coordinates": [126.2468542, 36.7729388]}, "properties": {"name": "시목교회", "address": "(32118) 충청남도 태안군 소원면 시목길 331-23", "members_num": 83.0}}, {"type": "Feature", "geometry": {"type": "Point", "coordinates": [127.3344248, 36.3008101]}, "properties": {"name": "영인감리교회", "address": "(35372) 대전광역시 서구 관저중로 95번길 105. 302호 영인교회", "members_num": 20.0}}, {"type": "Feature", "geometry": {"type": "Point", "coordinates": [127.3745096, 36.3524203]}, "properties": {"name": "둔산예원교회", "address": "(35230) 충청남도 대전광역시 거구 둔산로4 신둔산빌딩 3층", "members_num": 12.0}}, {"type": "Feature", "geometry": {"type": "Point", "coordinates": [127.3539472, 36.3004967]}, "properties": {"name": "사랑의둥지교회/감리교단", "address": "(35389) 대전광역시 서구 계백로 1158번길 100/1층", "members_num": 14.0}}, {"type": "Feature", "geometry": {"type": "Point", "coordinates": [127.3513033, 36.3061774]}, "properties": {"name": "아름다운교회", "address": "(35386) 대전시 서구 도안동로11번길 28 2층 아름다운교회", "members_num": 30.0}}, {"type": "Feature", "geometry": {"type": "Point", "coordinates": [127.9418825, 36.9644158]}, "properties": {"name": "충주남부감리교회", "address": "(27398) 충청북도 충주시 금봉4길 30", "members_num": 1000.0}}, {"type": "Feature", "geometry": {"type": "Point", "coordinates": [127.2450779, 36.9152265]}, "properties": {"name": "한은교회", "address": "(31061) 충청남도 천안시 서북구 입장면 도림길 10 한성아파트단지상가303", "members_num": 40.0}}, {"type": "Feature", "geometry": {"type": "Point", "coordinates": [127.7782208, 36.1875489]}, "properties": {"name": "영동한빛교회", "address": "(29134) 충청북도 영동군 영동읍 눈어치2로 31-9", "members_num": 80.0}}, {"type": "Feature", "geometry": {"type": "Point", "coordinates": [127.3213575, 36.3745979]}, "properties": {"name": "예안순복음교회", "address": "(34085) 대전광역시 유성구 은구비서로 24번길 51, 102호", "members_num": 30.0}}, {"type": "Feature", "geometry": {"type": "Point", "coordinates": [127.6960663, 36.8736958]}, "properties": {"name": "옥현교회", "address": "(28040) 충북 괴산군 소수면옥현길49,옥현교회", "members_num": 100.0}}, {"type": "Feature", "geometry": {"type": "Point", "coordinates": [127.4117276, 36.336194]}, "properties": {"name": "대전이룸교회", "address": "(34814) 목중로20번길7,이룸교회(중촌동) 대전 중구 목중로20번길 7 이룸교회", "members_num": 80.0}}, {"type": "Feature", "geometry": {"type": "Point", "coordinates": [127.2485182, 36.5119329]}, "properties": {"name": "세종중앙교회", "address": "(30100) 세종특별자치시 보듬3로 100,해피라움1동703호(아름동)", "members_num": 200.0}}, {"type": "Feature", "geometry": {"type": "Point", "coordinates": [127.4491143, 36.7443556]}, "properties": {"name": "성화교회", "address": "(28108) 충청북도 청주시 청원구 오창읍 복현4길30", "members_num": 77.0}}, {"type": "Feature", "geometry": {"type": "Point", "coordinates": [127.4590362, 36.6391928]}, "properties": {"name": "풍성한교회", "address": "(28574) 충북 청주시 흥덕구1순환로608번길12,풍성한교회(봉명동,신성스카이텔)", "members_num": 30.0}}, {"type": "Feature", "geometry": {"type": "Point", "coordinates": [127.3768281, 36.3584778]}, "properties": {"name": "좋은나무교회", "address": "(35220) 대전광역시 서구 청사서로 8 5층 좋은나무교회", "members_num": 50.0}}, {"type": "Feature", "geometry": {"type": "Point", "coordinates": [127.5377387, 36.7140608]}, "properties": {"name": "엘림교회", "address": "(28150) 충북 청주시 청원구내수읍도원세교로16-3,도원빌딩2층로비바닥", "members_num": 200.0}}, {"type": "Feature", "geometry": {"type": "Point", "coordinates": [127.4740727, 36.6630153]}, "properties": {"name": "복된교회", "address": "(28346) 충청북도 청주시 청원구 율봉로 30번길 6-2", "members_num": 10.0}}, {"type": "Feature", "geometry": {"type": "Point", "coordinates": [127.2620096, 36.513571]}, "properties": {"name": "세종열방", "address": "(30098) 세종 세종시 세종특별자치시 도담동 651 도램마을 12단지, 1204동 501호", "members_num": 200.0}}, {"type": "Feature", "geometry": {"type": "Point", "coordinates": [127.433419, 36.35434619999999]}, "properties": {"name": "예닮교회", "address": "(34543) 대전광역시 동구 계족로 476번길 9-4", "members_num": 10.0}}, {"type": "Feature", "geometry": {"type": "Point", "coordinates": [126.7426501, 36.67361289999999]}, "properties": {"name": "예가교회", "address": "(32415) 충남 예산군 삽교읍신가효림길11-4,예가교회", "members_num": 100.0}}, {"type": "Feature", "geometry": {"type": "Point", "coordinates": [127.1607708, 36.8071081]}, "properties": {"name": "하이감리교회", "address": "(31126) 충남 천안시 동남구원성천2길120,b-103(원성동,88비둘기아파트)", "members_num": 200.0}}, {"type": "Feature", "geometry": {"type": "Point", "coordinates": [127.194974, 36.771038]}, "properties": {"name": "더드림교회", "address": "(31233) 충남 천안시 동남구목천읍신계1길41,동우상가5층더드림교회(동우아파트)", "members_num": 200.0}}, {"type": "Feature", "geometry": {"type": "Point", "coordinates": [127.428529, 36.354261]}, "properties": {"name": "행복한우리교회", "address": "(34545) 대전광역시 동구 계족로489번길73,용전동한숲아파트106동1401호(용전동,한숲아파트)", "members_num": 200.0}}, {"type": "Feature", "geometry": {"type": "Point", "coordinates": [127.3472702, 36.3276076]}, "properties": {"name": "디딤돌교회", "address": "(35352) 대전 서구 도안동로 255 디딤돌교회 임성도 (도안동, 디딤돌침례교회)", "members_num": 700.0}}, {"type": "Feature", "geometry": {"type": "Point", "coordinates": [127.394158, 36.3361354]}, "properties": {"name": "선창교회", "address": "(35304) 대전광역시 서구 계룡로662번길 21", "members_num": 1000.0}}, {"type": "Feature", "geometry": {"type": "Point", "coordinates": [126.863934, 36.7925507]}, "properties": {"name": "선장문화교회", "address": "(31546) 충청남도 아산시 선장로168", "members_num": 50.0}}, {"type": "Feature", "geometry": {"type": "Point", "coordinates": [127.4835125, 36.6480704]}, "properties": {"name": "평안교회", "address": "(28487) 충북 청주시 청원구직지대로833,2층평안교회(우암동)", "members_num": 200.0}}, {"type": "Feature", "geometry": {"type": "Point", "coordinates": [127.1170097, 36.7884414]}, "properties": {"name": "예닮교회", "address": "(31179) 충남 천안시 서북구월봉1길16,오성빌딩304호예닮교회(쌍용동)", "members_num": 30.0}}, {"type": "Feature", "geometry": {"type": "Point", "coordinates": [127.5611514, 36.5633672]}, "properties": {"name": "인차교회", "address": "(28204) 충북 청주시 상당구가덕면계산은행로14-35,주택", "members_num": 200.0}}, {"type": "Feature", "geometry": {"type": "Point", "coordinates": [127.3661717, 36.304658]}, "properties": {"name": "꿈꾸는교회", "address": "(35396) 대전광역시 서구 정림동로5,3층,꿈꾸는교회(정림동)", "members_num": 60.0}}, {"type": "Feature", "geometry": {"type": "Point", "coordinates": [127.2359095, 36.2861927]}, "properties": {"name": "빛나는교회", "address": "(32808) 충남 계룡시 엄사면번영9길14,1층", "members_num": 70.0}}, {"type": "Feature", "geometry": {"type": "Point", "coordinates": [127.9418825, 36.9644158]}, "properties": {"name": "충주남부교회", "address": "(27398) 충청북도 충주시 금봉4길 30", "members_num": 1000.0}}, {"type": "Feature", "geometry": {"type": "Point", "coordinates": [127.3801284, 36.3182513]}, "properties": {"name": "도마동교회", "address": "(35331) 대전광역시 서구 도마9길24,도마동교회(도마동)", "members_num": 150.0}}, {"type": "Feature", "geometry": {"type": "Point", "coordinates": [126.840812, 36.7123864]}, "properties": {"name": "초대교회", "address": "(32423) 충남 예산군 예산읍벚꽃로359,초대교회", "members_num": 100.0}}, {"type": "Feature", "geometry": {"type": "Point", "coordinates": [127.2352788, 36.5190489]}, "properties": {"name": "새물결은혜교회", "address": "(30062) 세종특별자치시 마음로 272-5,502호(고운동)", "members_num": 30.0}}, {"type": "Feature", "geometry": {"type": "Point", "coordinates": [127.2715254, 36.5741865]}, "properties": {"name": "서면중앙교회", "address": "(30043) 세종특별자치시 연서면 함박로183-4,서면중앙교회", "members_num": 50.0}}, {"type": "Feature", "geometry": {"type": "Point", "coordinates": [127.487292, 36.1046471]}, "properties": {"name": "금산성결교회", "address": "(32737) 충남 금산군 금산읍오리정1길42,금산성결교회", "members_num": 200.0}}, {"type": "Feature", "geometry": {"type": "Point", "coordinates": [127.4766977, 36.6172425]}, "properties": {"name": "예수향기교회", "address": "(28695) 충북 청주시 서원구구룡산로292,상가2층(수곡동,산남주공2단지아파트)", "members_num": 50.0}}, {"type": "Feature", "geometry": {"type": "Point", "coordinates": [127.2989433, 36.7624599]}, "properties": {"name": "예안교회", "address": "(31254) 충남 천안시 동남구병천면충절로1745-1,2층", "members_num": 100.0}}, {"type": "Feature", "geometry": {"type": "Point", "coordinates": [126.6541786, 36.593424]}, "properties": {"name": "양문교회", "address": "(32247) 충남 홍성군 홍성읍충서로1318,2층양문교회", "members_num": 100.0}}, {"type": "Feature", "geometry": {"type": "Point", "coordinates": [127.116882, 36.5799451]}, "properties": {"name": "운궁침례교회", "address": "(32513) 충청남도 공주시 정안면 은학동길 13", "members_num": 40.0}}, {"type": "Feature", "geometry": {"type": "Point", "coordinates": [127.4510347, 36.357907]}, "properties": {"name": "임마누엘교회", "address": "(34417) 대전광역시 대덕구 우암로 461(비래동) 3층", "members_num": 8.0}}, {"type": "Feature", "geometry": {"type": "Point", "coordinates": [127.4473406, 36.3007443]}, "properties": {"name": "주능력교회", "address": "(35070) 대전 중구 모암로 46", "members_num": 200.0}}, {"type": "Feature", "geometry": {"type": "Point", "coordinates": [126.9221559, 36.8284689]}, "properties": {"name": "산양교회", "address": "(31440) 충청남도 아산시 염치읍 산양길30번길 4", "members_num": 20.0}}, {"type": "Feature", "geometry": {"type": "Point", "coordinates": [128.2036844, 37.1443766]}, "properties": {"name": "내토교회", "address": "(27164) 충북 제천시 명륜로3길 8-1 내토교회", "members_num": 200.0}}, {"type": "Feature", "geometry": {"type": "Point", "coordinates": [127.2587189, 36.4910836]}, "properties": {"name": "더웨이교회", "address": "(나성북1로) 세종 세종시 나성북1로 22 디펠리체6층", "members_num": 10.0}}, {"type": "Feature", "geometry": {"type": "Point", "coordinates": [126.4621736, 36.7827018]}, "properties": {"name": "서산한우리교회", "address": "(31980) 충남 서산시 율지8로 23-6", "members_num": 80.0}}, {"type": "Feature", "geometry": {"type": "Point", "coordinates": [127.5430514, 36.9174986]}, "properties": {"name": "하늘샘교회", "address": "(27737) 충북 음성군 맹동면 연미로 294", "members_num": 23.0}}, {"type": "Feature", "geometry": {"type": "Point", "coordinates": [127.8634165, 36.6754941]}, "properties": {"name": "송면교회", "address": "(28065) 충북 괴산군 청천면 대야로15", "members_num": 200.0}}, {"type": "Feature", "geometry": {"type": "Point", "coordinates": [127.2956064, 36.4805931]}, "properties": {"name": "예닮중앙교회", "address": "(30150) 세종시 남세종로 384 호려울 마을 9단지 상가2층 예닮중앙교회", "members_num": 20.0}}, {"type": "Feature", "geometry": {"type": "Point", "coordinates": [127.15806, 36.4750796]}, "properties": {"name": "새누리교회", "address": "(314120) 충남 공주시 월송동 12ㅡ1번지", "members_num": 21.0}}, {"type": "Feature", "geometry": {"type": "Point", "coordinates": [127.1303484, 36.1754866]}, "properties": {"name": "평화감리교회", "address": "(32999) 충청남도 논산시 은진면 탑장로612 평화교회", "members_num": 30.0}}, {"type": "Feature", "geometry": {"type": "Point", "coordinates": [126.7053866, 36.3013181]}, "properties": {"name": "와산침례교회", "address": "(33103) 충남 부여군 외산면 만수로229 외산침례교회", "members_num": 10.0}}, {"type": "Feature", "geometry": {"type": "Point", "coordinates": [127.4377081, 36.342703]}, "properties": {"name": "벧엘교회", "address": "(34589) 대전 동구 계족로330번길 30-16 벧엘교회", "members_num": 30.0}}, {"type": "Feature", "geometry": {"type": "Point", "coordinates": [127.5974491, 36.9932631]}, "properties": {"name": "늘풍성한교회", "address": "(27636) 충청북도 음성군 금왕읍 무극로 324번길 10(2층)", "members_num": 11.0}}, {"type": "Feature", "geometry": {"type": "Point", "coordinates": [127.4239541, 36.9756038]}, "properties": {"name": "국가대표선수촌교회", "address": "(27809) 충북 진천군 선수촌로 105 국가대표선수촌교회", "members_num": 200.0}}, {"type": "Feature", "geometry": {"type": "Point", "coordinates": [127.1205292, 36.5358692]}, "properties": {"name": "화평교회", "address": "(32514) 충청남도 공주시 정안면 달성길 73", "members_num": 60.0}}, {"type": "Feature", "geometry": {"type": "Point", "coordinates": [127.5797151, 37.0606961]}, "properties": {"name": "로엠교회", "address": "(27615) 충북 음성군 생극면 임곡길 209번길 85", "members_num": 50.0}}, {"type": "Feature", "geometry": {"type": "Point", "coordinates": [127.927008, 37.0343255]}, "properties": {"name": "대미중앙교회", "address": "(27443) 충청북도 충주시 무너미길 11-9", "members_num": 17.0}}, {"type": "Feature", "geometry": {"type": "Point", "coordinates": [126.5943297, 36.3133115]}, "properties": {"name": "화덕교회", "address": "(33493) 충남 보령시 남포면 남포역전길 119-12 화덕교회 사택", "members_num": 50.0}}, {"type": "Feature", "geometry": {"type": "Point", "coordinates": [126.4495206, 36.7320623]}, "properties": {"name": "양대침례교회", "address": "(32008) 충청남도 서산시 양대8길 122-1 양대침례교회", "members_num": 30.0}}, {"type": "Feature", "geometry": {"type": "Point", "coordinates": [127.1212082, 36.441974]}, "properties": {"name": "새에덴꿈사랑교회", "address": "(32602) 충남 공주시 양지마을2길12", "members_num": 195.0}}]}