{"type": "FeatureCollection", "features": [{"type": "Feature", "geometry": {"type": "Point", "coordinates": [128.6714995, 35.90384299999999]}, "properties": {"name": "공군교회", "address": "(41053) 대구 동구 둔산로 311 40동 102호(군부대)", "members_num": 200.0}}, {"type": "Feature", "geometry": {"type": "Point", "coordinates": [129.072535, 35.186631]}, "properties": {"name": "학장소망교회", "address": "(47539) 부산 연제구 (연산동, 샤이나오피스텔)", "members_num": 100.0}}, {"type": "Feature", "geometry": {"type": "Point", "coordinates": [128.7314325, 35.8663278]}, "properties": {"name": "순복음고백교회", "address": "(41089) 대구 동구 동호로132 영조아름다운나날3단지 상가A동 203호", "members_num": 10.0}}, {"type": "Feature", "geometry": {"type": "Point", "coordinates": [128.3455755, 36.1904015]}, "properties": {"name": "항곡교회", "address": "(39143) 경북 구미시 항곡7길 11", "members_num": 150.0}}, {"type": "Feature", "geometry": {"type": "Point", "coordinates": [128.4990761, 35.8577658]}, "properties": {"name": "대민성결교회", "address": "(42609) 대구 달서구 선원로 14길 26", "members_num": 11.0}}, {"type": "Feature", "geometry": {"type": "Point", "coordinates": [129.2297831, 35.5642341]}, "properties": {"name": "천상소망교회", "address": "(44927) 울산 울주군 범서읍 평천길 35 천상소망교회", "members_num": 60.0}}, {"type": "Feature", "geometry": {"type": "Point", "coordinates": [128.688353, 35.9346812]}, "properties": {"name": "평광교회", "address": "(41018) 대구 동구 도평로 107길 42-2", "members_num": 20.0}}, {"type": "Feature", "geometry": {"type": "Point", "coordinates": [128.7652551, 35.4758083]}, "properties": {"name": "목은교회", "address": "(50444) 경남 밀양시 중앙로 132 (가곡동)", "members_num": 50.0}}, {"type": "Feature", "geometry": {"type": "Point", "coordinates": [128.9600598, 35.1016919]}, "properties": {"name": "내평생행복한교회", "address": "(49429) 부산 사하구 하신번영로 146동 상가 303호", "members_num": 10.0}}, {"type": "Feature", "geometry": {"type": "Point", "coordinates": [128.9964954, 35.1978144]}, "properties": {"name": "구남교회", "address": "(46636) 부산 북구 백양대로 1022", "members_num": 150.0}}, {"type": "Feature", "geometry": {"type": "Point", "coordinates": [129.3083041, 35.5439602]}, "properties": {"name": "울산성서침례교회", "address": "(팔등로 14) 울산 남구 울산성서침례교회", "members_num": 150.0}}, {"type": "Feature", "geometry": {"type": "Point", "coordinates": [129.0262074, 35.3160968]}, "properties": {"name": "함께하는교회", "address": "(50650) 경남 양산시 동면 금오로247더플러스B/D3층", "members_num": 30.0}}, {"type": "Feature", "geometry": {"type": "Point", "coordinates": [129.1823754, 35.802161]}, "properties": {"name": "율동교회", "address": "(38189) 경북 경주시 내남로 637_24 율동", "members_num": 15.0}}, {"type": "Feature", "geometry": {"type": "Point", "coordinates": [128.1081946, 35.1532299]}, "properties": {"name": "열방시민교회", "address": "(52827) 경남 진주시 가좌안골길16번길 1, 1층", "members_num": 25.0}}, {"type": "Feature", "geometry": {"type": "Point", "coordinates": [128.9832748, 35.0617657]}, "properties": {"name": "다대샘물교회", "address": "(49521) 부산 사하구 다송로68번길 10 경문빌딩8층", "members_num": 20.0}}, {"type": "Feature", "geometry": {"type": "Point", "coordinates": [128.880602, 35.0847445]}, "properties": {"name": "더울림교회", "address": "(46759) 부산 강서구 신호이로 49번길 9, 2층", "members_num": 30.0}}, {"type": "Feature", "geometry": {"type": "Point", "coordinates": [127.790878, 35.0396342]}, "properties": {"name": "신월교회", "address": "(52339) 경남 하동군 고전면 신월길24", "members_num": 11.0}}, {"type": "Feature", "geometry": {"type": "Point", "coordinates": [129.1981598, 35.7123727]}, "properties": {"name": "봉계교회", "address": "(44914) 울산 울주군 두동면 계명1길 22", "members_num": 15.0}}, {"type": "Feature", "geometry": {"type": "Point", "coordinates": [128.6366882, 35.8237005]}, "properties": {"name": "아름다운교회", "address": "(42196) 대구 수성구 지범로 145 3층", "members_num": 15.0}}, {"type": "Feature", "geometry": {"type": "Point", "coordinates": [129.0557304, 35.1388752]}, "properties": {"name": "범일침례교회", "address": "(48723) 부산 동구 범곡로 9", "members_num": 0.0}}, {"type": "Feature", "geometry": {"type": "Point", "coordinates": [128.0200676, 35.9232986]}, "properties": {"name": "푸른초장순복음교회", "address": "(39695) 경북 김천시 증산면 부항1길42-18", "members_num": 12.0}}, {"type": "Feature", "geometry": {"type": "Point", "coordinates": [128.9636905, 35.0805281]}, "properties": {"name": "열린문교회", "address": "(49477) 부산 사하구 하신중앙로17번길8", "members_num": 50.0}}, {"type": "Feature", "geometry": {"type": "Point", "coordinates": [129.0004453, 35.1012687]}, "properties": {"name": "주영교회", "address": "(49348) 부산 사하구 사리로8번길 21", "members_num": 35.0}}, {"type": "Feature", "geometry": {"type": "Point", "coordinates": [128.7017732, 35.2768718]}, "properties": {"name": "동창원영은교회", "address": "(51136) 경남 창원시 의창구 동읍 자여로 93번길 32", "members_num": 35.0}}, {"type": "Feature", "geometry": {"type": "Point", "coordinates": [129.4290639, 35.4880794]}, "properties": {"name": "예배교회", "address": "(44059) 울산 동구 등대 3길 40 301호", "members_num": 60.0}}, {"type": "Feature", "geometry": {"type": "Point", "coordinates": [128.5083199, 34.8294322]}, "properties": {"name": "순복음거제중앙교회", "address": "(53281) 경남 거제시 둔덕면 거제남서로 4604", "members_num": 70.0}}, {"type": "Feature", "geometry": {"type": "Point", "coordinates": [129.1070536, 35.1997162]}, "properties": {"name": "새벽이슬동신교회", "address": "(47784) 부산 동래구 명안로46번나길 52", "members_num": 43.0}}, {"type": "Feature", "geometry": {"type": "Point", "coordinates": [128.5475696, 35.8186137]}, "properties": {"name": "성내교회", "address": "(42805) 대구 달서구 송현로7길 25", "members_num": 200.0}}, {"type": "Feature", "geometry": {"type": "Point", "coordinates": [128.7293309, 35.30806330000001]}, "properties": {"name": "참좋은교회", "address": "(50862) 경남 김해시 진영읍 김해대로 361번길 13", "members_num": 20.0}}, {"type": "Feature", "geometry": {"type": "Point", "coordinates": [129.0562745, 35.1447318]}, "properties": {"name": "칼빈대학교회", "address": "(47370) 부산 부산진구 신암로 46", "members_num": 50.0}}, {"type": "Feature", "geometry": {"type": "Point", "coordinates": [127.9823395, 34.8504829]}, "properties": {"name": "충만한교회", "address": "(52452) 경남 남해군 창선면 동부대로 2011-3", "members_num": 20.0}}, {"type": "Feature", "geometry": {"type": "Point", "coordinates": [129.0656666, 35.0821539]}, "properties": {"name": "동삼땅끝교회", "address": "(49094) 부산 영도구 웃서발로22", "members_num": 25.0}}, {"type": "Feature", "geometry": {"type": "Point", "coordinates": [128.548192, 35.8152121]}, "properties": {"name": "광명교회", "address": "(42806) 대구 달서구 상화북로 43길11", "members_num": 11.0}}, {"type": "Feature", "geometry": {"type": "Point", "coordinates": [128.2223092, 36.2567913]}, "properties": {"name": ",무이교회", "address": "(39101) 경북 구미시 무을면 무이1길 28", "members_num": 35.0}}, {"type": "Feature", "geometry": {"type": "Point", "coordinates": [128.8661351, 35.2402174]}, "properties": {"name": "김해명문교회", "address": "(50948) 경남 김해시 경원로55번길34,김해명문교회(내동)", "members_num": 400.0}}, {"type": "Feature", "geometry": {"type": "Point", "coordinates": [129.067585, 36.1063577]}, "properties": {"name": "소망교회", "address": "(38900) 경북 영천시 별빛로 1560", "members_num": 7.0}}, {"type": "Feature", "geometry": {"type": "Point", "coordinates": [129.4069634, 36.5099456]}, "properties": {"name": "도곡교회", "address": "(36419) 경북 영덕군 축산면 영덕로 1434~5번지", "members_num": 23.0}}, {"type": "Feature", "geometry": {"type": "Point", "coordinates": [129.0076203, 35.2112607]}, "properties": {"name": "주님의숲", "address": "(46548) 부산 북구", "members_num": 0.0}}, {"type": "Feature", "geometry": {"type": "Point", "coordinates": [129.0977504, 35.1852487]}, "properties": {"name": "연제비전교회", "address": "(47566) 부산 연제구 부산 연제구 고분로 140 오성빌라 상가 2층", "members_num": 15.0}}, {"type": "Feature", "geometry": {"type": "Point", "coordinates": [128.6200033, 35.8376875]}, "properties": {"name": "두산중앙교회", "address": "(42169) 대구 수성구 들안로 18길 37", "members_num": 50.0}}, {"type": "Feature", "geometry": {"type": "Point", "coordinates": [128.4369506, 36.0942869]}, "properties": {"name": "구미등대교회", "address": "(39442) 경북 구미시 인동43길 7", "members_num": 250.0}}, {"type": "Feature", "geometry": {"type": "Point", "coordinates": [128.5901544, 35.9705892]}, "properties": {"name": "칠곡소망교회", "address": "(41408) 대구 북구 도남길264-12", "members_num": 16.0}}, {"type": "Feature", "geometry": {"type": "Point", "coordinates": [128.5959291, 35.9246279]}, "properties": {"name": "맑은샘교회", "address": "(41474) 대구 북구 호국로51길30-10", "members_num": 18.0}}, {"type": "Feature", "geometry": {"type": "Point", "coordinates": [129.1872542, 35.8587647]}, "properties": {"name": "경주온누리교회", "address": "(38067) 경북 경주시 석장남길 102-15", "members_num": 60.0}}, {"type": "Feature", "geometry": {"type": "Point", "coordinates": [128.6070156, 35.8849625]}, "properties": {"name": "영광스러운교회", "address": "(41568) 대구 북구 대현로 75", "members_num": 40.0}}, {"type": "Feature", "geometry": {"type": "Point", "coordinates": [128.9960139, 35.0938023]}, "properties": {"name": "괴정중앙교회", "address": "(49361) 부산 사하구 감천로 21번길 35 101-1605", "members_num": 500.0}}, {"type": "Feature", "geometry": {"type": "Point", "coordinates": [128.7400605, 35.8030816]}, "properties": {"name": "경산예선교회", "address": "(38650) 경북 경산시 경산 경청로222길8 105동902호", "members_num": 4.0}}, {"type": "Feature", "geometry": {"type": "Point", "coordinates": [129.0635749, 35.1603523]}, "properties": {"name": "하버시티교회", "address": "(47243) 부산 부산진구 동성로143", "members_num": 44.0}}, {"type": "Feature", "geometry": {"type": "Point", "coordinates": [129.3185022, 36.1252292]}, "properties": {"name": "양백교회", "address": "(37532) 경북 포항시 북구 흥해읍 용연길 190번길 2", "members_num": 25.0}}, {"type": "Feature", "geometry": {"type": "Point", "coordinates": [128.3336302, 36.103792]}, "properties": {"name": "구미제자삼는교회", "address": "(39319) 경북 구미시 형곡서로 11-15, 형곡시영아파트", "members_num": 3.0}}, {"type": "Feature", "geometry": {"type": "Point", "coordinates": [128.6345113, 35.9802778]}, "properties": {"name": "서촌교회", "address": "(41001) 대구 동구 파계로112길 4", "members_num": 60.0}}, {"type": "Feature", "geometry": {"type": "Point", "coordinates": [129.2112939, 35.6638841]}, "properties": {"name": "사랑인교회", "address": "(44915) 울산 울주군 두동면 두동로 1160-7", "members_num": 50.0}}, {"type": "Feature", "geometry": {"type": "Point", "coordinates": [128.3343231, 36.1391455]}, "properties": {"name": "구미성민교회", "address": "(39198) 경북 구미시 문장로10길19", "members_num": 20.0}}, {"type": "Feature", "geometry": {"type": "Point", "coordinates": [129.3798152, 35.610059]}, "properties": {"name": "나눔의교회", "address": "(44225) 울산 북구 당수골10 길 14", "members_num": 30.0}}, {"type": "Feature", "geometry": {"type": "Point", "coordinates": [128.5424681, 35.8153528]}, "properties": {"name": "김창환", "address": "(42810) 대구 달서구 상인서로 65 상인우방타운 지하1층", "members_num": 5.0}}, {"type": "Feature", "geometry": {"type": "Point", "coordinates": [128.2910367, 35.9192611]}, "properties": {"name": "성주신일교회", "address": "(40030) 경북 성주군 성주읍 성주순환로 270-1", "members_num": 50.0}}, {"type": "Feature", "geometry": {"type": "Point", "coordinates": [128.4274775, 36.1147225]}, "properties": {"name": "하늘정원교회", "address": "(39428) 경북 구미시 검성로102", "members_num": 25.0}}, {"type": "Feature", "geometry": {"type": "Point", "coordinates": [128.0648342, 35.0486024]}, "properties": {"name": "사천가나안교회", "address": "(52534) 경남 사천시 사남면 죽천1길 111-21", "members_num": 70.0}}, {"type": "Feature", "geometry": {"type": "Point", "coordinates": [128.8533761, 35.2327267]}, "properties": {"name": "시온중앙교회", "address": "(50956) 경남 김해시 금관대로 1180번길 3-11", "members_num": 300.0}}, {"type": "Feature", "geometry": {"type": "Point", "coordinates": [128.6216438, 35.8384452]}, "properties": {"name": "칠성교회", "address": "(42170) 대구 수성구 청수로24길33(두산동90)", "members_num": 200.0}}, {"type": "Feature", "geometry": {"type": "Point", "coordinates": [128.9811959, 35.2156866]}, "properties": {"name": "새날교회", "address": "(46702) 부산 강서구 공항로 1309번길 140-7", "members_num": 500.0}}, {"type": "Feature", "geometry": {"type": "Point", "coordinates": [128.5120207, 35.8074379]}, "properties": {"name": "이영숙", "address": "(42769) 대구 달서구 비슬로 540길 27 2층 주향기교회", "members_num": 20.0}}, {"type": "Feature", "geometry": {"type": "Point", "coordinates": [129.172192, 35.2410239]}, "properties": {"name": "말씀과은혜의교회", "address": "(46051) 부산 기장군 철마면 고촌로18번길 20 2층", "members_num": 10.0}}, {"type": "Feature", "geometry": {"type": "Point", "coordinates": [128.3297447, 34.9688714]}, "properties": {"name": "충성신현교회", "address": "(52946) 경남 고성군 동외로71 대동남산빌라 3동205호", "members_num": 40.0}}, {"type": "Feature", "geometry": {"type": "Point", "coordinates": [128.6931326, 35.8738664]}, "properties": {"name": "성은교회", "address": "(41129) 대구 동구 반야월로42,3층", "members_num": 15.0}}, {"type": "Feature", "geometry": {"type": "Point", "coordinates": [129.3609801, 36.01143330000001]}, "properties": {"name": "포항동일교회", "address": "(37829) 경북 포항시 남구 상대로 136", "members_num": 500.0}}, {"type": "Feature", "geometry": {"type": "Point", "coordinates": [128.7143062, 35.1548845]}, "properties": {"name": "행복한교회", "address": "(51592) 경남 창원시 진해구 경상남도 창원시 진해구 자은동 136-3 에덴프라자 3층", "members_num": 60.0}}, {"type": "Feature", "geometry": {"type": "Point", "coordinates": [129.3386228, 35.6310372]}, "properties": {"name": "더테이블처치", "address": "(44204) 울산 북구 아진로94 2층", "members_num": 40.0}}, {"type": "Feature", "geometry": {"type": "Point", "coordinates": [128.4216111, 36.1067218]}, "properties": {"name": "구미인동교회", "address": "(39432) 경북 구미시 여헌로3길 45", "members_num": 300.0}}, {"type": "Feature", "geometry": {"type": "Point", "coordinates": [128.7604092, 35.8118505]}, "properties": {"name": "경산목양교회", "address": "(38597) 경북 경산시 백양로35길 12 경산목양교회", "members_num": 45.0}}, {"type": "Feature", "geometry": {"type": "Point", "coordinates": [128.0032217, 35.3155324]}, "properties": {"name": "청현교회", "address": "(52263) 경남 산청군 신안면 야정신기로 192번길 234-17", "members_num": 20.0}}, {"type": "Feature", "geometry": {"type": "Point", "coordinates": [129.027225, 35.3119763]}, "properties": {"name": "더하시는교회", "address": "(50639) 경남 양산시 동면 금오4길 51-11 302호", "members_num": 15.0}}, {"type": "Feature", "geometry": {"type": "Point", "coordinates": [129.1124217, 35.2214877]}, "properties": {"name": "금사교회", "address": "(46264) 부산 금정구 금사로 97번길 2-1 금사교회", "members_num": 200.0}}, {"type": "Feature", "geometry": {"type": "Point", "coordinates": [128.8832338, 35.2318745]}, "properties": {"name": "조이월드글로벌교회", "address": "(50921) 경남 김해시 가락로 64-7 , 1층", "members_num": 37.0}}, {"type": "Feature", "geometry": {"type": "Point", "coordinates": [129.042334, 35.3594152]}, "properties": {"name": "하늘영광교회", "address": "(50572) 경남 양산시 북정서길 23 상현빌딩 4층", "members_num": 8.0}}, {"type": "Feature", "geometry": {"type": "Point", "coordinates": [128.7828903, 36.2728133]}, "properties": {"name": "효선교회", "address": "(37349) 경북 의성군 춘산면 효선3길 143", "members_num": 50.0}}, {"type": "Feature", "geometry": {"type": "Point", "coordinates": [128.6148503, 35.866521]}, "properties": {"name": "밝은빛성명교회", "address": "(42000) 대구 수성구 신천동로 96길 5 2층", "members_num": 10.0}}, {"type": "Feature", "geometry": {"type": "Point", "coordinates": [128.350255, 36.7136854]}, "properties": {"name": "두천교회", "address": "(36831) 경북 예천군 용문면 용문경천로572", "members_num": 33.0}}, {"type": "Feature", "geometry": {"type": "Point", "coordinates": [128.1222303, 36.3418491]}, "properties": {"name": "청리교회", "address": "(37258) 경북 상주시 청리면 원징 수상길68", "members_num": 30.0}}, {"type": "Feature", "geometry": {"type": "Point", "coordinates": [128.4830965, 35.5407113]}, "properties": {"name": "창녕감리교회", "address": "(50318) 경남 창녕군 창녕읍 우포1대로 1551 대한상가 2층", "members_num": 0.0}}, {"type": "Feature", "geometry": {"type": "Point", "coordinates": [128.6996089, 35.8727985]}, "properties": {"name": "반야월서부교회", "address": "(41118) 대구 동구 반야월로98(율하동)", "members_num": 800.0}}, {"type": "Feature", "geometry": {"type": "Point", "coordinates": [128.6639448, 35.3907172]}, "properties": {"name": "대곡교회", "address": "(50455) 경남 밀양시 초동면 대곡1길 18", "members_num": 30.0}}, {"type": "Feature", "geometry": {"type": "Point", "coordinates": [128.0895548, 36.1205631]}, "properties": {"name": "신일성결교회", "address": "(39633) 경북 김천시 송설로58", "members_num": 40.0}}, {"type": "Feature", "geometry": {"type": "Point", "coordinates": [128.7509654, 35.8739026]}, "properties": {"name": "신매교회", "address": "(41072) 대구 동구 메디밸리로 18 1005동 1103호", "members_num": 300.0}}, {"type": "Feature", "geometry": {"type": "Point", "coordinates": [128.7314114, 36.5478887]}, "properties": {"name": "안동송천교회", "address": "(36750) 경북 안동시 강남1길 98-23 303동1405호", "members_num": 120.0}}, {"type": "Feature", "geometry": {"type": "Point", "coordinates": [129.004561, 35.0885041]}, "properties": {"name": "누리는교회", "address": "(49374) 부산 사하구 감천로109번길14-1 나동301호", "members_num": 10.0}}, {"type": "Feature", "geometry": {"type": "Point", "coordinates": [129.328914, 35.5150401]}, "properties": {"name": "시민교회", "address": "(1111) 울산 남구 2222", "members_num": 30.0}}, {"type": "Feature", "geometry": {"type": "Point", "coordinates": [130.8257242, 37.5298934]}, "properties": {"name": "현포침례교회", "address": "(40205) 경북 울릉군 북면 현포길 27~19", "members_num": 70.0}}, {"type": "Feature", "geometry": {"type": "Point", "coordinates": [128.464323, 35.1166315]}, "properties": {"name": "지산교회", "address": "(51794) 경남 창원시 마산합포구 지산2길 42. 라인아파트 803호", "members_num": 200.0}}, {"type": "Feature", "geometry": {"type": "Point", "coordinates": [129.0474907, 35.1822036]}, "properties": {"name": "부산우리교회", "address": "(47103) 부산 부산진구 성지로 158 3층", "members_num": 30.0}}, {"type": "Feature", "geometry": {"type": "Point", "coordinates": [129.0960721, 35.12616]}, "properties": {"name": "유엔평화교회", "address": "(48531) 부산 남구 신선로447번길 77 1층", "members_num": 60.0}}, {"type": "Feature", "geometry": {"type": "Point", "coordinates": [129.0919707, 35.1402676]}, "properties": {"name": "성지교회", "address": "(48440) 부산 남구 대연5동 대연극동아파트 102-306", "members_num": 15.0}}, {"type": "Feature", "geometry": {"type": "Point", "coordinates": [129.1133118, 35.1224127]}, "properties": {"name": "한믿음교회", "address": "(48578) 부산 남구 용호로99", "members_num": 20.0}}, {"type": "Feature", "geometry": {"type": "Point", "coordinates": [129.039062, 35.1261357]}, "properties": {"name": "태광교회", "address": "(48786) 부산 동구 홍곡남로 18번길 26", "members_num": 30.0}}, {"type": "Feature", "geometry": {"type": "Point", "coordinates": [128.3429237, 36.4117808]}, "properties": {"name": "무릉교회", "address": "(374-04) 경북 의성군 다인면 용무2길207-4", "members_num": 15.0}}, {"type": "Feature", "geometry": {"type": "Point", "coordinates": [128.0048697, 36.1012743]}, "properties": {"name": "소망나눔공동체", "address": "(39566) 경북 김천시 황악로 1164", "members_num": 12.0}}, {"type": "Feature", "geometry": {"type": "Point", "coordinates": [129.3555937, 35.6331376]}, "properties": {"name": "활력교회", "address": "(44224) 울산 북구 마동로47, 3층 활력교회", "members_num": 20.0}}, {"type": "Feature", "geometry": {"type": "Point", "coordinates": [129.3913707, 36.5690406]}, "properties": {"name": "원황교회", "address": "(36405) 경북 영덕군 원황길82-20", "members_num": 50.0}}, {"type": "Feature", "geometry": {"type": "Point", "coordinates": [129.0888997, 35.1812522]}, "properties": {"name": "충만한교회", "address": "(47582) 부산 연제구 쌍미천로 84번길 57", "members_num": 12.0}}, {"type": "Feature", "geometry": {"type": "Point", "coordinates": [128.3787813, 35.8794929]}, "properties": {"name": "송강교회", "address": "(40048) 경북 성주군 나선로 993", "members_num": 40.0}}, {"type": "Feature", "geometry": {"type": "Point", "coordinates": [129.1216699, 35.1887264]}, "properties": {"name": "중부산교회", "address": "(48054) 부산 해운대구 해운대로 99번길 23", "members_num": 40.0}}, {"type": "Feature", "geometry": {"type": "Point", "coordinates": [130.8231516, 37.51010410000001]}, "properties": {"name": "서달교회", "address": "(40201) 경북 울릉군 서면 서달길214-17", "members_num": 25.0}}, {"type": "Feature", "geometry": {"type": "Point", "coordinates": [130.8742941, 37.5447879]}, "properties": {"name": "천부침례교회", "address": "(40211) 경북 울릉군 북면 천부2길 11", "members_num": 48.0}}, {"type": "Feature", "geometry": {"type": "Point", "coordinates": [130.866106, 37.5280801]}, "properties": {"name": "평리침례교회", "address": "(40206) 경북 울릉군 북면207-4", "members_num": 15.0}}, {"type": "Feature", "geometry": {"type": "Point", "coordinates": [130.9064615, 37.4979363]}, "properties": {"name": "열린침례교회", "address": "(40218) 경북 울릉군 울릉읍 봉래길16 열린침례교회", "members_num": 50.0}}, {"type": "Feature", "geometry": {"type": "Point", "coordinates": [130.9079225, 37.4993078]}, "properties": {"name": "저동침례교회", "address": "(40218) 경북 울릉군 울릉읍 저동1길 21-19", "members_num": 50.0}}, {"type": "Feature", "geometry": {"type": "Point", "coordinates": [129.3978581, 36.0805049]}, "properties": {"name": "포항할렐루야교회", "address": "(37593) 경북 포항시 북구 양덕동 1514 금강빌딩 4층 기획단 하늘", "members_num": 100.0}}, {"type": "Feature", "geometry": {"type": "Point", "coordinates": [128.6940642, 35.9891648]}, "properties": {"name": "다니엘쉼터교회", "address": "(41007) 대구 동구 팔공산로199길29", "members_num": 5.0}}, {"type": "Feature", "geometry": {"type": "Point", "coordinates": [128.6358745, 34.8636929]}, "properties": {"name": "거제참좋은교회", "address": "(53296) 경남 거제시 상동1길 52", "members_num": 100.0}}, {"type": "Feature", "geometry": {"type": "Point", "coordinates": [129.3487393, 36.04457379999999]}, "properties": {"name": "호산나교회", "address": "(37645) 경북 포항시 북구 새마을로 116", "members_num": 20.0}}, {"type": "Feature", "geometry": {"type": "Point", "coordinates": [128.5965344, 35.8622475]}, "properties": {"name": "봉산교회", "address": "(41958) 대구 중구 달구벌대로 2120-1", "members_num": 300.0}}, {"type": "Feature", "geometry": {"type": "Point", "coordinates": [128.4522393, 35.6914013]}, "properties": {"name": "좋은교회", "address": "(43017) 대구 달성군 테크노상업로26 테크노타워2 403호", "members_num": 10.0}}, {"type": "Feature", "geometry": {"type": "Point", "coordinates": [128.5540864, 35.9287059]}, "properties": {"name": "포도나무교회", "address": "(41463) 대구 북구 팔거천동로 52 칠곡미래타운 상가", "members_num": 25.0}}, {"type": "Feature", "geometry": {"type": "Point", "coordinates": [128.4430538, 35.6976811]}, "properties": {"name": "현풍제일교회", "address": "(42999) 대구 달성군 현풍읍 현풍중앙로20길 22", "members_num": 30.0}}, {"type": "Feature", "geometry": {"type": "Point", "coordinates": [128.442486, 35.7901158]}, "properties": {"name": "행복한교회", "address": "(42969) 대구 달성군 옥포읍 교항제림길10제리아파트 상가 401동201호", "members_num": 20.0}}, {"type": "Feature", "geometry": {"type": "Point", "coordinates": [128.4586418, 35.6922579]}, "properties": {"name": "하늘둥지교회", "address": "(43018) 대구 달성군 유가읍 테크노중앙대로 240 한라하우젠트 213호", "members_num": 20.0}}, {"type": "Feature", "geometry": {"type": "Point", "coordinates": [128.4735107, 35.6269094]}, "properties": {"name": "대성성결교회", "address": "(50311) 경남 창녕군 성산면 정녕샛담길 17-7", "members_num": 50.0}}, {"type": "Feature", "geometry": {"type": "Point", "coordinates": [128.5675665, 35.8735181]}, "properties": {"name": "서대구성결교회", "address": "(41792) 대구 서구 국채 보상로 67길 14-10", "members_num": 70.0}}, {"type": "Feature", "geometry": {"type": "Point", "coordinates": [128.4247242, 36.1359122]}, "properties": {"name": "옥계동행교회", "address": "(39190) 경북 구미시 옥계남로 5길 12-16", "members_num": 30.0}}, {"type": "Feature", "geometry": {"type": "Point", "coordinates": [128.875558, 35.7942829]}, "properties": {"name": "행복한우리교회", "address": "(38561) 경북 경산시 용성면 용성당리1길 16", "members_num": 60.0}}, {"type": "Feature", "geometry": {"type": "Point", "coordinates": [128.3623821, 36.1483757]}, "properties": {"name": "꿈이있는교회", "address": "(39153) 경북 구미시 고아읍 대평15길 꿈이있는교회", "members_num": 45.0}}, {"type": "Feature", "geometry": {"type": "Point", "coordinates": [128.580129, 35.2241426]}, "properties": {"name": "창원동일교회", "address": "(51322) 경남 창원시 마산회원구 양덕서9길 8", "members_num": 0.0}}, {"type": "Feature", "geometry": {"type": "Point", "coordinates": [129.3188429, 35.5769741]}, "properties": {"name": "울산동성교회", "address": "(44417) 울산 중구 성안8길 4", "members_num": 200.0}}, {"type": "Feature", "geometry": {"type": "Point", "coordinates": [128.712761, 35.8702722]}, "properties": {"name": "사랑의빛광성교회", "address": "(41112) 대구 동구 안심로51길85", "members_num": 10.0}}, {"type": "Feature", "geometry": {"type": "Point", "coordinates": [129.4074274, 36.0813065]}, "properties": {"name": "호산나침례교회", "address": "(37596) 경북 포항시 북구 양덕동 2100, 어탕 건물 2층", "members_num": 40.0}}, {"type": "Feature", "geometry": {"type": "Point", "coordinates": [127.7874698, 35.5224872]}, "properties": {"name": "수동제일교회", "address": "(50022) 경남 함양군 수동면 화산길 9", "members_num": 35.0}}, {"type": "Feature", "geometry": {"type": "Point", "coordinates": [128.6054469, 35.3454193]}, "properties": {"name": "북면전원교회", "address": "(51103) 경남 창원시 의창구 북면 천주로1047 대호상가1층1호", "members_num": 40.0}}, {"type": "Feature", "geometry": {"type": "Point", "coordinates": [128.2097486, 36.1883552]}, "properties": {"name": "은천교회", "address": "(39514) 경북 김천시 개령면 빗내1길 85", "members_num": 10.0}}, {"type": "Feature", "geometry": {"type": "Point", "coordinates": [128.2244712, 36.2043515]}, "properties": {"name": "완동교회", "address": "(39511) 경북 김천시 태촌2길 39-12", "members_num": 44.0}}, {"type": "Feature", "geometry": {"type": "Point", "coordinates": [128.1933812, 36.1678936]}, "properties": {"name": "개령교회", "address": "(39515) 경북 김천시 개령면 양천1길 87", "members_num": 100.0}}, {"type": "Feature", "geometry": {"type": "Point", "coordinates": [128.0899202, 36.1198867]}, "properties": {"name": "부곡광명교회", "address": "(39633) 경북 김천시 문지왈5길101", "members_num": 90.0}}, {"type": "Feature", "geometry": {"type": "Point", "coordinates": [129.0766147, 35.1427811]}, "properties": {"name": "문현성결교회", "address": "(48418) 부산 남구 문현로66번길7 한맥현대아파트 상가 4층", "members_num": 20.0}}, {"type": "Feature", "geometry": {"type": "Point", "coordinates": [128.1079924, 35.15297839999999]}, "properties": {"name": "진주영광교회", "address": "(52827) 경남 진주시 가좌안골길 16번길3", "members_num": 30.0}}, {"type": "Feature", "geometry": {"type": "Point", "coordinates": [127.8761268, 34.9323909]}, "properties": {"name": "남해로뎀교회", "address": "(52400) 경남 남해군 창남로81번길34", "members_num": 16.0}}, {"type": "Feature", "geometry": {"type": "Point", "coordinates": [127.9084223, 35.684949]}, "properties": {"name": "거창감리교회", "address": "(50139) 경남 거창군 강변로117-5", "members_num": 50.0}}, {"type": "Feature", "geometry": {"type": "Point", "coordinates": [128.1645272, 35.1655257]}, "properties": {"name": "문산감리교회", "address": "(52834) 경남 진주시 문산읍 월아산로1052번길 6", "members_num": 30.0}}, {"type": "Feature", "geometry": {"type": "Point", "coordinates": [128.0869988, 35.17167990000001]}, "properties": {"name": "진주은빛", "address": "(52719) 경남 진주시 주약약골길 28번길 21", "members_num": 19.0}}, {"type": "Feature", "geometry": {"type": "Point", "coordinates": [128.089611, 35.320315]}, "properties": {"name": "미천교회", "address": "(52600) 경남 진주시 미천면 진산로 1851-5", "members_num": 40.0}}, {"type": "Feature", "geometry": {"type": "Point", "coordinates": [128.816354, 35.1783725]}, "properties": {"name": "은혜와평강교회", "address": "(51005) 경남 김해시 관동로 27번길 101", "members_num": 100.0}}, {"type": "Feature", "geometry": {"type": "Point", "coordinates": [128.5171632, 34.8544777]}, "properties": {"name": "방하교회", "address": "(53280) 경남 거제시 둔덕면 방하1길17", "members_num": 30.0}}, {"type": "Feature", "geometry": {"type": "Point", "coordinates": [128.540859, 35.8454382]}, "properties": {"name": "대구광문교회", "address": "(42653) 대구 달서구 와룡로28길 95", "members_num": 45.0}}, {"type": "Feature", "geometry": {"type": "Point", "coordinates": [129.067336, 35.0887301]}, "properties": {"name": "청학교회", "address": "(49088) 부산 영도구 태종로 422번길 21-16", "members_num": 45.0}}, {"type": "Feature", "geometry": {"type": "Point", "coordinates": [128.1680355, 35.5655934]}, "properties": {"name": "합천은혜교회", "address": "(54321) 경남 합천군 합천읍 동서로 145", "members_num": 15.0}}, {"type": "Feature", "geometry": {"type": "Point", "coordinates": [128.2154245, 36.6071776]}, "properties": {"name": "큰길교회", "address": "(36902) 경북 문경시 중앙로(흥덕동) 2층", "members_num": 10.0}}, {"type": "Feature", "geometry": {"type": "Point", "coordinates": [128.7077469, 36.8127167]}, "properties": {"name": "두월교회", "address": "(36169) 경북 영주시 이산면 두월로 239", "members_num": 15.0}}, {"type": "Feature", "geometry": {"type": "Point", "coordinates": [128.1278729, 35.5545894]}, "properties": {"name": "손목교회", "address": "(50213) 경남 합천군 용주면 손목2길 23-1", "members_num": 35.0}}, {"type": "Feature", "geometry": {"type": "Point", "coordinates": [128.2443058, 36.216529]}, "properties": {"name": "성서침례교회", "address": "(39133) 경북 구미시 선산읍 배다리4길 16", "members_num": 30.0}}, {"type": "Feature", "geometry": {"type": "Point", "coordinates": [129.1062836, 35.2204125]}, "properties": {"name": "서동교회", "address": "(46312) 부산 금정구 서금로 37(서동)", "members_num": 200.0}}, {"type": "Feature", "geometry": {"type": "Point", "coordinates": [129.3736932, 36.2859565]}, "properties": {"name": "장사교회", "address": "(36463) 경북 영덕군 남정면 진불1길39 장사교회", "members_num": 40.0}}, {"type": "Feature", "geometry": {"type": "Point", "coordinates": [128.1817747, 36.5841204]}, "properties": {"name": "문경좋은나무교회", "address": "(36987) 경북 문경시 당교로 170 2층", "members_num": 25.0}}, {"type": "Feature", "geometry": {"type": "Point", "coordinates": [128.4681742, 34.8843434]}, "properties": {"name": "새통영교회", "address": "(53024) 경남 통영시 연기길 10-6", "members_num": 20.0}}, {"type": "Feature", "geometry": {"type": "Point", "coordinates": [128.8089749, 35.5706936]}, "properties": {"name": "별빛교회(기성)", "address": "(50410) 경남 밀양시 상동면 상동로 1303", "members_num": 25.0}}, {"type": "Feature", "geometry": {"type": "Point", "coordinates": [128.1769531, 36.5712027]}, "properties": {"name": "함창교회", "address": "(37118) 경북 상주시 함창읍 구향로 114-2", "members_num": 70.0}}, {"type": "Feature", "geometry": {"type": "Point", "coordinates": [129.466876, 36.758588]}, "properties": {"name": "구산침례교회", "address": "(36354) 경북 울진군 기성면 구산길 113-4", "members_num": 19.0}}, {"type": "Feature", "geometry": {"type": "Point", "coordinates": [127.8107314, 34.8534808]}, "properties": {"name": "순복음남해교회", "address": "(52409) 경남 남해군 서면 남서대로 2309번길 33-17", "members_num": 17.0}}, {"type": "Feature", "geometry": {"type": "Point", "coordinates": [128.6298428, 34.87802910000001]}, "properties": {"name": "극동교회", "address": "(53288) 경남 거제시 경남 거제시 거제중앙로 1764", "members_num": 70.0}}, {"type": "Feature", "geometry": {"type": "Point", "coordinates": [129.4008918, 35.9666544]}, "properties": {"name": "원동꿈의교회", "address": "(37883) 경북 포항시 남구 원동로 41-19, 3층", "members_num": 5.0}}, {"type": "Feature", "geometry": {"type": "Point", "coordinates": [128.2205458, 36.6455388]}, "properties": {"name": "구산교회", "address": "(36928) 경북 문경시 호계면 부천로 330-5번지", "members_num": 30.0}}, {"type": "Feature", "geometry": {"type": "Point", "coordinates": [128.6182969, 35.2395754]}, "properties": {"name": "제5792부대벧엘교회", "address": "(51403) 경남 창원시 의창구 창원대로204번길 52", "members_num": 30.0}}, {"type": "Feature", "geometry": {"type": "Point", "coordinates": [128.1996586, 36.1754247]}, "properties": {"name": "광천교회", "address": "(39514) 경북 김천시 광한1길296", "members_num": 30.0}}, {"type": "Feature", "geometry": {"type": "Point", "coordinates": [128.2010891, 36.5959247]}, "properties": {"name": "문경영안교회", "address": "(36911) 경북 문경시 중앙6길 16 3층", "members_num": 20.0}}, {"type": "Feature", "geometry": {"type": "Point", "coordinates": [128.8381186, 36.2341489]}, "properties": {"name": "신흥교회", "address": "(37348) 경북 의성군 춘산면 금성현서리1645", "members_num": 15.0}}, {"type": "Feature", "geometry": {"type": "Point", "coordinates": [129.3560133, 35.6010685]}, "properties": {"name": "울산송정교회", "address": "(44238) 울산 북구 지당2길4-1", "members_num": 30.0}}, {"type": "Feature", "geometry": {"type": "Point", "coordinates": [128.4269069, 36.1042889]}, "properties": {"name": "구미소망교회", "address": "(39434) 경북 구미시 여헌로32-27", "members_num": 20.0}}, {"type": "Feature", "geometry": {"type": "Point", "coordinates": [129.0693053, 35.2031405]}, "properties": {"name": "큰사랑교회", "address": "(47837) 부산 동래구 아시아드대로 220번길 49", "members_num": 55.0}}, {"type": "Feature", "geometry": {"type": "Point", "coordinates": [128.5505739, 35.838176]}, "properties": {"name": "창성교회", "address": "(42681) 대구 달서구 대명천로75", "members_num": 80.0}}, {"type": "Feature", "geometry": {"type": "Point", "coordinates": [128.7993288, 35.2086201]}, "properties": {"name": "세우는교회", "address": "(50990) 경남 김해시 월산로162 2동204호", "members_num": 20.0}}, {"type": "Feature", "geometry": {"type": "Point", "coordinates": [128.6292689, 35.2661104]}, "properties": {"name": "창원사랑의교회", "address": "(51202) 경남 창원시 의창구 읍성로 95", "members_num": 60.0}}, {"type": "Feature", "geometry": {"type": "Point", "coordinates": [128.1573435, 34.9206011]}, "properties": {"name": "월흥교회", "address": "(52963) 경남 고성군 하이면 월흥3길 234", "members_num": 40.0}}, {"type": "Feature", "geometry": {"type": "Point", "coordinates": [129.0929145, 35.2571723]}, "properties": {"name": "부곡순복음교회", "address": "(46249) 부산 금정구 중앙대로 1944번길 29 2층", "members_num": 30.0}}, {"type": "Feature", "geometry": {"type": "Point", "coordinates": [128.314161, 36.1538436]}, "properties": {"name": "한생명교회", "address": "(39207) 경북 구미시 봉곡북로92-1 정성빌딩 3층", "members_num": 20.0}}, {"type": "Feature", "geometry": {"type": "Point", "coordinates": [128.0839497, 35.196546]}, "properties": {"name": "진주교회", "address": "(52753) 경남 진주시 촉석로 201번길8-1", "members_num": 500.0}}, {"type": "Feature", "geometry": {"type": "Point", "coordinates": [129.0708654, 35.1375316]}, "properties": {"name": "문현중앙교회", "address": "(48415) 부산 남구 고동골로 5, 문현중앙교회", "members_num": 220.0}}, {"type": "Feature", "geometry": {"type": "Point", "coordinates": [128.6913176, 35.1603246]}, "properties": {"name": "진해소망교회", "address": "(51581) 경남 창원시 진해구 병암북로 4번길 7", "members_num": 150.0}}, {"type": "Feature", "geometry": {"type": "Point", "coordinates": [128.5417577, 35.9108341]}, "properties": {"name": "엠마오교회", "address": "(41485) 대구 북구 매천로동17길 73", "members_num": 130.0}}, {"type": "Feature", "geometry": {"type": "Point", "coordinates": [128.1552798, 36.4106458]}, "properties": {"name": "중부교회", "address": "(37210) 경북 상주시 신서문1길 101", "members_num": 60.0}}, {"type": "Feature", "geometry": {"type": "Point", "coordinates": [129.0555851, 35.1403897]}, "properties": {"name": "구세군부산교회", "address": "(48723) 부산 동구 범곡로 29", "members_num": 40.0}}, {"type": "Feature", "geometry": {"type": "Point", "coordinates": [128.7241039, 35.29998440000001]}, "properties": {"name": "임마누엘중흥교회", "address": "(50867) 경남 김해시 진영읍 진영로 169-1 2층", "members_num": 15.0}}, {"type": "Feature", "geometry": {"type": "Point", "coordinates": [128.5548569, 35.8405605]}, "properties": {"name": "예송교회", "address": "(42679) 대구 달서구 성당동 380-9", "members_num": 5.0}}, {"type": "Feature", "geometry": {"type": "Point", "coordinates": [128.7265049, 35.8708418]}, "properties": {"name": "신서행복한교회", "address": "(41083) 대구 동구 안심로 389-3 더블럭A동 206호", "members_num": 15.0}}, {"type": "Feature", "geometry": {"type": "Point", "coordinates": [128.5999727, 35.3869568]}, "properties": {"name": "명촌교회", "address": "(51100) 경남 창원시 의창구 북면 외산로 368-17", "members_num": 30.0}}, {"type": "Feature", "geometry": {"type": "Point", "coordinates": [129.019297, 35.26786]}, "properties": {"name": "임마누엘교회", "address": "(46510) 부산 북구 효열로268. 104동1410호", "members_num": 25.0}}, {"type": "Feature", "geometry": {"type": "Point", "coordinates": [128.6455684, 35.3596729]}, "properties": {"name": "본포교회", "address": "(51114) 경남 창원시 의창구 동읍 신촌본포로442번길 13-8", "members_num": 30.0}}, {"type": "Feature", "geometry": {"type": "Point", "coordinates": [128.6516774, 34.8603933]}, "properties": {"name": "합동", "address": "(53297) 경남 거제시 수양로14", "members_num": 40.0}}, {"type": "Feature", "geometry": {"type": "Point", "coordinates": [129.1639225, 35.3387132]}, "properties": {"name": "뜻이룸교회", "address": "(우편번호 46008) 부산 기장군 정관1로18, 이지더원 상가122동 101호", "members_num": 10.0}}, {"type": "Feature", "geometry": {"type": "Point", "coordinates": [129.3261463, 36.4311064]}, "properties": {"name": "오천교회", "address": "(36446) 경북 영덕군 지품면 오천2길 10-1 오천교회", "members_num": 50.0}}, {"type": "Feature", "geometry": {"type": "Point", "coordinates": [129.119532, 35.200935]}, "properties": {"name": "반여중앙교회", "address": "(48037) 부산 해운대구 선수촌로 78번길 7 반여중앙교회", "members_num": 50.0}}, {"type": "Feature", "geometry": {"type": "Point", "coordinates": [128.4887606, 36.5761227]}, "properties": {"name": "새움교회", "address": "(36849) 경북 예천군 호명읍 새움3로16 701호 새움교회", "members_num": 40.0}}, {"type": "Feature", "geometry": {"type": "Point", "coordinates": [129.3082331, 35.5396661]}, "properties": {"name": "울산남교회", "address": "(44672) 울산 남구 봉월로70번길 27", "members_num": 200.0}}, {"type": "Feature", "geometry": {"type": "Point", "coordinates": [129.0424616, 36.2866813]}, "properties": {"name": "성광교회", "address": "(37456) 경북 청송군 현동면 새마을로 5492", "members_num": 20.0}}, {"type": "Feature", "geometry": {"type": "Point", "coordinates": [128.4912432, 35.3679151]}, "properties": {"name": "향촌교회", "address": "(52003) 경남 함안군 칠서면 향촌길 133~14", "members_num": 50.0}}, {"type": "Feature", "geometry": {"type": "Point", "coordinates": [129.1018532, 35.1690857]}, "properties": {"name": "주사랑교회", "address": "(48238) 부산 수영구 연수로310번길 74 상가", "members_num": 20.0}}, {"type": "Feature", "geometry": {"type": "Point", "coordinates": [129.1522366, 35.391126]}, "properties": {"name": "주진교회", "address": "(50520) 경남 양산시 주진1길 51", "members_num": 60.0}}, {"type": "Feature", "geometry": {"type": "Point", "coordinates": [129.1388842, 35.603776]}, "properties": {"name": "평리교회", "address": "(44935) 울산 울주군 언양읍 괴말길 33", "members_num": 80.0}}, {"type": "Feature", "geometry": {"type": "Point", "coordinates": [128.8800907, 35.0871904]}, "properties": {"name": "열방교회", "address": "(46759) 부산 강서구 신호산단3로 66. 503호", "members_num": 5.0}}, {"type": "Feature", "geometry": {"type": "Point", "coordinates": [128.4008438, 34.8269706]}, "properties": {"name": "남부교회", "address": "(650-803) 경남 통영시 미우지5길 40", "members_num": 50.0}}, {"type": "Feature", "geometry": {"type": "Point", "coordinates": [128.8065708, 35.1898719]}, "properties": {"name": "장유제일성결교회", "address": "(51002) 경남 김해시 번화2로 6. A동 B1", "members_num": 0.0}}, {"type": "Feature", "geometry": {"type": "Point", "coordinates": [129.3509477, 36.01589670000001]}, "properties": {"name": "포항대광교회", "address": "(37758) 경북 포항시 북구 상대로 46", "members_num": 70.0}}, {"type": "Feature", "geometry": {"type": "Point", "coordinates": [128.6417371, 35.876929]}, "properties": {"name": "동대구성결교회", "address": "(41240) 대구 동구 화랑로 25길 56", "members_num": 50.0}}, {"type": "Feature", "geometry": {"type": "Point", "coordinates": [128.6750093, 35.3360541]}, "properties": {"name": "합산교회", "address": "(51125) 경남 창원시 의창구 동읍 죽동길25번길51", "members_num": 50.0}}, {"type": "Feature", "geometry": {"type": "Point", "coordinates": [129.0105935, 35.3146303]}, "properties": {"name": "함께하는교회", "address": "(삼융프라자 502호) 경남 양산시 경남 양산시 물금읍 야리4길7", "members_num": 8.0}}, {"type": "Feature", "geometry": {"type": "Point", "coordinates": [128.5952596, 35.8371576]}, "properties": {"name": "대구평강교회", "address": "(42508) 대구 남구 삼정2길", "members_num": 800.0}}, {"type": "Feature", "geometry": {"type": "Point", "coordinates": [129.1792833, 35.1667183]}, "properties": {"name": "해운대제일교회", "address": "(48112) 부산 해운대구 세실로19 103동1402호", "members_num": 0.0}}, {"type": "Feature", "geometry": {"type": "Point", "coordinates": [129.183054, 35.3229893]}, "properties": {"name": "향기교회", "address": "(46022) 부산 기장군 정관덕산길 29", "members_num": 20.0}}, {"type": "Feature", "geometry": {"type": "Point", "coordinates": [128.6798043, 35.0102678]}, "properties": {"name": "송진교회", "address": "(53200) 경남 거제시 장목면 송진3길 2-6", "members_num": 23.0}}, {"type": "Feature", "geometry": {"type": "Point", "coordinates": [129.2085163, 35.2429454]}, "properties": {"name": "기장제일교회", "address": "(46068) 부산 기장군 기장읍 차성서로 101번길, 18-8", "members_num": 45.0}}, {"type": "Feature", "geometry": {"type": "Point", "coordinates": [129.3509477, 36.01589670000001]}, "properties": {"name": "포항대광교회", "address": "(37758) 경북 포항시 북구 경북 포항시 북구 상대로 46", "members_num": 100.0}}, {"type": "Feature", "geometry": {"type": "Point", "coordinates": [128.1935887, 36.1206566]}, "properties": {"name": "다수교회", "address": "(39660) 경북 김천시 용전3로24", "members_num": 110.0}}, {"type": "Feature", "geometry": {"type": "Point", "coordinates": [128.5509094, 36.9006988]}, "properties": {"name": "태장교회", "address": "(36015) 경북 영주시 순흥면 태장로 27-2 태장교회", "members_num": 15.0}}, {"type": "Feature", "geometry": {"type": "Point", "coordinates": [128.2220836, 35.3283975]}, "properties": {"name": "반석교회", "address": "(52133) 경남 의령군 가례면 홍의로6길 44", "members_num": 1.0}}, {"type": "Feature", "geometry": {"type": "Point", "coordinates": [128.2155556, 35.8287592]}, "properties": {"name": "빛과소금교회", "address": "(40064) 경북 성주군 수륜면 수륜길63-1", "members_num": 20.0}}, {"type": "Feature", "geometry": {"type": "Point", "coordinates": [128.6408317, 35.8858335]}, "properties": {"name": "아양교회", "address": "(41169) 대구 동구 아양로52길 32", "members_num": 250.0}}, {"type": "Feature", "geometry": {"type": "Point", "coordinates": [127.8425727, 35.3553722]}, "properties": {"name": "홍계교회", "address": "(52232) 경남 산청군 삼장면 친환경로985번길36", "members_num": 15.0}}, {"type": "Feature", "geometry": {"type": "Point", "coordinates": [129.2300606, 35.8752923]}, "properties": {"name": "경주동일교회", "address": "(38092) 경북 경주시 승삼남길 15", "members_num": 40.0}}, {"type": "Feature", "geometry": {"type": "Point", "coordinates": [128.1893598, 36.7989179]}, "properties": {"name": "김원환", "address": "(36911) 경북 문경시 문경읍 중평큰마길 9-5", "members_num": 20.0}}, {"type": "Feature", "geometry": {"type": "Point", "coordinates": [128.3952583, 34.8223597]}, "properties": {"name": "베다니교회", "address": "(53068) 경남 통영시 광바우길 12", "members_num": 30.0}}, {"type": "Feature", "geometry": {"type": "Point", "coordinates": [129.2631395, 35.5562297]}, "properties": {"name": "더세움교회", "address": "(44620) 울산 남구 울밀로 2881 강변그린빌딩 201호", "members_num": 30.0}}, {"type": "Feature", "geometry": {"type": "Point", "coordinates": [129.1063692, 35.2025142]}, "properties": {"name": "샘터교회", "address": "(47775) 부산 동래구 명안로 72번길 42 (명장동)", "members_num": 150.0}}, {"type": "Feature", "geometry": {"type": "Point", "coordinates": [129.3813523, 36.0651648]}, "properties": {"name": "주사랑침례교회", "address": "(37611) 경북 포항시 북구 삼흥로 18번길 14", "members_num": 20.0}}, {"type": "Feature", "geometry": {"type": "Point", "coordinates": [129.2987269, 35.540187]}, "properties": {"name": "축복교회", "address": "(44651) 울산 남구 봉월로67번길63 오성A107호", "members_num": 30.0}}, {"type": "Feature", "geometry": {"type": "Point", "coordinates": [128.147639, 36.2235915]}, "properties": {"name": "남곡교회", "address": "(39507) 경북 김천시 감문면 남곡리길 308-58", "members_num": 40.0}}, {"type": "Feature", "geometry": {"type": "Point", "coordinates": [128.6192865, 36.800752]}, "properties": {"name": "신광교회", "address": "(36132) 경북 영주시 지천로2번길 21-9", "members_num": 400.0}}, {"type": "Feature", "geometry": {"type": "Point", "coordinates": [128.4201102, 36.1027379]}, "properties": {"name": "대구극동방송구미본부", "address": "(39397) 경북 구미시 인동남길 14-1", "members_num": 1.0}}, {"type": "Feature", "geometry": {"type": "Point", "coordinates": [128.6185531, 35.8608116]}, "properties": {"name": "동성교회", "address": "(42016) 대구 수성구 들안로70길12", "members_num": 150.0}}, {"type": "Feature", "geometry": {"type": "Point", "coordinates": [128.0223808, 36.192363]}, "properties": {"name": "통합", "address": "(39560) 경북 김천시 경북 김천시봉산면 광천2길325", "members_num": 15.0}}, {"type": "Feature", "geometry": {"type": "Point", "coordinates": [129.2822804, 35.335914]}, "properties": {"name": "월내좋은교회", "address": "(46035) 부산 기장군 장안읍 고무로 287-20", "members_num": 0.0}}, {"type": "Feature", "geometry": {"type": "Point", "coordinates": [128.9040846, 35.2336679]}, "properties": {"name": "새로운교회", "address": "(50924) 경남 김해시 김해대로2541번길 57", "members_num": 11.0}}, {"type": "Feature", "geometry": {"type": "Point", "coordinates": [129.3440318, 35.5516308]}, "properties": {"name": "울산벧엘교회", "address": "(44504) 울산 중구 내황5길 28", "members_num": 100.0}}, {"type": "Feature", "geometry": {"type": "Point", "coordinates": [129.0417807, 35.0843986]}, "properties": {"name": "부산바울교회", "address": "(49079) 부산 영도구 해님 2길 3", "members_num": 70.0}}, {"type": "Feature", "geometry": {"type": "Point", "coordinates": [129.1212846, 35.1960854]}, "properties": {"name": "주님이세우시는교회", "address": "(48039) 부산 해운대구 반여로 43. 5층", "members_num": 40.0}}, {"type": "Feature", "geometry": {"type": "Point", "coordinates": [128.4875764, 36.5543308]}, "properties": {"name": "도양교회", "address": "(36760) 경북 안동시 풍천면 원도양길 27-11 도양교회", "members_num": 33.0}}, {"type": "Feature", "geometry": {"type": "Point", "coordinates": [128.4219763, 36.50836110000001]}, "properties": {"name": "쌍호교회", "address": "(37305) 경북 의성군 안사면 쌍호2길 16-9", "members_num": 10.0}}, {"type": "Feature", "geometry": {"type": "Point", "coordinates": [129.1644213, 35.410442]}, "properties": {"name": "에덴교회", "address": "(50513) 경남 양산시 소주로7~11", "members_num": 20.0}}, {"type": "Feature", "geometry": {"type": "Point", "coordinates": [128.6280571, 35.8843427]}, "properties": {"name": "시온의영광교회", "address": "(41225) 대구 동구 아양로 24길 13", "members_num": 15.0}}, {"type": "Feature", "geometry": {"type": "Point", "coordinates": [128.1985327, 36.5899473]}, "properties": {"name": "새소망교회", "address": "(36948) 경북 문경시 신흥로108", "members_num": 30.0}}, {"type": "Feature", "geometry": {"type": "Point", "coordinates": [129.3074348, 36.4296902]}, "properties": {"name": "신양교회", "address": "(36446) 경북 영덕군 지품면 팔각산로 2256ㅡ13", "members_num": 10.0}}, {"type": "Feature", "geometry": {"type": "Point", "coordinates": [128.7528678, 35.1049617]}, "properties": {"name": "선한빛교회", "address": "(51617) 경남 창원시 진해구 웅천동로 106번길19 에코프라자 405호", "members_num": 20.0}}, {"type": "Feature", "geometry": {"type": "Point", "coordinates": [129.3638377, 35.9798326]}, "properties": {"name": "이음교회", "address": "(37869) 경북 포항시 남구 경상북도 포항시 남구 대송면 제내길75번길 19-8", "members_num": 11.0}}, {"type": "Feature", "geometry": {"type": "Point", "coordinates": [128.3808669, 35.3895391]}, "properties": {"name": "칠원교회", "address": "(52117) 경남 의령군 지정면 봉곡리 1074-2", "members_num": 250.0}}, {"type": "Feature", "geometry": {"type": "Point", "coordinates": [128.6158076, 35.8604847]}, "properties": {"name": "삼덕교회", "address": "(42006) 대구 수성구 수성로400", "members_num": 2500.0}}, {"type": "Feature", "geometry": {"type": "Point", "coordinates": [128.5623261, 35.1822785]}, "properties": {"name": "마산중앙감리교회", "address": "(51742) 경남 창원시 마산합포구 월영동북로 9", "members_num": 400.0}}, {"type": "Feature", "geometry": {"type": "Point", "coordinates": [128.9675725, 35.0554103]}, "properties": {"name": "찬양이넘치는교회", "address": "(49495) 부산 사하구 윤공단로25-3 다대동", "members_num": 100.0}}, {"type": "Feature", "geometry": {"type": "Point", "coordinates": [128.6956061, 35.8693554]}, "properties": {"name": "UTCC대구공동체", "address": "(41122) 대구 동구 율하동로17길 56-1, 501호", "members_num": 10.0}}, {"type": "Feature", "geometry": {"type": "Point", "coordinates": [128.3227201, 35.466852]}, "properties": {"name": "부림교회", "address": "(52103) 경남 의령군 경남 의령군 부림면 한지35길 16-7 (신반리)", "members_num": 6.0}}, {"type": "Feature", "geometry": {"type": "Point", "coordinates": [129.4306791, 35.5142746]}, "properties": {"name": "울산전하교회", "address": "(44034) 울산 동구 바드래길29", "members_num": 450.0}}, {"type": "Feature", "geometry": {"type": "Point", "coordinates": [128.5536761, 35.8689289]}, "properties": {"name": "녹원교회", "address": "(41834) 대구 서구 국채보상로206(평리동)", "members_num": 30.0}}, {"type": "Feature", "geometry": {"type": "Point", "coordinates": [128.4178776, 34.8821888]}, "properties": {"name": "예안교회", "address": "(53019) 경남 통영시 광도면 죽림3로36 신원아르시스상가 2층", "members_num": 45.0}}, {"type": "Feature", "geometry": {"type": "Point", "coordinates": [128.0146805, 35.3808687]}, "properties": {"name": "단계중앙교회", "address": "(52257) 경남 산청군 신등면 신차로567", "members_num": 40.0}}, {"type": "Feature", "geometry": {"type": "Point", "coordinates": [128.9906047, 35.3087007]}, "properties": {"name": "예심교회", "address": "(50656) 경남 양산시 물금읍 청운로41 107-1008호", "members_num": 8.0}}, {"type": "Feature", "geometry": {"type": "Point", "coordinates": [129.0922549, 35.2652129]}, "properties": {"name": "우림교회", "address": "(46224) 부산 금정구 중앙대로 2027 새생명빌딩 4층", "members_num": 17.0}}, {"type": "Feature", "geometry": {"type": "Point", "coordinates": [128.2227016, 35.3332463]}, "properties": {"name": "재건대천교회", "address": "(52133) 경남 의령군 가례면 홍의로 185", "members_num": 25.0}}, {"type": "Feature", "geometry": {"type": "Point", "coordinates": [129.1021103, 35.2186403]}, "properties": {"name": "협력교회", "address": "(46318) 부산 금정구 서부로 52번길 26", "members_num": 20.0}}, {"type": "Feature", "geometry": {"type": "Point", "coordinates": [129.3310713, 35.5675223]}, "properties": {"name": "늘푸른교회", "address": "(상가2층) 울산 중구 도화골길28", "members_num": 30.0}}, {"type": "Feature", "geometry": {"type": "Point", "coordinates": [128.5488401, 35.9463855]}, "properties": {"name": "주찬양교회", "address": "(41439) 대구 북구 칠곡중앙대로559", "members_num": 45.0}}, {"type": "Feature", "geometry": {"type": "Point", "coordinates": [128.6992193, 35.6771388]}, "properties": {"name": "유등교회", "address": "(38326) 경북 청도군 화양읍 유등길 38-5", "members_num": 60.0}}, {"type": "Feature", "geometry": {"type": "Point", "coordinates": [129.0867114, 35.11541649999999]}, "properties": {"name": "깊고넓은", "address": "(48549) 부산 남구 양지골로 134, 108동 1103호", "members_num": 30.0}}, {"type": "Feature", "geometry": {"type": "Point", "coordinates": [129.1274975, 35.1883476]}, "properties": {"name": "재송성결교회", "address": "(48053) 부산 해운대구 재반로 112번길 10", "members_num": 60.0}}, {"type": "Feature", "geometry": {"type": "Point", "coordinates": [129.2085366, 35.8487122]}, "properties": {"name": "경주제삼교회", "address": "(38141) 경북 경주시 서부동 19-2", "members_num": 250.0}}, {"type": "Feature", "geometry": {"type": "Point", "coordinates": [129.3188429, 35.5769741]}, "properties": {"name": "울산동성교회", "address": "(44417) 울산 중구 성안 8길 4", "members_num": 300.0}}, {"type": "Feature", "geometry": {"type": "Point", "coordinates": [128.7053833, 35.1413336]}, "properties": {"name": "남일교회", "address": "(51651) 경남 창원시 진해구 경남 창원시 진해구 동진로 177,402호(풍호동 샛별마을아파트)", "members_num": 80.0}}, {"type": "Feature", "geometry": {"type": "Point", "coordinates": [128.4284537, 36.1012268]}, "properties": {"name": "주영광교회", "address": "(39437) 경북 구미시 인동17길29 대동빌딩3층", "members_num": 15.0}}, {"type": "Feature", "geometry": {"type": "Point", "coordinates": [128.4337978, 36.0287104]}, "properties": {"name": "반계교회", "address": "(39848) 경북 칠곡군 석적읍 반계1길 151", "members_num": 160.0}}, {"type": "Feature", "geometry": {"type": "Point", "coordinates": [128.693493, 35.8698887]}, "properties": {"name": "대구드림교회", "address": "(41122) 대구 동구 율하동로23길 84 (2층)", "members_num": 10.0}}, {"type": "Feature", "geometry": {"type": "Point", "coordinates": [128.1192653, 36.6920846]}, "properties": {"name": "마성교회", "address": "(36922) 경북 문경시 마성면 소야1길 9-5", "members_num": 60.0}}, {"type": "Feature", "geometry": {"type": "Point", "coordinates": [128.5201569, 35.8213487]}, "properties": {"name": "기쁨충성교회", "address": "(42755) 대구 달서구 월암로4길8 솔타워 5층", "members_num": 25.0}}, {"type": "Feature", "geometry": {"type": "Point", "coordinates": [128.5772837, 35.8483789]}, "properties": {"name": "행복한반석교회", "address": "(42457) 대구 남구 양지로 6길 35~2", "members_num": 35.0}}, {"type": "Feature", "geometry": {"type": "Point", "coordinates": [128.4094682, 35.5088077]}, "properties": {"name": "마수원교회", "address": "(50305) 경남 창녕군 창녕군 유어면 마수원길21-4", "members_num": 7.0}}, {"type": "Feature", "geometry": {"type": "Point", "coordinates": [129.0880787, 36.630185]}, "properties": {"name": "감천교회", "address": "(36533) 경북 영양군 영양로 1183", "members_num": 3.0}}, {"type": "Feature", "geometry": {"type": "Point", "coordinates": [128.6797808, 35.2482275]}, "properties": {"name": "우림교회", "address": "(51143) 경남 창원시 의창구 사림로47", "members_num": 7.0}}, {"type": "Feature", "geometry": {"type": "Point", "coordinates": [129.1656246, 35.29003489999999]}, "properties": {"name": "철마중앙교회", "address": "(46050) 부산 기장군 철마면 중리1길 22-23", "members_num": 12.0}}, {"type": "Feature", "geometry": {"type": "Point", "coordinates": [128.2493565, 35.4471899]}, "properties": {"name": "궁유교회", "address": "(52112) 경남 의령군 궁류면 궁류로4길 4-3 궁유교회", "members_num": 15.0}}, {"type": "Feature", "geometry": {"type": "Point", "coordinates": [128.4211087, 34.8459396]}, "properties": {"name": "에셀나무교회", "address": "(53061) 경남 통영시 창동3길 24-10", "members_num": 28.0}}, {"type": "Feature", "geometry": {"type": "Point", "coordinates": [128.6779546, 35.2474654]}, "properties": {"name": "우림교회", "address": "(51143) 경남 창원시 의창구 사림로 47 사림프라자 309호", "members_num": 6.0}}, {"type": "Feature", "geometry": {"type": "Point", "coordinates": [129.3964467, 36.0857708]}, "properties": {"name": "양덕드림교회", "address": "(37587) 경북 포항시 북구 천마로 103 1층 카피엔드", "members_num": 20.0}}, {"type": "Feature", "geometry": {"type": "Point", "coordinates": [128.5893048, 35.8632719]}, "properties": {"name": "더순종교회", "address": "(41965) 대구 중구 중구 남산동 580-5 2층", "members_num": 12.0}}, {"type": "Feature", "geometry": {"type": "Point", "coordinates": [128.3691475, 36.1697916]}, "properties": {"name": "우린교회", "address": "(39152) 경북 구미시 송평구길 76", "members_num": 40.0}}, {"type": "Feature", "geometry": {"type": "Point", "coordinates": [129.1283429, 36.7045127]}, "properties": {"name": "일월교회", "address": "(36515) 경북 영양군 일월면 향교길43 일월교회", "members_num": 25.0}}, {"type": "Feature", "geometry": {"type": "Point", "coordinates": [128.6913606, 35.4464301]}, "properties": {"name": "봉황교회", "address": "(50447) 경남 밀양시 초동면 신연로 348", "members_num": 50.0}}, {"type": "Feature", "geometry": {"type": "Point", "coordinates": [128.9820943, 35.0612833]}, "properties": {"name": "주님의교회", "address": "(49521) 부산 사하구 다송로68번길32", "members_num": 25.0}}, {"type": "Feature", "geometry": {"type": "Point", "coordinates": [128.5733511, 35.88639149999999]}, "properties": {"name": "새론중앙교회", "address": "(41716) 대구 서구 대구시 서구 원대동3가 1401 서대구센트럴자이 오피스텔 301동 304호", "members_num": 2.0}}, {"type": "Feature", "geometry": {"type": "Point", "coordinates": [128.8062215, 35.2064631]}, "properties": {"name": "더풍성한교회", "address": "(50976) 경남 김해시 장유로188 센스필빌딩 401호", "members_num": 18.0}}, {"type": "Feature", "geometry": {"type": "Point", "coordinates": [129.4170902, 35.4889623]}, "properties": {"name": "방어진순복음교회", "address": "(44096) 울산 동구 울산광역시 동구 방어진순환도로496 오션빌리지6차 3층 방어진순복음교회", "members_num": 14.0}}, {"type": "Feature", "geometry": {"type": "Point", "coordinates": [129.3917116, 36.0831044]}, "properties": {"name": "주행복한교회", "address": "(37582) 경북 포항시 북구 장성로77", "members_num": 12.0}}, {"type": "Feature", "geometry": {"type": "Point", "coordinates": [128.7306715, 35.8137146]}, "properties": {"name": "주신교회", "address": "(38687) 경북 경산시 경산로13길23", "members_num": 15.0}}, {"type": "Feature", "geometry": {"type": "Point", "coordinates": [129.2093456, 35.4887962]}, "properties": {"name": "울산호렙산기도원", "address": "(44962) 울산 울주군 웅촌면웅촌로 607-21", "members_num": 15.0}}, {"type": "Feature", "geometry": {"type": "Point", "coordinates": [129.3147272, 35.5592293]}, "properties": {"name": "우리교회", "address": "(44467) 울산 중구 명륜로104-1 (3층)", "members_num": 4.0}}, {"type": "Feature", "geometry": {"type": "Point", "coordinates": [129.1640688, 35.2266952]}, "properties": {"name": "반송온누리교회", "address": "(48013) 부산 해운대구 신반송로 80", "members_num": 50.0}}, {"type": "Feature", "geometry": {"type": "Point", "coordinates": [128.554333, 35.9515178]}, "properties": {"name": "예정교회", "address": "(41401) 대구 북구 칠곡중앙대로128길10-16", "members_num": 0.0}}, {"type": "Feature", "geometry": {"type": "Point", "coordinates": [129.3188429, 35.5769741]}, "properties": {"name": "울산동성교회", "address": "(44417) 울산 중구 성안 8길 4", "members_num": 450.0}}, {"type": "Feature", "geometry": {"type": "Point", "coordinates": [128.3825943, 36.2041043]}, "properties": {"name": "해평교회", "address": "(39154) 경북 구미시 해평면 강동로 1676-6", "members_num": 45.0}}, {"type": "Feature", "geometry": {"type": "Point", "coordinates": [129.2211994, 35.2396614]}, "properties": {"name": "기장새삶교회", "address": "(46080) 부산 기장군 청강로 91번길 8", "members_num": 20.0}}, {"type": "Feature", "geometry": {"type": "Point", "coordinates": [128.9636905, 35.0805281]}, "properties": {"name": "열린문교회", "address": "(49477) 부산 사하구 하신중앙로17번길8", "members_num": 50.0}}, {"type": "Feature", "geometry": {"type": "Point", "coordinates": [129.0888612, 35.1257468]}, "properties": {"name": "백석", "address": "(48486) 부산 남구 석포로83번길10", "members_num": 20.0}}, {"type": "Feature", "geometry": {"type": "Point", "coordinates": [128.4018189, 35.2717178]}, "properties": {"name": "함안우리교회", "address": "(52043) 경남 함안군 가야읍 고분길 153-3", "members_num": 30.0}}, {"type": "Feature", "geometry": {"type": "Point", "coordinates": [129.0489944, 35.3616447]}, "properties": {"name": "예수나눔교회", "address": "(50570) 경남 양산시 북정 11길 9", "members_num": 60.0}}, {"type": "Feature", "geometry": {"type": "Point", "coordinates": [128.4775275, 35.3595681]}, "properties": {"name": "대치감리교회", "address": "(52009) 경남 함안군 칠서면 대치길53-14", "members_num": 15.0}}, {"type": "Feature", "geometry": {"type": "Point", "coordinates": [129.4024445, 36.5373921]}, "properties": {"name": "영해생명터교회", "address": "(36409) 경북 영덕군 영해면 벌영1길 32-10", "members_num": 30.0}}, {"type": "Feature", "geometry": {"type": "Point", "coordinates": [128.6077848, 35.8832095]}, "properties": {"name": "영광스러운교회", "address": "(41568) 대구 북구 대현로 75 3층", "members_num": 40.0}}, {"type": "Feature", "geometry": {"type": "Point", "coordinates": [129.0677289, 35.1565684]}, "properties": {"name": "순복음서면교회", "address": "(47302) 부산 부산진구 서전로 68번길7", "members_num": 20.0}}, {"type": "Feature", "geometry": {"type": "Point", "coordinates": [128.3521784, 36.0978606]}, "properties": {"name": "구미사랑의교회", "address": "(39331) 경북 구미시 박정희로19길 16", "members_num": 200.0}}, {"type": "Feature", "geometry": {"type": "Point", "coordinates": [128.9130544, 35.241656]}, "properties": {"name": "활천제일교회", "address": "(50822) 경남 김해시 활천로292", "members_num": 800.0}}, {"type": "Feature", "geometry": {"type": "Point", "coordinates": [129.0890903, 35.2420756]}, "properties": {"name": "성일교회", "address": "(46244) 부산 금정구 구서온천천로31", "members_num": 500.0}}, {"type": "Feature", "geometry": {"type": "Point", "coordinates": [128.4242252, 36.1357021]}, "properties": {"name": "한마음교회", "address": "(39190) 경북 구미시 옥계남로 69", "members_num": 30.0}}, {"type": "Feature", "geometry": {"type": "Point", "coordinates": [128.9208582, 35.8919973]}, "properties": {"name": "금호동부교회", "address": "(38883) 경북 영천시 금호읍 대곡길 31-11", "members_num": 50.0}}, {"type": "Feature", "geometry": {"type": "Point", "coordinates": [128.589025, 34.7614014]}, "properties": {"name": "쌍포교회", "address": "(53333) 경남 거제시 남부면 쌍근2길11-10", "members_num": 11.0}}, {"type": "Feature", "geometry": {"type": "Point", "coordinates": [128.9731864, 35.0583932]}, "properties": {"name": "대한예수교장로회(백석)", "address": "(49523) 부산 사하구 다대로529번길22 3층", "members_num": 5.0}}, {"type": "Feature", "geometry": {"type": "Point", "coordinates": [129.0948465, 35.188138]}, "properties": {"name": "대흥교회", "address": "(47555) 부산 연제구 연동로7번길25", "members_num": 120.0}}, {"type": "Feature", "geometry": {"type": "Point", "coordinates": [127.877136, 35.4135533]}, "properties": {"name": "산청제일교회", "address": "(52224) 경남 산청군 산엔청로 38-1", "members_num": 40.0}}, {"type": "Feature", "geometry": {"type": "Point", "coordinates": [128.5693052, 35.19834540000001]}, "properties": {"name": "동서교회", "address": "(51735) 경남 창원시 마산합포구 동서남 2길 100", "members_num": 70.0}}, {"type": "Feature", "geometry": {"type": "Point", "coordinates": [128.8009137, 35.8096178]}, "properties": {"name": "인흥교회", "address": "(38577) 경북 경산시 남산면인흥길26.인흥교회", "members_num": 18.0}}, {"type": "Feature", "geometry": {"type": "Point", "coordinates": [128.752735, 35.816107]}, "properties": {"name": "경산가나교회", "address": "(38593) 경북 경산시 장산로268", "members_num": 25.0}}, {"type": "Feature", "geometry": {"type": "Point", "coordinates": [128.6978211, 35.8690666]}, "properties": {"name": "시온교회", "address": "(41130) 대구 동구 율하동로19길 38 2층", "members_num": 15.0}}, {"type": "Feature", "geometry": {"type": "Point", "coordinates": [129.0466469, 35.0840931]}, "properties": {"name": "큰사랑교회", "address": "(49074) 부산 영도구 중복길111, 202호(팔공그린빌라상가)", "members_num": 25.0}}, {"type": "Feature", "geometry": {"type": "Point", "coordinates": [128.3338884, 36.1150063]}, "properties": {"name": "구미람원교회", "address": "(39291) 경북 구미시 형곡로7길11", "members_num": 13.0}}, {"type": "Feature", "geometry": {"type": "Point", "coordinates": [128.5482004, 35.51592249999999]}, "properties": {"name": "옥천교회", "address": "(50335) 경남 창녕군 창녕읍 담안길 23-2", "members_num": 25.0}}, {"type": "Feature", "geometry": {"type": "Point", "coordinates": [128.5400033, 35.8437052]}, "properties": {"name": "등대교회", "address": "(42658) 대구 달서구 장기로186 (3층)", "members_num": 70.0}}, {"type": "Feature", "geometry": {"type": "Point", "coordinates": [128.8268171, 35.9166412]}, "properties": {"name": "아가페교회", "address": "(38417) 경북 경산시 경산시하양읍동서리740_1청구타운상가", "members_num": 0.0}}, {"type": "Feature", "geometry": {"type": "Point", "coordinates": [128.0863673, 36.751384]}, "properties": {"name": "문경새재교회", "address": "(36919) 경북 문경시 문경읍 하푸실길 60-6", "members_num": 50.0}}, {"type": "Feature", "geometry": {"type": "Point", "coordinates": [128.6940924, 35.8429103]}, "properties": {"name": "독립", "address": "(42252) 대구 수성구 시지동247~8", "members_num": 200.0}}, {"type": "Feature", "geometry": {"type": "Point", "coordinates": [129.0789243, 35.1255565]}, "properties": {"name": "꽃동산교회", "address": "(48473) 부산 남구 유엔로1-1", "members_num": 11.0}}, {"type": "Feature", "geometry": {"type": "Point", "coordinates": [129.4072107, 35.9738371]}, "properties": {"name": "해맑은교회", "address": "(37880) 경북 포항시 남구 오천읍 하원로 36번길 24", "members_num": 15.0}}, {"type": "Feature", "geometry": {"type": "Point", "coordinates": [129.3574459, 36.0287347]}, "properties": {"name": "생명나무교회", "address": "(37683) 경북 포항시 북구 중흥로267번길40", "members_num": 3.0}}, {"type": "Feature", "geometry": {"type": "Point", "coordinates": [128.995962, 35.3149318]}, "properties": {"name": "양산우리들교회", "address": "(50654) 경남 양산시 물금읍 청운로 131, 부영2단지 상가 203호", "members_num": 10.0}}, {"type": "Feature", "geometry": {"type": "Point", "coordinates": [129.03849, 35.1244046]}, "properties": {"name": "진리교회", "address": "(48799) 부산 동구 홍곡남로 13-3", "members_num": 50.0}}, {"type": "Feature", "geometry": {"type": "Point", "coordinates": [128.5766761, 35.2345928]}, "properties": {"name": "산돌교회", "address": "(51303) 경남 창원시 마산회원구 석전동 9길 61", "members_num": 200.0}}, {"type": "Feature", "geometry": {"type": "Point", "coordinates": [128.6380641, 35.86467260000001]}, "properties": {"name": "동원교회", "address": "(42023) 대구 수성구 동원로 77", "members_num": 90.0}}, {"type": "Feature", "geometry": {"type": "Point", "coordinates": [128.334635, 36.1533735]}, "properties": {"name": "원호교회", "address": "(39148) 경북 구미시 문장로22길 56-30", "members_num": 300.0}}, {"type": "Feature", "geometry": {"type": "Point", "coordinates": [128.5655977, 35.8791529]}, "properties": {"name": "주사랑교회", "address": "(477118) 대구 서구 북비산로 296 302호", "members_num": 7.0}}, {"type": "Feature", "geometry": {"type": "Point", "coordinates": [128.4233731, 34.8487906]}, "properties": {"name": "영접교회", "address": "(53060) 경남 통영시 여황로344", "members_num": 100.0}}, {"type": "Feature", "geometry": {"type": "Point", "coordinates": [128.8652385, 35.2447179]}, "properties": {"name": "은혜교회", "address": "(50890) 경남 김해시 금관대로 1359번길14", "members_num": 30.0}}, {"type": "Feature", "geometry": {"type": "Point", "coordinates": [128.4933382, 35.9553999]}, "properties": {"name": "신동교회", "address": "(39864) 경북 칠곡군 신동로193", "members_num": 100.0}}, {"type": "Feature", "geometry": {"type": "Point", "coordinates": [128.5593764, 35.8660043]}, "properties": {"name": "방주교회", "address": "(41830) 대구 서구 평리로 337-1", "members_num": 25.0}}, {"type": "Feature", "geometry": {"type": "Point", "coordinates": [129.3614395, 36.0131092]}, "properties": {"name": "포항동일교회", "address": "(37829) 경북 포항시 남구 상대로 136 포항동일교회", "members_num": 550.0}}, {"type": "Feature", "geometry": {"type": "Point", "coordinates": [129.1494169, 35.2244406]}, "properties": {"name": "하늘문열린교회", "address": "(48019) 부산 해운대구 해운대구 아랫반송로 33-2 (반송동, 류소아과)3층", "members_num": 20.0}}, {"type": "Feature", "geometry": {"type": "Point", "coordinates": [129.0004453, 35.1012687]}, "properties": {"name": "주영교회", "address": "(49348) 부산 사하구 부산 사하구 사리로8번길 21 (괴정동)", "members_num": 70.0}}, {"type": "Feature", "geometry": {"type": "Point", "coordinates": [129.3038144, 35.7722977]}, "properties": {"name": "한동제일교회", "address": "(38130) 경북 경주시 구매3길 1-14", "members_num": 110.0}}, {"type": "Feature", "geometry": {"type": "Point", "coordinates": [128.8704677, 35.2523949]}, "properties": {"name": "지구촌교회", "address": "(50905) 경남 김해시 해반천로96", "members_num": 195.0}}, {"type": "Feature", "geometry": {"type": "Point", "coordinates": [128.5275339, 35.8849665]}, "properties": {"name": "상리교회", "address": "(41750) 대구 서구 가르뱅이로16길25", "members_num": 52.0}}, {"type": "Feature", "geometry": {"type": "Point", "coordinates": [128.9930883, 35.8526614]}, "properties": {"name": "상동교회", "address": "(38910) 경북 영천시 운북로 1212-11상동교회", "members_num": 25.0}}, {"type": "Feature", "geometry": {"type": "Point", "coordinates": [129.3199269, 35.3451275]}, "properties": {"name": "통합", "address": "(45014) 울산 울주군 서생면 신리길 97", "members_num": 330.0}}, {"type": "Feature", "geometry": {"type": "Point", "coordinates": [128.4309888, 34.8584369]}, "properties": {"name": "총신비젼선교센타", "address": "(53037) 경남 통영시 안개로34 2층", "members_num": 11.0}}, {"type": "Feature", "geometry": {"type": "Point", "coordinates": [129.0726241, 35.1887918]}, "properties": {"name": "하늘비전교회", "address": "(611808) 부산 연제구 월드컵대로 221 다우빌딩 2층", "members_num": 30.0}}, {"type": "Feature", "geometry": {"type": "Point", "coordinates": [128.5016789, 35.861145]}, "properties": {"name": "성서제일교회", "address": "(42604) 대구 달서구 선원로23길143", "members_num": 100.0}}, {"type": "Feature", "geometry": {"type": "Point", "coordinates": [129.4398213, 35.9875596]}, "properties": {"name": "영일만교회", "address": "(37926) 경북 포항시 남구 동해면 일월로56번길 15-1", "members_num": 300.0}}, {"type": "Feature", "geometry": {"type": "Point", "coordinates": [128.6354263, 35.8846637]}, "properties": {"name": "대구동문교회", "address": "(701-841) 대구 동구 아양로40길 30", "members_num": 350.0}}, {"type": "Feature", "geometry": {"type": "Point", "coordinates": [128.2202485, 34.99491]}, "properties": {"name": "망림교회", "address": "(52952) 경남 고성군 상리면 망림1길 37", "members_num": 50.0}}, {"type": "Feature", "geometry": {"type": "Point", "coordinates": [129.1653066, 35.3987636]}, "properties": {"name": "명동제일교회", "address": "(50536) 경남 양산시 명동1길 24", "members_num": 60.0}}, {"type": "Feature", "geometry": {"type": "Point", "coordinates": [128.6726317, 35.24613739999999]}, "properties": {"name": "창원하늘성서침례교회", "address": "(51147) 경남 창원시 의창구 봉곡로111번길 8, 4층", "members_num": 35.0}}, {"type": "Feature", "geometry": {"type": "Point", "coordinates": [128.4927265, 35.8541766]}, "properties": {"name": "성서남부교회", "address": "(25733) 대구 달서구 서당로7길 65", "members_num": 88.0}}, {"type": "Feature", "geometry": {"type": "Point", "coordinates": [127.8988069, 36.3803995]}, "properties": {"name": "양평교회", "address": "(37147) 경북 상주시 화동면 양지1길 40", "members_num": 40.0}}, {"type": "Feature", "geometry": {"type": "Point", "coordinates": [129.0833934, 35.2049791]}, "properties": {"name": "수안교회", "address": "(47808) 부산 동래구 충렬대로 237번길 57", "members_num": 300.0}}, {"type": "Feature", "geometry": {"type": "Point", "coordinates": [128.6533259, 36.9772177]}, "properties": {"name": "기독교한국침려회", "address": "(36004) 경북 영주시 부석면 부석로28-1", "members_num": 20.0}}, {"type": "Feature", "geometry": {"type": "Point", "coordinates": [128.8634931, 35.2559562]}, "properties": {"name": "푸른숲교회", "address": "(50883) 경남 김해시 김해대로1902번길 12-26", "members_num": 80.0}}, {"type": "Feature", "geometry": {"type": "Point", "coordinates": [129.2298313, 35.8828464]}, "properties": {"name": "경주예향교회", "address": "(380-69) 경북 경주시 용황로11길6-18", "members_num": 50.0}}, {"type": "Feature", "geometry": {"type": "Point", "coordinates": [128.0788498, 36.31475229999999]}, "properties": {"name": "인창교회", "address": "(37262) 경북 상주시 공성면 인창2길 130-2", "members_num": 15.0}}, {"type": "Feature", "geometry": {"type": "Point", "coordinates": [129.1057924, 35.1763216]}, "properties": {"name": "행복나무교회", "address": "(48204) 부산 수영구 과정로55번길 28", "members_num": 0.0}}, {"type": "Feature", "geometry": {"type": "Point", "coordinates": [129.0004453, 35.1012687]}, "properties": {"name": "주영교회", "address": "(49348) 부산 사하구 사리로8번길 21", "members_num": 70.0}}, {"type": "Feature", "geometry": {"type": "Point", "coordinates": [129.2286643, 35.2262861]}, "properties": {"name": "대항교회", "address": "(46079) 부산 기장군 기장읍 대변로 149", "members_num": 60.0}}, {"type": "Feature", "geometry": {"type": "Point", "coordinates": [128.1692763, 36.1718548]}, "properties": {"name": "덕촌교회", "address": "(39513) 경북 김천시 개령면 덕촌 2길 259-32", "members_num": 20.0}}, {"type": "Feature", "geometry": {"type": "Point", "coordinates": [129.3613137, 35.96973260000001]}, "properties": {"name": "포항송동교회", "address": "(37857) 경북 포항시 남구 대송면 장동홍계길6", "members_num": 200.0}}, {"type": "Feature", "geometry": {"type": "Point", "coordinates": [128.3072137, 36.155081]}, "properties": {"name": "구미한빛교회", "address": "(39205) 경북 구미시 봉곡북로9길3", "members_num": 30.0}}, {"type": "Feature", "geometry": {"type": "Point", "coordinates": [128.3888864, 35.7036677]}, "properties": {"name": "옥산교회", "address": "(40149) 경북 고령군 옥산교회", "members_num": 30.0}}, {"type": "Feature", "geometry": {"type": "Point", "coordinates": [128.3771883, 35.6464837]}, "properties": {"name": "답곡교회", "address": "(40153) 경북 고령군 우곡면 답곡1길 73-16", "members_num": 25.0}}, {"type": "Feature", "geometry": {"type": "Point", "coordinates": [128.4757913, 35.4759042]}, "properties": {"name": "장마제일교회", "address": "(50337) 경남 창녕군 장마면 계성장마로 35", "members_num": 10.0}}, {"type": "Feature", "geometry": {"type": "Point", "coordinates": [128.5576767, 35.1477369]}, "properties": {"name": "주내길교회", "address": "(51177) 경남 창원시 마산합포구 현동1길2 한성프라자 401호", "members_num": 25.0}}, {"type": "Feature", "geometry": {"type": "Point", "coordinates": [128.9895221, 35.0948841]}, "properties": {"name": "센터로교회", "address": "(49389) 부산 사하구 사하로 141번나길30", "members_num": 50.0}}, {"type": "Feature", "geometry": {"type": "Point", "coordinates": [129.0701927, 35.1991594]}, "properties": {"name": "아름다운교회", "address": "(47843) 부산 동래구 사직3동 127-1", "members_num": 150.0}}, {"type": "Feature", "geometry": {"type": "Point", "coordinates": [129.084286, 35.2310655]}, "properties": {"name": "뉴웨이브교회", "address": "(46288) 부산 금정구 부산대학로63번길 33", "members_num": 50.0}}, {"type": "Feature", "geometry": {"type": "Point", "coordinates": [127.7542693, 35.2950423]}, "properties": {"name": "중산교회", "address": "(52236) 경남 산청군 지리산대로475번길 9", "members_num": 17.0}}, {"type": "Feature", "geometry": {"type": "Point", "coordinates": [128.6284531, 35.8742445]}, "properties": {"name": "대구늘푸른교회", "address": "(41243) 대구 동구 동부로 28길 19", "members_num": 140.0}}, {"type": "Feature", "geometry": {"type": "Point", "coordinates": [128.7395242, 35.6446237]}, "properties": {"name": "신읍교회", "address": "(38344) 경북 청도군 청도읍 고수뒷길 20", "members_num": 80.0}}, {"type": "Feature", "geometry": {"type": "Point", "coordinates": [129.0411237, 35.1458756]}, "properties": {"name": "범내교회", "address": "(48700) 부산 동구 안창로72번길 10-5", "members_num": 60.0}}, {"type": "Feature", "geometry": {"type": "Point", "coordinates": [128.7564043, 35.5070216]}, "properties": {"name": "주님사랑교회", "address": "(50420) 경남 밀양시 밀양대로 2091", "members_num": 40.0}}, {"type": "Feature", "geometry": {"type": "Point", "coordinates": [129.4306791, 35.5142746]}, "properties": {"name": "전하교회", "address": "(44034) 울산 동구 바드래길29", "members_num": 600.0}}, {"type": "Feature", "geometry": {"type": "Point", "coordinates": [129.3573573, 35.5532643]}, "properties": {"name": "울산새빛교회", "address": "(44254) 울산 북구 명촌 11길13", "members_num": 65.0}}, {"type": "Feature", "geometry": {"type": "Point", "coordinates": [128.1681952, 35.8599993]}, "properties": {"name": "동원교회", "address": "(40061) 경북 성주군 가천면 동원2길 39", "members_num": 5.0}}, {"type": "Feature", "geometry": {"type": "Point", "coordinates": [128.8176814, 35.9017886]}, "properties": {"name": "주영광교회", "address": "(38440) 경북 경산시 진량읍 대학로 1385 2층", "members_num": 10.0}}, {"type": "Feature", "geometry": {"type": "Point", "coordinates": [129.1705398, 35.9922258]}, "properties": {"name": "옥산교회", "address": "(38000) 경북 경주시 안강읍 낙헌1길14", "members_num": 120.0}}, {"type": "Feature", "geometry": {"type": "Point", "coordinates": [129.2454951, 35.5679549]}, "properties": {"name": "소중한교회", "address": "(44922) 울산 울주군 범서읍 대리2길3-14", "members_num": 40.0}}, {"type": "Feature", "geometry": {"type": "Point", "coordinates": [129.3697703, 36.0331266]}, "properties": {"name": "포항회복교회", "address": "(37744) 경북 포항시 북구 죽도로 84-1 2층", "members_num": 15.0}}, {"type": "Feature", "geometry": {"type": "Point", "coordinates": [128.5083722, 35.317065]}, "properties": {"name": "명덕교회", "address": "(52018) 경남 함안군 칠서면 삼칠로 281 명덕교회", "members_num": 120.0}}, {"type": "Feature", "geometry": {"type": "Point", "coordinates": [129.1178455, 35.1959705]}, "properties": {"name": "예린교회", "address": "(48043) 부산 해운대구 선수촌로 43", "members_num": 200.0}}, {"type": "Feature", "geometry": {"type": "Point", "coordinates": [129.1448104, 35.1641119]}, "properties": {"name": "해운대신일교회", "address": "(48065) 부산 해운대구 해운대로 469번길 10", "members_num": 500.0}}, {"type": "Feature", "geometry": {"type": "Point", "coordinates": [128.6361954, 35.8213035]}, "properties": {"name": "사랑의제자교회", "address": "(42213) 대구 수성구 지범로22길 23 105동805호", "members_num": 6.0}}, {"type": "Feature", "geometry": {"type": "Point", "coordinates": [129.0622294, 35.0860694]}, "properties": {"name": "선한이웃교회", "address": "(49086) 부산 영도구 와치로 97", "members_num": 80.0}}, {"type": "Feature", "geometry": {"type": "Point", "coordinates": [129.2121482, 35.8508947]}, "properties": {"name": "경주성광교회", "address": "(38136) 경북 경주시 북문로85번길 10(성건동)", "members_num": 70.0}}, {"type": "Feature", "geometry": {"type": "Point", "coordinates": [128.5061717, 35.8012615]}, "properties": {"name": "생명샘교회", "address": "(42961) 대구 달성군 화원읍 명천로 21길 3-8", "members_num": 30.0}}, {"type": "Feature", "geometry": {"type": "Point", "coordinates": [129.1167102, 35.83505950000001]}, "properties": {"name": "금척교회", "address": "(38182) 경북 경주시 건천읍 금척고분길 18", "members_num": 30.0}}, {"type": "Feature", "geometry": {"type": "Point", "coordinates": [129.4419727, 35.7919563]}, "properties": {"name": "양북교회", "address": "(38121) 경북 경주시 문무대왕면 어일 2길 38-4(양북교회)", "members_num": 10.0}}, {"type": "Feature", "geometry": {"type": "Point", "coordinates": [129.074851, 35.8903247]}, "properties": {"name": "사라제일교회", "address": "(38052) 경북 경주시 서면장자골안길 10-5", "members_num": 11.0}}, {"type": "Feature", "geometry": {"type": "Point", "coordinates": [129.1042312, 35.8432284]}, "properties": {"name": "눈뜨는교회", "address": "(38181) 경북 경주시 건천읍 조전길 40", "members_num": 15.0}}, {"type": "Feature", "geometry": {"type": "Point", "coordinates": [128.9005745, 35.2308188]}, "properties": {"name": "호산나비전교회", "address": "(50929) 경남 김해시 김해대로2505번길28.2층", "members_num": 100.0}}, {"type": "Feature", "geometry": {"type": "Point", "coordinates": [128.4955168, 35.8731289]}, "properties": {"name": "꿈이있는교회", "address": "(42923) 대구 달성군 다사읍 서재본2길 10", "members_num": 60.0}}, {"type": "Feature", "geometry": {"type": "Point", "coordinates": [128.7338379, 35.3042393]}, "properties": {"name": "한사랑교회", "address": "(50865) 경남 김해시 진영읍 여래로20번길7-1 금양종합상가 2층", "members_num": 15.0}}, {"type": "Feature", "geometry": {"type": "Point", "coordinates": [128.9755622, 35.0930167]}, "properties": {"name": "선돌교회", "address": "(49440) 부산 사하구 다대로130번길 124", "members_num": 12.0}}, {"type": "Feature", "geometry": {"type": "Point", "coordinates": [128.3690747, 36.1214116]}, "properties": {"name": "구미제자교회", "address": "(39248) 경북 구미시 수출대로3길 111", "members_num": 100.0}}, {"type": "Feature", "geometry": {"type": "Point", "coordinates": [128.7052128, 35.8727005]}, "properties": {"name": "기쁨의교회", "address": "(41110) 대구 동구 반야월로154 2층", "members_num": 10.0}}, {"type": "Feature", "geometry": {"type": "Point", "coordinates": [128.8612741, 35.7432699]}, "properties": {"name": "갈지교회", "address": "(38360) 경북 청도군 금천면 구터길 7", "members_num": 22.0}}, {"type": "Feature", "geometry": {"type": "Point", "coordinates": [128.9978636, 35.10486]}, "properties": {"name": "믿음순교회", "address": "(49318) 부산 사하구 사라로 55번길 12 3층", "members_num": 20.0}}, {"type": "Feature", "geometry": {"type": "Point", "coordinates": [129.0440008, 35.1294311]}, "properties": {"name": "물댄동산교회", "address": "(48781) 부산 동구 수정중로 10 3층", "members_num": 20.0}}, {"type": "Feature", "geometry": {"type": "Point", "coordinates": [128.8197374, 35.90199]}, "properties": {"name": "늘푸른교회", "address": "(38440) 경북 경산시 진량읍 대추마을길 46", "members_num": 200.0}}, {"type": "Feature", "geometry": {"type": "Point", "coordinates": [129.0411901, 35.1234219]}, "properties": {"name": "수정동부교회", "address": "(48794) 부산 동구 초량중로132", "members_num": 30.0}}, {"type": "Feature", "geometry": {"type": "Point", "coordinates": [128.8695388, 35.2392694]}, "properties": {"name": "김해센텀요양병원", "address": "(509) 경남 김해시 구지로 58 김해센텀요양병원", "members_num": 60.0}}, {"type": "Feature", "geometry": {"type": "Point", "coordinates": [128.219918, 35.1063532]}, "properties": {"name": "영대교회", "address": "(52900) 경남 고성군 영오면 영회로 351 영대교회", "members_num": 30.0}}, {"type": "Feature", "geometry": {"type": "Point", "coordinates": [128.6116881, 35.8576966]}, "properties": {"name": "동광교회", "address": "(42128) 대구 수성구 달구벌대로 456길43", "members_num": 50.0}}, {"type": "Feature", "geometry": {"type": "Point", "coordinates": [128.7409913, 35.5039438]}, "properties": {"name": "새순교회", "address": "(50419) 경남 밀양시 시청로1길 37 2층", "members_num": 25.0}}, {"type": "Feature", "geometry": {"type": "Point", "coordinates": [128.9950146, 35.1991871]}, "properties": {"name": "비전교회", "address": "(46647) 부산 북구 구남로 14번길 15", "members_num": 50.0}}, {"type": "Feature", "geometry": {"type": "Point", "coordinates": [128.5497343, 35.9163085]}, "properties": {"name": "선한제자교회", "address": "(41469) 대구 북구 태전동584", "members_num": 12.0}}, {"type": "Feature", "geometry": {"type": "Point", "coordinates": [128.4274775, 36.1147225]}, "properties": {"name": "황상교회", "address": "(39428) 경북 구미시 검성로 92", "members_num": 14.0}}, {"type": "Feature", "geometry": {"type": "Point", "coordinates": [129.3834879, 37.0497344]}, "properties": {"name": "엘림교회", "address": "(36314) 경북 울진군 죽변면 성내길116-29", "members_num": 35.0}}, {"type": "Feature", "geometry": {"type": "Point", "coordinates": [128.7267637, 35.8737091]}, "properties": {"name": "함께하는교회", "address": "(41075) 대구 동구 반야월북로53길10 신서보라 102동 302호", "members_num": 12.0}}, {"type": "Feature", "geometry": {"type": "Point", "coordinates": [128.8066753, 35.1779093]}, "properties": {"name": "우리들교회", "address": "(51005) 경남 김해시 관동로27번길7, 202호", "members_num": 16.0}}, {"type": "Feature", "geometry": {"type": "Point", "coordinates": [128.7052183, 35.8450384]}, "properties": {"name": "선한삶의교회", "address": "(42267) 대구 수성구 천을로131 지하1호", "members_num": 0.0}}, {"type": "Feature", "geometry": {"type": "Point", "coordinates": [128.6919816, 35.2279862]}, "properties": {"name": "창원아름다운교회", "address": "(51442) 경남 창원시 성산구 신월로42 토월복합상가309호", "members_num": 4.0}}, {"type": "Feature", "geometry": {"type": "Point", "coordinates": [128.4221176, 35.4038879]}, "properties": {"name": "성산교회", "address": "(52119) 경남 의령군 지정면 기강로 6길 39-1", "members_num": 50.0}}, {"type": "Feature", "geometry": {"type": "Point", "coordinates": [128.4589315, 35.0904304]}, "properties": {"name": "창포교회", "address": "(51797) 경남 창원시 마산합포구 진전멵창포1길9", "members_num": 15.0}}, {"type": "Feature", "geometry": {"type": "Point", "coordinates": [128.3521393, 36.1616988]}, "properties": {"name": "문성교회", "address": "(39147) 경북 구미시 고아읍 문성9길 42-38", "members_num": 50.0}}, {"type": "Feature", "geometry": {"type": "Point", "coordinates": [128.3222941, 36.1356349]}, "properties": {"name": "성은교회", "address": "(39215) 경북 구미시 송동로42-6", "members_num": 44.0}}, {"type": "Feature", "geometry": {"type": "Point", "coordinates": [128.9957893, 35.0897812]}, "properties": {"name": "감천로교회", "address": "(49446) 부산 사하구 사하로98", "members_num": 100.0}}, {"type": "Feature", "geometry": {"type": "Point", "coordinates": [128.6206902, 35.8835902]}, "properties": {"name": "대구동원교회", "address": "(41198) 대구 동구 아양로 75-10", "members_num": 70.0}}, {"type": "Feature", "geometry": {"type": "Point", "coordinates": [128.3315563, 36.1138006]}, "properties": {"name": "시온은혜교회", "address": "(39292) 경북 구미시 구미시형곡로14길5~4", "members_num": 17.0}}, {"type": "Feature", "geometry": {"type": "Point", "coordinates": [128.4139751, 36.1478423]}, "properties": {"name": "새기쁨교회", "address": "(39179) 경북 구미시 흥안로48", "members_num": 20.0}}, {"type": "Feature", "geometry": {"type": "Point", "coordinates": [128.4567208, 36.1294901]}, "properties": {"name": "금전교회", "address": "(39423) 경북 구미시 4공단로12길6-1", "members_num": 50.0}}, {"type": "Feature", "geometry": {"type": "Point", "coordinates": [128.3343231, 36.1391455]}, "properties": {"name": "구미성민교회", "address": "(39198) 경북 구미시 문장로10길19", "members_num": 30.0}}, {"type": "Feature", "geometry": {"type": "Point", "coordinates": [128.3464304, 36.1639771]}, "properties": {"name": "함께가는교회", "address": "(39146) 경북 구미시 들성로9길 32-69", "members_num": 50.0}}, {"type": "Feature", "geometry": {"type": "Point", "coordinates": [129.0683675, 35.1418127]}, "properties": {"name": "창성교회", "address": "(48410) 부산 남구 전포대로 40번길 36", "members_num": 50.0}}, {"type": "Feature", "geometry": {"type": "Point", "coordinates": [128.8127612, 36.8032463]}, "properties": {"name": "신라교회", "address": "(36250) 경북 봉화군 상운면 임당길 249", "members_num": 19.0}}, {"type": "Feature", "geometry": {"type": "Point", "coordinates": [128.1220934, 36.1103631]}, "properties": {"name": "생명수교회", "address": "(39616) 경북 김천시 양금로 179번지2층", "members_num": 10.0}}, {"type": "Feature", "geometry": {"type": "Point", "coordinates": [128.2910367, 35.9192611]}, "properties": {"name": "예장통합", "address": "(40030) 경북 성주군 성주순환로 270-1", "members_num": 20.0}}, {"type": "Feature", "geometry": {"type": "Point", "coordinates": [128.0083594, 34.8288831]}, "properties": {"name": "삼동운화감리교회", "address": "(52445) 경남 남해군 동부대로 1773-1 삼동운화교회", "members_num": 28.0}}, {"type": "Feature", "geometry": {"type": "Point", "coordinates": [127.8939845, 34.8390113]}, "properties": {"name": "행복한교회", "address": "(52420) 경남 남해군 남해읍 망운로10번길6 행복한교회", "members_num": 20.0}}, {"type": "Feature", "geometry": {"type": "Point", "coordinates": [129.1271822, 35.1834367]}, "properties": {"name": "드림교회", "address": "(48057) 부산 해운대구 재반로50번길 12", "members_num": 50.0}}, {"type": "Feature", "geometry": {"type": "Point", "coordinates": [128.4816595, 35.6977588]}, "properties": {"name": "음동교회", "address": "(음동1길20) 대구 달성군 유가읍", "members_num": 15.0}}, {"type": "Feature", "geometry": {"type": "Point", "coordinates": [128.4078356, 34.8321257]}, "properties": {"name": "큰숲교회", "address": "(53070) 경남 통영시 미수동 진남2길42", "members_num": 120.0}}, {"type": "Feature", "geometry": {"type": "Point", "coordinates": [129.0196299, 35.2628104]}, "properties": {"name": "동행성결교회", "address": "(46512) 부산 북구", "members_num": 20.0}}, {"type": "Feature", "geometry": {"type": "Point", "coordinates": [128.6258734, 34.8853757]}, "properties": {"name": "고현충현교회", "address": "(53255) 경남 거제시 고현천로66", "members_num": 400.0}}, {"type": "Feature", "geometry": {"type": "Point", "coordinates": [128.6394622, 35.89658]}, "properties": {"name": "공항교회", "address": "(41044) 대구 동구 공항로 50길 10", "members_num": 200.0}}, {"type": "Feature", "geometry": {"type": "Point", "coordinates": [128.7027526, 35.8708303]}, "properties": {"name": "광명교회", "address": "(41114) 대구 동구 율하동로 26길 5", "members_num": 120.0}}, {"type": "Feature", "geometry": {"type": "Point", "coordinates": [128.622731, 34.8780508]}, "properties": {"name": "바로그교회", "address": "(53257) 경남 거제시 계룡로7길 9-1", "members_num": 50.0}}, {"type": "Feature", "geometry": {"type": "Point", "coordinates": [128.3598428, 35.5037544]}, "properties": {"name": "유천교회", "address": "(50253) 경남 합천군 청덕면 앙진길 115-4", "members_num": 8.0}}, {"type": "Feature", "geometry": {"type": "Point", "coordinates": [128.6960732, 35.8444561]}, "properties": {"name": "고산교회", "address": "(42262) 대구 수성구 시지동131-2", "members_num": 15.0}}, {"type": "Feature", "geometry": {"type": "Point", "coordinates": [129.043671, 35.2086514]}, "properties": {"name": "제자성결교회", "address": "(46609) 부산 북구 덕천로386번길 6 1층", "members_num": 30.0}}, {"type": "Feature", "geometry": {"type": "Point", "coordinates": [128.6088385, 35.8396562]}, "properties": {"name": "상민교회", "address": "(42156) 대구 수성구 수성로29길 54-7", "members_num": 20.0}}, {"type": "Feature", "geometry": {"type": "Point", "coordinates": [128.7137546, 35.8785088]}, "properties": {"name": "조이교회", "address": "(42043) 대구 동구 경안로 849 상록빌딩 502", "members_num": 40.0}}, {"type": "Feature", "geometry": {"type": "Point", "coordinates": [128.3512456, 35.9016772]}, "properties": {"name": "선남교회", "address": "(40045) 경북 성주군 선남면 관화길82-3", "members_num": 75.0}}, {"type": "Feature", "geometry": {"type": "Point", "coordinates": [129.2577033, 35.5532928]}, "properties": {"name": "울산샤론교회", "address": "(44602) 울산 남구 대학로 147번길 76 3층", "members_num": 27.0}}, {"type": "Feature", "geometry": {"type": "Point", "coordinates": [129.118683, 35.168222]}, "properties": {"name": "부산더크로스처치", "address": "(48271) 부산 수영구 수영로 724-1 상화빌딩 7층", "members_num": 20.0}}, {"type": "Feature", "geometry": {"type": "Point", "coordinates": [128.6457555, 35.8620535]}, "properties": {"name": "대현교회", "address": "(42059) 대구 수성구 만촌로4길 23-9", "members_num": 40.0}}, {"type": "Feature", "geometry": {"type": "Point", "coordinates": [128.3771598, 35.8901795]}, "properties": {"name": "소학교회", "address": "(40047) 경북 성주군 경북 성주군 선남면 선노로 103 소학교회", "members_num": 110.0}}, {"type": "Feature", "geometry": {"type": "Point", "coordinates": [129.1534789, 35.2309264]}, "properties": {"name": "에덴복음교회", "address": "(48004) 부산 해운대구 반송로906번길 15-10", "members_num": 15.0}}, {"type": "Feature", "geometry": {"type": "Point", "coordinates": [129.3103213, 35.51236859999999]}, "properties": {"name": "예장백석", "address": "(44774) 울산 남구 두왕로 106번길 28-13", "members_num": 50.0}}, {"type": "Feature", "geometry": {"type": "Point", "coordinates": [128.6949732, 35.4091715]}, "properties": {"name": "대한예수교장로회백석총회", "address": "(05454) 경남 밀양시 초동면 성만1길 14-3", "members_num": 20.0}}, {"type": "Feature", "geometry": {"type": "Point", "coordinates": [129.0226066, 35.1053262]}, "properties": {"name": "성광교회", "address": "(48964) 부산 중구 흑교로 75번길 11-1", "members_num": 60.0}}, {"type": "Feature", "geometry": {"type": "Point", "coordinates": [128.6611869, 35.3177011]}, "properties": {"name": "석산교회", "address": "(51115) 경남 창원시 의창구 동읍 석산길 65", "members_num": 0.0}}, {"type": "Feature", "geometry": {"type": "Point", "coordinates": [129.0083159, 35.2189393]}, "properties": {"name": "수정제일교회", "address": "(46545) 부산 북구 금곡대로 92번길 50", "members_num": 22.0}}, {"type": "Feature", "geometry": {"type": "Point", "coordinates": [128.67085, 35.2465346]}, "properties": {"name": "창원벧엘교회", "address": "(51147) 경남 창원시 의창구 창원시 의창구 창이대로309번길 5", "members_num": 20.0}}, {"type": "Feature", "geometry": {"type": "Point", "coordinates": [128.5390214, 35.8481166]}, "properties": {"name": "서대구감리교회", "address": "(42643) 대구 달서구 감삼남1길 9", "members_num": 20.0}}, {"type": "Feature", "geometry": {"type": "Point", "coordinates": [129.197755, 36.00320019999999]}, "properties": {"name": "안강순복음교회", "address": "(38011) 경북 경주시 안강읍 구부랑길 68-17", "members_num": 60.0}}, {"type": "Feature", "geometry": {"type": "Point", "coordinates": [128.3487494, 36.0672059]}, "properties": {"name": "축복교회", "address": "(39814) 경북 칠곡군 금오대로6길30-6", "members_num": 30.0}}, {"type": "Feature", "geometry": {"type": "Point", "coordinates": [129.3878195, 36.3792951]}, "properties": {"name": "금호교회", "address": "(36451) 경북 영덕군 강구면 번영길36", "members_num": 35.0}}, {"type": "Feature", "geometry": {"type": "Point", "coordinates": [128.4515462, 35.7253116]}, "properties": {"name": "순복음창조교회", "address": "(42985) 대구 달성군 논공중앙로 28길 36 순복음창조교회", "members_num": 50.0}}, {"type": "Feature", "geometry": {"type": "Point", "coordinates": [129.4181966, 35.4910115]}, "properties": {"name": "울산흰돌교회", "address": "(44086) 울산 동구 월봉6 가길 3. 사무실.", "members_num": 150.0}}, {"type": "Feature", "geometry": {"type": "Point", "coordinates": [129.2211994, 35.2396614]}, "properties": {"name": "기장새삶교회", "address": "(50434) 부산 기장군 기장읍 청강로 91번길 8", "members_num": 38.0}}, {"type": "Feature", "geometry": {"type": "Point", "coordinates": [128.8112225, 35.1041459]}, "properties": {"name": "진해새생명교회", "address": "(51603) 경남 창원시 진해구 용원북로 11번가길32", "members_num": 15.0}}, {"type": "Feature", "geometry": {"type": "Point", "coordinates": [128.9711682, 35.103546]}, "properties": {"name": "다함과줌교회", "address": "(49410) 부산 사하구 제석로 16 3층", "members_num": 16.0}}, {"type": "Feature", "geometry": {"type": "Point", "coordinates": [128.4843093, 34.7963599]}, "properties": {"name": "염호교회", "address": "(53092) 경남 통영시 한산면 대고포길 51", "members_num": 20.0}}, {"type": "Feature", "geometry": {"type": "Point", "coordinates": [128.5604295, 35.1824883]}, "properties": {"name": "샘솟는교회", "address": "(51743) 경남 창원시 마산합포구 3.15대로 34, 304호", "members_num": 25.0}}, {"type": "Feature", "geometry": {"type": "Point", "coordinates": [128.9183023, 35.0985631]}, "properties": {"name": "넘치는교회", "address": "(46773) 부산 강서구 명지국제8로 233 더스퀘어 704호 넘치는교회", "members_num": 40.0}}, {"type": "Feature", "geometry": {"type": "Point", "coordinates": [128.7336579, 36.5671559]}, "properties": {"name": "안동제일감리교회", "address": "(36693) 경북 안동시 태사2길 85", "members_num": 50.0}}, {"type": "Feature", "geometry": {"type": "Point", "coordinates": [128.9948273, 35.3199931]}, "properties": {"name": "세계로교회", "address": "(50603) 경남 양산시 물금읍 가촌동1길 37", "members_num": 60.0}}, {"type": "Feature", "geometry": {"type": "Point", "coordinates": [129.0564232, 35.1724914]}, "properties": {"name": "부산한사랑교회", "address": "(47123) 부산 부산진구 성지로 6", "members_num": 30.0}}, {"type": "Feature", "geometry": {"type": "Point", "coordinates": [129.0344171, 35.1065751]}, "properties": {"name": "선교중앙교회", "address": "(48925) 부산 중구 샘길 51", "members_num": 10.0}}, {"type": "Feature", "geometry": {"type": "Point", "coordinates": [129.3609801, 36.01143330000001]}, "properties": {"name": "포항동일교회", "address": "(37829) 경북 포항시 남구 상대로 136", "members_num": 500.0}}, {"type": "Feature", "geometry": {"type": "Point", "coordinates": [129.0557304, 35.1388752]}, "properties": {"name": "범일교회", "address": "(48723) 부산 동구 범곡로9", "members_num": 0.0}}, {"type": "Feature", "geometry": {"type": "Point", "coordinates": [129.032112, 35.1111842]}, "properties": {"name": "이루시는교회", "address": "(48915) 부산 중구 영주로 6-1", "members_num": 45.0}}, {"type": "Feature", "geometry": {"type": "Point", "coordinates": [129.1084934, 35.1213029]}, "properties": {"name": "우리들교회", "address": "(48525) 부산 남구 동명로101번가길 14", "members_num": 20.0}}, {"type": "Feature", "geometry": {"type": "Point", "coordinates": [129.1790864, 35.3286745]}, "properties": {"name": "온전한교회", "address": "(46013) 부산 기장군 정관읍 가동 3로 2 4층 온전한교회", "members_num": 50.0}}, {"type": "Feature", "geometry": {"type": "Point", "coordinates": [128.1659737, 36.7994687]}, "properties": {"name": "문경소망교회", "address": "(36911) 경북 문경시 문경읍 여우목로 1716-25", "members_num": 15.0}}, {"type": "Feature", "geometry": {"type": "Point", "coordinates": [128.3363532, 36.0653245]}, "properties": {"name": "가나안교회", "address": "(39809) 경북 칠곡군 북삼읍 인평리 안산2길 28-7 가나안교회", "members_num": 40.0}}, {"type": "Feature", "geometry": {"type": "Point", "coordinates": [128.064267, 35.0091489]}, "properties": {"name": "친밀한교회", "address": "(52539) 경남 사천시 용현면 용현4길 105", "members_num": 60.0}}, {"type": "Feature", "geometry": {"type": "Point", "coordinates": [129.41281, 36.6254522]}, "properties": {"name": "백석교회", "address": "(36403) 경북 영덕군 백석2길7", "members_num": 15.0}}, {"type": "Feature", "geometry": {"type": "Point", "coordinates": [128.7539917, 35.4425762]}, "properties": {"name": "기산교회", "address": "(50449) 경남 밀양시 상남면 상남로 1088-9", "members_num": 37.0}}, {"type": "Feature", "geometry": {"type": "Point", "coordinates": [129.104851, 35.1937626]}, "properties": {"name": "더원교회", "address": "(모름) 부산 동래구 충렬대로428번길 49 2층", "members_num": 12.0}}, {"type": "Feature", "geometry": {"type": "Point", "coordinates": [128.7544756, 35.2488564]}, "properties": {"name": "행복한교회", "address": "(50873) 경남 김해시 진례면 송현로53 백조408호", "members_num": 15.0}}, {"type": "Feature", "geometry": {"type": "Point", "coordinates": [128.1138537, 36.7374141]}, "properties": {"name": "문경평화교회", "address": "(36915) 경북 문경시 문경읍 주흘로 87", "members_num": 33.0}}, {"type": "Feature", "geometry": {"type": "Point", "coordinates": [128.7936669, 35.1891269]}, "properties": {"name": "동행하는교회", "address": "(동행하는교회) 경남 김해시 대청로167번길26-8", "members_num": 50.0}}, {"type": "Feature", "geometry": {"type": "Point", "coordinates": [128.5829439, 35.2083502]}, "properties": {"name": "또감사교회", "address": "(51723) 경남 창원시 마산합포구 합포동3길 2", "members_num": 80.0}}, {"type": "Feature", "geometry": {"type": "Point", "coordinates": [128.8698667, 35.2288023]}, "properties": {"name": "함께가는교회", "address": "(50962) 경남 김해시 분성로172번길51", "members_num": 45.0}}, {"type": "Feature", "geometry": {"type": "Point", "coordinates": [128.5618212, 35.205654]}, "properties": {"name": "반석교회", "address": "(51252) 경남 창원시 마산합포구 자산서 11길 103-1", "members_num": 20.0}}, {"type": "Feature", "geometry": {"type": "Point", "coordinates": [128.98593, 35.0967849]}, "properties": {"name": "성심교회", "address": "(49403) 부산 사하구 장평로433(괴정동)대산상가맨션201호", "members_num": 16.0}}, {"type": "Feature", "geometry": {"type": "Point", "coordinates": [127.922161, 35.8734201]}, "properties": {"name": "거창하성교회", "address": "(50113) 경남 거창군 웅양면 웅양로2329", "members_num": 40.0}}, {"type": "Feature", "geometry": {"type": "Point", "coordinates": [128.1151189, 35.1944394]}, "properties": {"name": "열방교회", "address": "(52741) 경남 진주시 말티고개로 34-39", "members_num": 60.0}}, {"type": "Feature", "geometry": {"type": "Point", "coordinates": [129.1004514, 35.2096529]}, "properties": {"name": "보석교회", "address": "(47759) 부산 동래구 명서로112번길67-6", "members_num": 50.0}}, {"type": "Feature", "geometry": {"type": "Point", "coordinates": [127.915384, 36.0217909]}, "properties": {"name": "대야교회", "address": "(39688) 경북 김천시 대야길 405-2", "members_num": 8.0}}, {"type": "Feature", "geometry": {"type": "Point", "coordinates": [128.2652708, 35.9909134]}, "properties": {"name": "동포교회", "address": "(40010) 경북 성주군 초전면 주천로708", "members_num": 70.0}}, {"type": "Feature", "geometry": {"type": "Point", "coordinates": [128.341783, 36.0677432]}, "properties": {"name": "소망성결교회", "address": "(39810) 경북 칠곡군 칠곡군 북삼읍 평원1길 27~12", "members_num": 30.0}}, {"type": "Feature", "geometry": {"type": "Point", "coordinates": [128.9024461, 35.2410263]}, "properties": {"name": "한국초대교회", "address": "(50837) 경남 김해시 어방동355-2", "members_num": 20.0}}, {"type": "Feature", "geometry": {"type": "Point", "coordinates": [128.2578623, 36.3826134]}, "properties": {"name": "낙동중앙교회", "address": "(37249) 경북 상주시 낙동면 삼봉로 376-3", "members_num": 150.0}}, {"type": "Feature", "geometry": {"type": "Point", "coordinates": [128.5672165, 35.9519811]}, "properties": {"name": "푸른나무교회", "address": "(41415) 대구 북구 학정로 106길 15 3층", "members_num": 15.0}}, {"type": "Feature", "geometry": {"type": "Point", "coordinates": [129.0974935, 35.1867474]}, "properties": {"name": "연산성서침례교회", "address": "(47556) 부산 연제구 과정로 283번 가길 10", "members_num": 80.0}}, {"type": "Feature", "geometry": {"type": "Point", "coordinates": [128.7082496, 35.8471404]}, "properties": {"name": "매호교회", "address": "(42267) 대구 수성구 대구 수성구 천을로31길 33-4", "members_num": 35.0}}, {"type": "Feature", "geometry": {"type": "Point", "coordinates": [128.1966444, 36.4175692]}, "properties": {"name": "상주서문교회", "address": "(37240) 경북 상주시 외답1길 8-14", "members_num": 60.0}}, {"type": "Feature", "geometry": {"type": "Point", "coordinates": [128.1557353, 36.4150978]}, "properties": {"name": "상주중앙교회", "address": "(37199) 경북 상주시 상서문로 57", "members_num": 120.0}}, {"type": "Feature", "geometry": {"type": "Point", "coordinates": [129.108481, 35.2203301]}, "properties": {"name": "주은혜교회", "address": "(46314) 부산 금정구 금사로 67번길 52", "members_num": 10.0}}, {"type": "Feature", "geometry": {"type": "Point", "coordinates": [129.0967867, 35.1850943]}, "properties": {"name": "김태숙", "address": "(4275357) 부산 연제구 고분로136 진일맨션 상가동201호", "members_num": 15.0}}, {"type": "Feature", "geometry": {"type": "Point", "coordinates": [128.6073788, 36.7458483]}, "properties": {"name": "빛마을교회", "address": "(36172) 경북 영주시 문수면 무섬로5", "members_num": 26.0}}, {"type": "Feature", "geometry": {"type": "Point", "coordinates": [129.117177, 35.176204]}, "properties": {"name": "사랑의교회", "address": "(48201) 부산 수영구 부산시수영구망미2동208ㅡ6번지", "members_num": 20.0}}, {"type": "Feature", "geometry": {"type": "Point", "coordinates": [129.1175822, 35.1749725]}, "properties": {"name": "사랑의교회", "address": "(48215) 부산 수영구 구락로90 복음맨션상가 2층 사랑의교회", "members_num": 10.0}}, {"type": "Feature", "geometry": {"type": "Point", "coordinates": [129.0135921, 35.1094131]}, "properties": {"name": "더바른교회", "address": "(49228) 부산 서구 부산광역시 서구 대영로38번길 47 (서대신동2가) 2층", "members_num": 100.0}}, {"type": "Feature", "geometry": {"type": "Point", "coordinates": [129.1779748, 35.1621269]}, "properties": {"name": "푸른숲교회", "address": "(48114) 부산 해운대구 좌동순환로 433번길 40, 102-3", "members_num": 50.0}}, {"type": "Feature", "geometry": {"type": "Point", "coordinates": [129.1657617, 35.4003537]}, "properties": {"name": "다사랑교회", "address": "(50536) 경남 양산시 서창로 112", "members_num": 50.0}}, {"type": "Feature", "geometry": {"type": "Point", "coordinates": [129.0247652, 35.1490066]}, "properties": {"name": "푸른초장교회", "address": "(47385) 부산 부산진구 엄광로77", "members_num": 40.0}}, {"type": "Feature", "geometry": {"type": "Point", "coordinates": [128.5770852, 36.91376959999999]}, "properties": {"name": "순흥교회", "address": "(36016) 경북 영주시 순흥면 순흥로40 순흥사모", "members_num": 80.0}}, {"type": "Feature", "geometry": {"type": "Point", "coordinates": [129.1078272, 35.1754019]}, "properties": {"name": "사도행전교회", "address": "(48218) 부산 수영구 과정로46 SMC빌딩 7층", "members_num": 54.0}}, {"type": "Feature", "geometry": {"type": "Point", "coordinates": [128.7158883, 35.026719]}, "properties": {"name": "유호교회", "address": "(53200) 경남 거제시 장목면 유호3길 9 유호교회", "members_num": 100.0}}, {"type": "Feature", "geometry": {"type": "Point", "coordinates": [128.1817653, 36.5823684]}, "properties": {"name": "문경광림교회", "address": "(36984) 경북 문경시 당교9길 8-1", "members_num": 60.0}}, {"type": "Feature", "geometry": {"type": "Point", "coordinates": [128.7141499, 36.5662196]}, "properties": {"name": "평화교회", "address": "(36669) 경북 안동시 서동문로 22-1, 3층", "members_num": 15.0}}, {"type": "Feature", "geometry": {"type": "Point", "coordinates": [128.676028, 35.24911549999999]}, "properties": {"name": "주하나교회", "address": "(51144) 경남 창원시 의창구 봉곡로93번길58 1층 안채", "members_num": 20.0}}, {"type": "Feature", "geometry": {"type": "Point", "coordinates": [129.0805212, 35.1657789]}, "properties": {"name": "물만골교회", "address": "(물만골교회) 부산 연제구 연산동황령산로503번길27-1", "members_num": 20.0}}, {"type": "Feature", "geometry": {"type": "Point", "coordinates": [129.0723007, 35.1362644]}, "properties": {"name": "문현교회", "address": "(48457) 부산 남구 수영로 46, 3층", "members_num": 20.0}}, {"type": "Feature", "geometry": {"type": "Point", "coordinates": [129.0355681, 35.1154068]}, "properties": {"name": "복있는교회", "address": "(48811) 부산 동구 초량상로35번길19-6", "members_num": 10.0}}, {"type": "Feature", "geometry": {"type": "Point", "coordinates": [129.1300585, 35.1974162]}, "properties": {"name": "섬김제일교회", "address": "(48028) 부산 해운대구 재반로 225번길 17", "members_num": 22.0}}, {"type": "Feature", "geometry": {"type": "Point", "coordinates": [128.4253937, 34.9158519]}, "properties": {"name": "덕포교회", "address": "(53011) 경남 통영시 광도면 안정로461-1", "members_num": 47.0}}, {"type": "Feature", "geometry": {"type": "Point", "coordinates": [128.4253937, 34.9158519]}, "properties": {"name": "덕포교회", "address": "(53011) 경남 통영시 광도면 안정로461-1", "members_num": 47.0}}, {"type": "Feature", "geometry": {"type": "Point", "coordinates": [128.821334, 35.9248816]}, "properties": {"name": "새하양교회", "address": "(38699) 경북 경산시 교리길26", "members_num": 50.0}}, {"type": "Feature", "geometry": {"type": "Point", "coordinates": [128.7074303, 35.1488964]}, "properties": {"name": "예일교회", "address": "(51637) 경남 창원시 진해구 진해대로901번길 6-8", "members_num": 30.0}}, {"type": "Feature", "geometry": {"type": "Point", "coordinates": [129.130729, 36.1023785]}, "properties": {"name": "새마을교회", "address": "(37525) 경북 포항시 북구 새마을로 2704", "members_num": 10.0}}, {"type": "Feature", "geometry": {"type": "Point", "coordinates": [128.7296989, 35.8311534]}, "properties": {"name": "에셀나무교회", "address": "(38655) 경북 경산시 대학로12길 29-4 201호", "members_num": 10.0}}, {"type": "Feature", "geometry": {"type": "Point", "coordinates": [129.1334547, 35.1935254]}, "properties": {"name": "참소망교회", "address": "(48052) 부산 해운대구 재송2로 89번길 17", "members_num": 80.0}}, {"type": "Feature", "geometry": {"type": "Point", "coordinates": [128.894311, 35.8750574]}, "properties": {"name": "대창중앙교회", "address": "(38911) 경북 영천시 대창면 금박로 1041", "members_num": 50.0}}, {"type": "Feature", "geometry": {"type": "Point", "coordinates": [129.1065859, 35.1603458]}, "properties": {"name": "남부주영교회", "address": "(48251) 부산 수영구 장대골로56", "members_num": 50.0}}, {"type": "Feature", "geometry": {"type": "Point", "coordinates": [128.5546655, 35.8282702]}, "properties": {"name": "대구성은교회", "address": "(42819) 대구 달서구 월배로 80길 71-10", "members_num": 150.0}}, {"type": "Feature", "geometry": {"type": "Point", "coordinates": [129.0706155, 35.1350561]}, "properties": {"name": "새마음교회", "address": "(48465) 부산 남구 지게골로 52-15 상가4층", "members_num": 27.0}}, {"type": "Feature", "geometry": {"type": "Point", "coordinates": [129.1987674, 35.1826249]}, "properties": {"name": "산소망교회", "address": "(48068) 부산 해운대구 송정1로 12 산소망교회", "members_num": 14.0}}, {"type": "Feature", "geometry": {"type": "Point", "coordinates": [128.9960652, 35.1964122]}, "properties": {"name": "구남순복음교회", "address": "(46636) 부산 북구 백양대로 1016번 나길 5 구남순복음교회", "members_num": 100.0}}, {"type": "Feature", "geometry": {"type": "Point", "coordinates": [129.0559718, 36.4288726]}, "properties": {"name": "청송교회", "address": "(37433) 경북 청송군 청송읍 금월로 222", "members_num": 70.0}}, {"type": "Feature", "geometry": {"type": "Point", "coordinates": [128.2972951, 36.2411765]}, "properties": {"name": "선산제일교회", "address": "(39129) 경북 구미시 선산읍 단계서길 43", "members_num": 400.0}}, {"type": "Feature", "geometry": {"type": "Point", "coordinates": [129.1079686, 35.2155979]}, "properties": {"name": "벧엘교회", "address": "(46321) 부산 금정구 금사로 30", "members_num": 200.0}}, {"type": "Feature", "geometry": {"type": "Point", "coordinates": [129.2160573, 35.2494969]}, "properties": {"name": "광명교회", "address": "(46062) 부산 기장군 기장읍 반송로1606", "members_num": 35.0}}, {"type": "Feature", "geometry": {"type": "Point", "coordinates": [128.9923936, 35.1366502]}, "properties": {"name": "만남의교회", "address": "(47053) 부산 사상구 학감대로 49번길 34 (학장동 구학마을 상가 3층)", "members_num": 20.0}}, {"type": "Feature", "geometry": {"type": "Point", "coordinates": [129.0653899, 35.1961508]}, "properties": {"name": "예수가족교회", "address": "(47875) 부산 동래구 아시아드대로133번길 7 4층", "members_num": 40.0}}, {"type": "Feature", "geometry": {"type": "Point", "coordinates": [129.067336, 35.0887301]}, "properties": {"name": "청학교회", "address": "(49088) 부산 영도구 태종로422번길21-16", "members_num": 47.0}}, {"type": "Feature", "geometry": {"type": "Point", "coordinates": [129.1214677, 35.1601848]}, "properties": {"name": "인애교회", "address": "(48277) 부산 수영구 감포로8번길 24", "members_num": 70.0}}, {"type": "Feature", "geometry": {"type": "Point", "coordinates": [129.0874447, 35.1274097]}, "properties": {"name": "부산한성교회", "address": "(48484) 부산 남구 유엔로 78", "members_num": 80.0}}, {"type": "Feature", "geometry": {"type": "Point", "coordinates": [128.9805638, 35.172707]}, "properties": {"name": "사랑의교회", "address": "(46913) 부산 사상구 삼락천로62", "members_num": 50.0}}, {"type": "Feature", "geometry": {"type": "Point", "coordinates": [128.1774511, 36.3844464]}, "properties": {"name": "거동교회", "address": "(37244) 경북 상주시 거동1길 8", "members_num": 12.0}}, {"type": "Feature", "geometry": {"type": "Point", "coordinates": [128.0272488, 36.4022786]}, "properties": {"name": "낙서교회", "address": "(37151) 경북 상주시 내서면 낙서2길 26", "members_num": 120.0}}, {"type": "Feature", "geometry": {"type": "Point", "coordinates": [128.1516572, 36.3971364]}, "properties": {"name": "양문교회", "address": "(37206) 경북 상주시 신봉 학마루2길 21", "members_num": 30.0}}, {"type": "Feature", "geometry": {"type": "Point", "coordinates": [128.2384518, 36.4009489]}, "properties": {"name": "신상소망교회", "address": "(37247) 경북 상주시 낙동면신상2길54", "members_num": 10.0}}, {"type": "Feature", "geometry": {"type": "Point", "coordinates": [128.1175555, 36.3837377]}, "properties": {"name": "상주지사교회", "address": "(33926) 경북 상주시 외남면 지사3길 47", "members_num": 20.0}}, {"type": "Feature", "geometry": {"type": "Point", "coordinates": [128.2685245, 36.4289208]}, "properties": {"name": "오상교회", "address": "(37245) 경북 상주시 중동면 오상2길 19", "members_num": 30.0}}, {"type": "Feature", "geometry": {"type": "Point", "coordinates": [128.0603037, 36.5414684]}, "properties": {"name": "은척중앙교회", "address": "(37104) 경북 상주시 은척면 창마길 44-5", "members_num": 30.0}}, {"type": "Feature", "geometry": {"type": "Point", "coordinates": [128.2334499, 36.5423]}, "properties": {"name": "율곡교회", "address": "(36943) 경북 문경시 오랫골길25 율곡교회", "members_num": 30.0}}, {"type": "Feature", "geometry": {"type": "Point", "coordinates": [129.3303855, 35.5481548]}, "properties": {"name": "새울산침례교회", "address": "(44696) 울산 남구 왕생로172번길23", "members_num": 55.0}}, {"type": "Feature", "geometry": {"type": "Point", "coordinates": [128.4032426, 36.0769159]}, "properties": {"name": "칠곡충성교회", "address": "(39840) 경북 칠곡군 석적읍 서중리2길 9", "members_num": 40.0}}, {"type": "Feature", "geometry": {"type": "Point", "coordinates": [128.414336, 34.8403269]}, "properties": {"name": "영광교회", "address": "(53802) 경남 통영시 새미골4길", "members_num": 100.0}}, {"type": "Feature", "geometry": {"type": "Point", "coordinates": [129.0255095, 35.1631365]}, "properties": {"name": "애광교회", "address": "(47165) 부산 부산진구 백양관문로77번길 99 우드빌 상가 지하 1층", "members_num": 35.0}}, {"type": "Feature", "geometry": {"type": "Point", "coordinates": [128.5351216, 35.2627959]}, "properties": {"name": "열방교회", "address": "(51247) 경남 창원시 마산회원구 내서읍 송평로 415", "members_num": 75.0}}, {"type": "Feature", "geometry": {"type": "Point", "coordinates": [128.4887209, 35.8085575]}, "properties": {"name": "하늘숲교회", "address": "(42943) 대구 달성군 화원읍 사문진로 349. 삼주상가2층", "members_num": 25.0}}, {"type": "Feature", "geometry": {"type": "Point", "coordinates": [128.4975316, 35.8057048]}, "properties": {"name": "사랑충성교회", "address": "(42954) 대구 달성군 화원읍 사문진로433(3층)", "members_num": 10.0}}, {"type": "Feature", "geometry": {"type": "Point", "coordinates": [128.4993596, 35.85702670000001]}, "properties": {"name": "행복사랑교회", "address": "(42609) 대구 달서구 선원로 14길 41", "members_num": 50.0}}, {"type": "Feature", "geometry": {"type": "Point", "coordinates": [128.5710487, 35.2194295]}, "properties": {"name": "행복교회", "address": "(51289) 경남 창원시 마산회원구 북성로 138 천지리치빌상가308호", "members_num": 14.0}}, {"type": "Feature", "geometry": {"type": "Point", "coordinates": [129.2224869, 35.985691]}, "properties": {"name": "안강반석교회", "address": "(38026) 경북 경주시 안강읍 근계3길 6-4", "members_num": 50.0}}, {"type": "Feature", "geometry": {"type": "Point", "coordinates": [128.3971996, 35.8152857]}, "properties": {"name": "벌지교회", "address": "(40112) 경북 고령군 다산면 벌지리216~6", "members_num": 40.0}}, {"type": "Feature", "geometry": {"type": "Point", "coordinates": [128.4178981, 36.5648954]}, "properties": {"name": "어신교회", "address": "(36851) 경북 예천군 지보면 어신3길 137", "members_num": 100.0}}, {"type": "Feature", "geometry": {"type": "Point", "coordinates": [128.6586188, 35.2374846]}, "properties": {"name": "창원왕성교회", "address": "(51409) 경남 창원시 성산구 창원천로 94번길 82-6", "members_num": 600.0}}, {"type": "Feature", "geometry": {"type": "Point", "coordinates": [128.4671388, 35.8641713]}, "properties": {"name": "대구다사좋은교회", "address": "(42911) 대구 달성군 다사읍 대실역북로 5길 22", "members_num": 35.0}}, {"type": "Feature", "geometry": {"type": "Point", "coordinates": [128.4146877, 34.8245131]}, "properties": {"name": "늘푸른교회", "address": "(53078) 경남 통영시 봉수2길 12-5", "members_num": 4.0}}, {"type": "Feature", "geometry": {"type": "Point", "coordinates": [128.2197314, 36.1599793]}, "properties": {"name": "봉산교회", "address": "(39672) 경북 김천시 아포읍 덕계길 37-6 봉산교회", "members_num": 30.0}}, {"type": "Feature", "geometry": {"type": "Point", "coordinates": [128.8730283, 35.24992390000001]}, "properties": {"name": "풍성한교회", "address": "(50907) 경남 김해시 가락로280 아나키빌딩502호", "members_num": 4.0}}, {"type": "Feature", "geometry": {"type": "Point", "coordinates": [129.1078272, 35.1754019]}, "properties": {"name": "사도행전교회", "address": "(48218) 부산 수영구 과정로46 smc빌딩7층", "members_num": 50.0}}, {"type": "Feature", "geometry": {"type": "Point", "coordinates": [129.2599769, 35.5492308]}, "properties": {"name": "울산사랑의교회", "address": "(44606) 울산 남구 신복로46", "members_num": 160.0}}, {"type": "Feature", "geometry": {"type": "Point", "coordinates": [128.4353802, 36.0916749]}, "properties": {"name": "새구미교회", "address": "(39448) 경북 구미시 인동 36길 23-34", "members_num": 70.0}}, {"type": "Feature", "geometry": {"type": "Point", "coordinates": [128.4558977, 35.6989056]}, "properties": {"name": "테크노폴리스교회", "address": "(43014) 대구 달성군 테크노중앙대로 325-56, 201호", "members_num": 20.0}}, {"type": "Feature", "geometry": {"type": "Point", "coordinates": [128.4261542, 34.8616029]}, "properties": {"name": "태평교회", "address": "(53036) 경남 통영시 무전5길 37-3", "members_num": 100.0}}, {"type": "Feature", "geometry": {"type": "Point", "coordinates": [128.2616335, 34.6355355]}, "properties": {"name": "욕지제일교회", "address": "(53100) 경남 통영시 욕지면 중촌길 146", "members_num": 77.0}}, {"type": "Feature", "geometry": {"type": "Point", "coordinates": [128.7050621, 35.8420329]}, "properties": {"name": "대한예수교장로회통합", "address": "(42267) 대구 수성구 고산로121ㅡ7 동광빌딩지하", "members_num": 30.0}}, {"type": "Feature", "geometry": {"type": "Point", "coordinates": [128.4428183, 36.0884523]}, "properties": {"name": "구미행복한교회", "address": "(39445) 경북 구미시 인동48길37-28", "members_num": 90.0}}, {"type": "Feature", "geometry": {"type": "Point", "coordinates": [129.2172435, 35.2341031]}, "properties": {"name": "기장큰숲교회", "address": "(46081) 부산 기장군 기장읍 청강로2 호성상가401호", "members_num": 10.0}}, {"type": "Feature", "geometry": {"type": "Point", "coordinates": [128.3291715, 36.1137531]}, "properties": {"name": "구미서현교회", "address": "(39292) 경북 구미시 형곡로14길 5-28", "members_num": 150.0}}, {"type": "Feature", "geometry": {"type": "Point", "coordinates": [128.4487044, 35.7250335]}, "properties": {"name": "대구남동교회", "address": "(42985) 대구 달성군 논공읍 남리길29", "members_num": 50.0}}, {"type": "Feature", "geometry": {"type": "Point", "coordinates": [128.4282109, 34.8469154]}, "properties": {"name": "동광교회", "address": "(53052) 경남 통영시 동문로 40(정량동) 동광교회", "members_num": 130.0}}, {"type": "Feature", "geometry": {"type": "Point", "coordinates": [128.4554569, 36.0914518]}, "properties": {"name": "신월교회", "address": "(39444) 경북 구미시 인동60길 12.(구평동)", "members_num": 40.0}}, {"type": "Feature", "geometry": {"type": "Point", "coordinates": [128.4469481, 35.6447326]}, "properties": {"name": "평촌교회", "address": "(430134) 대구 달성군 구지면 구지동로 16길 82", "members_num": 0.0}}, {"type": "Feature", "geometry": {"type": "Point", "coordinates": [128.6121126, 35.8699184]}, "properties": {"name": "대구동막교회", "address": "(419907) 대구 중구 국채보상로 151길 33", "members_num": 600.0}}, {"type": "Feature", "geometry": {"type": "Point", "coordinates": [128.7050092, 35.8721222]}, "properties": {"name": "우리는교회", "address": "(41110) 대구 동구 반야월로 30길 15 대웅플러스타운 1303호", "members_num": 10.0}}, {"type": "Feature", "geometry": {"type": "Point", "coordinates": [128.8932204, 35.6745178]}, "properties": {"name": "신지교회", "address": "(38364) 경북 청도군 금천면 선암로419-3", "members_num": 50.0}}, {"type": "Feature", "geometry": {"type": "Point", "coordinates": [128.4416423, 35.7813229]}, "properties": {"name": "예수비전충성교회", "address": "(42974) 대구 달성군 옥포읍 돌미로75 301호", "members_num": 50.0}}, {"type": "Feature", "geometry": {"type": "Point", "coordinates": [128.4467646, 35.6935606]}, "properties": {"name": "현풍교회", "address": "(43005) 대구 달성군 현풍중앙로10길18 현풍교회", "members_num": 200.0}}, {"type": "Feature", "geometry": {"type": "Point", "coordinates": [128.448004, 35.729719]}, "properties": {"name": "성문교회", "address": "(42986) 대구 달성군 논공로30길4", "members_num": 10.0}}, {"type": "Feature", "geometry": {"type": "Point", "coordinates": [129.2773913, 35.4172856]}, "properties": {"name": "이레교회", "address": "(44973) 울산 울주군 남창강변로5", "members_num": 25.0}}, {"type": "Feature", "geometry": {"type": "Point", "coordinates": [128.1092974, 35.06625140000001]}, "properties": {"name": "사천정동교회", "address": "(664932) 경남 사천시 정동면 옥산로 316-8", "members_num": 30.0}}, {"type": "Feature", "geometry": {"type": "Point", "coordinates": [129.00759, 35.3106894]}, "properties": {"name": "ABC교회", "address": "(50653) 경남 양산시 물금읍 야리1길17 증산타워 201호 ABC교회", "members_num": 100.0}}, {"type": "Feature", "geometry": {"type": "Point", "coordinates": [128.1187985, 36.1334117]}, "properties": {"name": "주님의몸된교회", "address": "(105동 104호) 경북 김천시 김천시 시청로 46", "members_num": 10.0}}, {"type": "Feature", "geometry": {"type": "Point", "coordinates": [128.2126561, 36.5077015]}, "properties": {"name": "덕가교회", "address": "(37123) 경북 상주시 사벌국면 덕가2길 82", "members_num": 15.0}}, {"type": "Feature", "geometry": {"type": "Point", "coordinates": [128.6116292, 35.8983049]}, "properties": {"name": "영광교회", "address": "(41535) 대구 북구 대동로 1길 39, 2층", "members_num": 23.0}}, {"type": "Feature", "geometry": {"type": "Point", "coordinates": [128.309325, 36.1295842]}, "properties": {"name": "은혜로운교회", "address": "(39307) 경북 구미시 선기로 155-15", "members_num": 100.0}}, {"type": "Feature", "geometry": {"type": "Point", "coordinates": [128.7622415, 36.8549159]}, "properties": {"name": "가곡교회", "address": "(36244) 경북 봉화군 상운면 후평길 28-20", "members_num": 15.0}}, {"type": "Feature", "geometry": {"type": "Point", "coordinates": [128.5837521, 34.8410577]}, "properties": {"name": "거제죽림성결교회", "address": "(53286) 경남 거제시 거제면 죽림길 147. 죽림교회", "members_num": 20.0}}, {"type": "Feature", "geometry": {"type": "Point", "coordinates": [128.9779997, 35.2954483]}, "properties": {"name": "고암교회", "address": "(50806) 경남 김해시 대동면 동북로 239-6", "members_num": 40.0}}, {"type": "Feature", "geometry": {"type": "Point", "coordinates": [128.8813958, 35.22987]}, "properties": {"name": "질그릇속보배교회", "address": "(1층 질그룻속 보배 교회) 경남 김해시 부원동 865-6", "members_num": 1.0}}, {"type": "Feature", "geometry": {"type": "Point", "coordinates": [129.1795542, 35.4548174]}, "properties": {"name": "세계로교회", "address": "(44965) 울산 울주군 웅촌면 은현작동로 16-16", "members_num": 0.0}}, {"type": "Feature", "geometry": {"type": "Point", "coordinates": [127.7775042, 35.0829609]}, "properties": {"name": "적량교회", "address": "(52321) 경남 하동군 대티길 17", "members_num": 50.0}}, {"type": "Feature", "geometry": {"type": "Point", "coordinates": [128.6023844, 35.2494609]}, "properties": {"name": "창원영광교회", "address": "(51350) 경남 창원시 마산회원구 구암남12길 66", "members_num": 200.0}}, {"type": "Feature", "geometry": {"type": "Point", "coordinates": [129.0182339, 35.09744480000001]}, "properties": {"name": "항도교회", "address": "(49244) 부산 서구 해돋이로228번길 16 항도교회", "members_num": 150.0}}, {"type": "Feature", "geometry": {"type": "Point", "coordinates": [128.8520647, 36.6675952]}, "properties": {"name": "삼산교회", "address": "(36608) 경북 안동시 예안면 삼산길 23, 삼산교회", "members_num": 20.0}}, {"type": "Feature", "geometry": {"type": "Point", "coordinates": [129.339391, 36.0816827]}, "properties": {"name": "달전제일교회", "address": "(37561) 경북 포항시 북구 흥해읍 도음로 959", "members_num": 300.0}}, {"type": "Feature", "geometry": {"type": "Point", "coordinates": [128.4123251, 35.6531474]}, "properties": {"name": "구지선린교회", "address": "(43009) 대구 달성군 구지면 과학마을로2길 49-3", "members_num": 35.0}}, {"type": "Feature", "geometry": {"type": "Point", "coordinates": [128.7693002, 36.618631]}, "properties": {"name": "오천교회", "address": "(36611) 경북 안동시 와룡면 문화마을길 19-6", "members_num": 37.0}}, {"type": "Feature", "geometry": {"type": "Point", "coordinates": [128.7386907, 36.6113697]}, "properties": {"name": "이하교회", "address": "(36611) 경북 안동시 와룡면 아름마을길59(이하1리)", "members_num": 100.0}}, {"type": "Feature", "geometry": {"type": "Point", "coordinates": [129.1085591, 35.1970224]}, "properties": {"name": "샘물교회", "address": "(47795) 부산 동래구 명안로10번길 78", "members_num": 20.0}}, {"type": "Feature", "geometry": {"type": "Point", "coordinates": [128.2616491, 36.1588779]}, "properties": {"name": "샤론교회", "address": "(39675) 경북 김천시 아포읍 한지2길 45. 2층", "members_num": 30.0}}, {"type": "Feature", "geometry": {"type": "Point", "coordinates": [128.5911395, 34.8502396]}, "properties": {"name": "거제광림교회", "address": "(53286) 경남 거제시 거제면 읍내로6길11", "members_num": 45.0}}, {"type": "Feature", "geometry": {"type": "Point", "coordinates": [128.7718506, 36.9090958]}, "properties": {"name": "봉화평강교회", "address": "(36241) 경북 봉화군 봉화읍 탑평길26ㅡ93", "members_num": 15.0}}, {"type": "Feature", "geometry": {"type": "Point", "coordinates": [129.3879975, 36.08489369999999]}, "properties": {"name": "포항한신교회", "address": "(37582) 경북 포항시 북구 법원로116번길22", "members_num": 33.0}}, {"type": "Feature", "geometry": {"type": "Point", "coordinates": [129.0355814, 35.1618847]}, "properties": {"name": "늘푸른교회", "address": "(47178) 부산 부산진구 당감로 17번길 79", "members_num": 100.0}}, {"type": "Feature", "geometry": {"type": "Point", "coordinates": [129.053922, 35.1571401]}, "properties": {"name": "예본교회", "address": "(47284) 부산 부산진구 가야대로754 한솔폴라리스 1513호", "members_num": 10.0}}, {"type": "Feature", "geometry": {"type": "Point", "coordinates": [129.4184146, 35.9709674]}, "properties": {"name": "꽃교회", "address": "(37907) 경북 포항시 남구 오천읍 정몽주로616번길40", "members_num": 15.0}}, {"type": "Feature", "geometry": {"type": "Point", "coordinates": [129.3796194, 36.3558399]}, "properties": {"name": "강구제일교회", "address": "(36458) 경북 영덕군 강구면 나비산길 22-2", "members_num": 60.0}}, {"type": "Feature", "geometry": {"type": "Point", "coordinates": [128.2024774, 36.5911278]}, "properties": {"name": "점촌문희교회", "address": "(점촌문희교회) 경북 문경시 남산로47", "members_num": 50.0}}, {"type": "Feature", "geometry": {"type": "Point", "coordinates": [128.3093502, 34.9810287]}, "properties": {"name": "소담교회", "address": "(52931) 경남 고성군 교사4길 36-35", "members_num": 60.0}}, {"type": "Feature", "geometry": {"type": "Point", "coordinates": [128.0148051, 34.7718355]}, "properties": {"name": "남해내산교회", "address": "(52448) 경남 남해군 삼동면 금암로378번길 26-5", "members_num": 40.0}}, {"type": "Feature", "geometry": {"type": "Point", "coordinates": [129.2832573, 35.4116051]}, "properties": {"name": "남창교회", "address": "(44978) 울산 울주군 온양읍 남창강변로 82", "members_num": 100.0}}, {"type": "Feature", "geometry": {"type": "Point", "coordinates": [128.9367653, 36.1178233]}, "properties": {"name": "입석교회", "address": "(38813) 경북 영천시 화북면 별빛로 9", "members_num": 40.0}}, {"type": "Feature", "geometry": {"type": "Point", "coordinates": [128.6007784, 35.2575677]}, "properties": {"name": "열림교회", "address": "(51185) 경남 창원시 의창구 소계로84번길3.4층", "members_num": 12.0}}, {"type": "Feature", "geometry": {"type": "Point", "coordinates": [128.7408779, 36.8866427]}, "properties": {"name": "봉화농아인교회", "address": "(36238) 경북 봉화군 봉화읍 거촌로 53", "members_num": 21.0}}, {"type": "Feature", "geometry": {"type": "Point", "coordinates": [129.1107003, 35.1761004]}, "properties": {"name": "효광교회", "address": "(47575) 부산 연제구 과정로56번길 63", "members_num": 100.0}}, {"type": "Feature", "geometry": {"type": "Point", "coordinates": [129.3652709, 36.1069541]}, "properties": {"name": "성광교회", "address": "(37550) 경북 포항시 북구 흥해읍 초곡지구로 155번46", "members_num": 150.0}}, {"type": "Feature", "geometry": {"type": "Point", "coordinates": [128.5603702, 35.1957421]}, "properties": {"name": "혜광감리교회", "address": "(51267) 경남 창원시 마산합포구 고운로 133, 2층", "members_num": 30.0}}, {"type": "Feature", "geometry": {"type": "Point", "coordinates": [128.7064487, 35.5271986]}, "properties": {"name": "청운교회", "address": "(50401) 경남 밀양시 부북면 청운2길 42", "members_num": 50.0}}, {"type": "Feature", "geometry": {"type": "Point", "coordinates": [129.0887964, 35.2610185]}, "properties": {"name": "새샘교회", "address": "(46227) 부산 금정구 두실로24번길 6(남산동, 새샘교회) 단층", "members_num": 20.0}}, {"type": "Feature", "geometry": {"type": "Point", "coordinates": [127.9664377, 35.9168781]}, "properties": {"name": "대덕제일교회", "address": "(39698) 경북 김천시 대덕면 대덕로755-3", "members_num": 50.0}}, {"type": "Feature", "geometry": {"type": "Point", "coordinates": [129.3160248, 35.5743989]}, "properties": {"name": "새누리선교교회", "address": "(44421) 울산 중구 성안로156 3층", "members_num": 27.0}}, {"type": "Feature", "geometry": {"type": "Point", "coordinates": [128.9702061, 35.0575746]}, "properties": {"name": "합동개혁", "address": "(49493) 부산 사하구 윤공단로 14번길 62", "members_num": 15.0}}, {"type": "Feature", "geometry": {"type": "Point", "coordinates": [129.0415512, 36.7232358]}, "properties": {"name": "사동감리교회", "address": "(36503) 경북 영양군 청기면 골기포길 20-4", "members_num": 6.0}}, {"type": "Feature", "geometry": {"type": "Point", "coordinates": [128.6756316, 34.913397]}, "properties": {"name": "송정교회", "address": "(53212) 경남 거제시 연초면 송정5길 10", "members_num": 130.0}}, {"type": "Feature", "geometry": {"type": "Point", "coordinates": [128.862982, 35.2438515]}, "properties": {"name": "예수사랑교회", "address": "(50889) 경남 김해시 평전로177 2층", "members_num": 8.0}}, {"type": "Feature", "geometry": {"type": "Point", "coordinates": [127.7542552, 35.6265202]}, "properties": {"name": "황산교회", "address": "(50004) 경남 함양군 서하면 황산길 66-7", "members_num": 20.0}}, {"type": "Feature", "geometry": {"type": "Point", "coordinates": [129.3382388, 35.6599163]}, "properties": {"name": "중산교회", "address": "(44216) 울산 북구 산업로1645-7", "members_num": 35.0}}, {"type": "Feature", "geometry": {"type": "Point", "coordinates": [129.3560133, 35.6010685]}, "properties": {"name": "울산송정교회", "address": "(44238) 울산 북구 지당2길4-1", "members_num": 30.0}}, {"type": "Feature", "geometry": {"type": "Point", "coordinates": [128.9924969, 35.3030563]}, "properties": {"name": "시내산교회", "address": "(50614) 경남 양산시 물금읍 남부마을길 6", "members_num": 20.0}}, {"type": "Feature", "geometry": {"type": "Point", "coordinates": [129.3414921, 35.6613914]}, "properties": {"name": "만남의교회", "address": "(44213) 울산 북구 화정3길1 만남의교회", "members_num": 40.0}}, {"type": "Feature", "geometry": {"type": "Point", "coordinates": [129.3531122, 35.644772]}, "properties": {"name": "샘물교회", "address": "(44219) 울산 북구 신천로92 푸르지오 후문상가3층", "members_num": 30.0}}, {"type": "Feature", "geometry": {"type": "Point", "coordinates": [129.2849453, 35.5367662]}, "properties": {"name": "울산조은교회", "address": "(44645) 울산 남구 문수로283번길6 성우빌라 4차 301호", "members_num": 30.0}}, {"type": "Feature", "geometry": {"type": "Point", "coordinates": [128.9890335, 35.1749221]}, "properties": {"name": "더함교회", "address": "(46941) 부산 사상구 백양대로 762번길 7 창조탕 3층 더함교회", "members_num": 20.0}}, {"type": "Feature", "geometry": {"type": "Point", "coordinates": [127.8131237, 35.8195172]}, "properties": {"name": "소정교회", "address": "(50102) 경남 거창군 북상면 송계로 1240-22", "members_num": 20.0}}, {"type": "Feature", "geometry": {"type": "Point", "coordinates": [128.1497192, 36.4092668]}, "properties": {"name": "기독교대한성결교회", "address": "(37202) 경북 상주시 낙양1길8", "members_num": 75.0}}, {"type": "Feature", "geometry": {"type": "Point", "coordinates": [129.0397292, 35.3505094]}, "properties": {"name": "해오름교회", "address": "(50616) 경남 양산시 명곡로30 3층", "members_num": 50.0}}, {"type": "Feature", "geometry": {"type": "Point", "coordinates": [128.9866842, 35.0797336]}, "properties": {"name": "츠치우라그레이스교회", "address": "(49459) 부산 사하구 서포로30번길26 이편한사하103동402호", "members_num": 10.0}}, {"type": "Feature", "geometry": {"type": "Point", "coordinates": [129.3647391, 36.0416102]}, "properties": {"name": "주안에교회", "address": "(37705) 경북 포항시 북구 용당로164 포항극동방송 4층", "members_num": 20.0}}, {"type": "Feature", "geometry": {"type": "Point", "coordinates": [129.3438086, 36.1113627]}, "properties": {"name": "좋은교회", "address": "(37538) 경북 포항시 북구 흥해읍 한동로17번길2", "members_num": 20.0}}, {"type": "Feature", "geometry": {"type": "Point", "coordinates": [127.8986005, 35.5091561]}, "properties": {"name": "부곡교회", "address": "(52201) 경남 산청군 오부면 오동로667", "members_num": 48.0}}, {"type": "Feature", "geometry": {"type": "Point", "coordinates": [129.3813139, 36.2118601]}, "properties": {"name": "방어침례교회", "address": "(37217) 경북 포항시 북구 청하면 해안로2545-1", "members_num": 11.0}}, {"type": "Feature", "geometry": {"type": "Point", "coordinates": [128.5196142, 35.8484222]}, "properties": {"name": "예찬교회", "address": "(42698) 대구 달서구 문화회관3길 49-20", "members_num": 30.0}}, {"type": "Feature", "geometry": {"type": "Point", "coordinates": [128.1905112, 36.59781359999999]}, "properties": {"name": "그리스도의현교회", "address": "(36971) 경북 문경시 상신로83-2 101호", "members_num": 40.0}}, {"type": "Feature", "geometry": {"type": "Point", "coordinates": [129.3468562, 35.996901]}, "properties": {"name": "은혜감리교회", "address": "(37843) 경북 포항시 남구 연일읍 연일로159번길1 (3층)", "members_num": 20.0}}, {"type": "Feature", "geometry": {"type": "Point", "coordinates": [129.194644, 36.0013342]}, "properties": {"name": "안강정동감리교회", "address": "(38015) 경북 경주시 구부랑3길 18-3", "members_num": 12.0}}, {"type": "Feature", "geometry": {"type": "Point", "coordinates": [129.471151, 36.7221951]}, "properties": {"name": "해동교회", "address": "(36365) 경북 울진군 평해읍 직고개길49", "members_num": 35.0}}, {"type": "Feature", "geometry": {"type": "Point", "coordinates": [129.4523962, 36.680633]}, "properties": {"name": "후포감리교회", "address": "(후포감리교회) 경북 울진군 후포로 101", "members_num": 120.0}}, {"type": "Feature", "geometry": {"type": "Point", "coordinates": [129.4599889, 36.7390272]}, "properties": {"name": "월송감리교회", "address": "(36364) 경북 울진군 평해읍 월송길 139", "members_num": 30.0}}, {"type": "Feature", "geometry": {"type": "Point", "coordinates": [129.0555851, 35.1403897]}, "properties": {"name": "구세군부산교회", "address": "(48723) 부산 동구 범곡로29 구세군부산교회", "members_num": 80.0}}, {"type": "Feature", "geometry": {"type": "Point", "coordinates": [128.7017087, 34.9088216]}, "properties": {"name": "덕포교회", "address": "(53213) 경남 거제시 성산로 184-24", "members_num": 150.0}}, {"type": "Feature", "geometry": {"type": "Point", "coordinates": [128.6578476, 34.9146264]}, "properties": {"name": "연초중앙교회", "address": "(53212) 경남 거제시 연초면 죽토로21", "members_num": 500.0}}, {"type": "Feature", "geometry": {"type": "Point", "coordinates": [128.6272064, 34.9037726]}, "properties": {"name": "거제반석교회", "address": "(53208) 경남 거제시 연초면 오비리 164번지", "members_num": 40.0}}, {"type": "Feature", "geometry": {"type": "Point", "coordinates": [128.7087333, 34.9518977]}, "properties": {"name": "대금교회", "address": "(53202) 경남 거제시 장목면 옥포대첩로 1303-6", "members_num": 30.0}}, {"type": "Feature", "geometry": {"type": "Point", "coordinates": [128.6437816, 34.8977915]}, "properties": {"name": "맑은샘교회/맑은샘병원", "address": "(53209) 경남 거제시 거제대로 4477 맑은샘교회", "members_num": 200.0}}, {"type": "Feature", "geometry": {"type": "Point", "coordinates": [128.6555982, 34.9625907]}, "properties": {"name": "하청교회", "address": "(53204) 경남 거제시 거제시 하청면 연하해안로 1717", "members_num": 330.0}}, {"type": "Feature", "geometry": {"type": "Point", "coordinates": [128.6202322, 34.9200389]}, "properties": {"name": "주님의품교회", "address": "(53207) 경남 거제시 연초면 연하해안로 514", "members_num": 33.0}}, {"type": "Feature", "geometry": {"type": "Point", "coordinates": [129.1113347, 35.1240567]}, "properties": {"name": "부산이기대교회", "address": "(48523) 부산 남구 용호로 90번길 23", "members_num": 50.0}}, {"type": "Feature", "geometry": {"type": "Point", "coordinates": [128.6128421, 35.9021191]}, "properties": {"name": "축복교회", "address": "(41517) 대구 북구 대불로 5길16 수정상가 지하1층", "members_num": 13.0}}, {"type": "Feature", "geometry": {"type": "Point", "coordinates": [129.2085163, 35.2429454]}, "properties": {"name": "기장제일교회", "address": "(46068) 부산 기장군 기장읍 차성서로101번길 18-8", "members_num": 60.0}}, {"type": "Feature", "geometry": {"type": "Point", "coordinates": [127.9823395, 34.8504829]}, "properties": {"name": "광천교회", "address": "(52452) 경남 남해군 창선면 서부로 584-5", "members_num": 30.0}}, {"type": "Feature", "geometry": {"type": "Point", "coordinates": [128.8749648, 35.0823943]}, "properties": {"name": "하늘동산교회", "address": "(46760) 부산 강서구 신호산단1로 101,부영5차아파트 503동 704호", "members_num": 30.0}}, {"type": "Feature", "geometry": {"type": "Point", "coordinates": [128.0325012, 36.1556276]}, "properties": {"name": "태화교회", "address": "(39562) 경북 김천시 봉산면 태화4길 74", "members_num": 60.0}}, {"type": "Feature", "geometry": {"type": "Point", "coordinates": [128.8795787, 35.0846928]}, "properties": {"name": "부산신호교회", "address": "(46759) 부산 강서구 신호산단4로 64번길 12 골든프라자 4층", "members_num": 150.0}}, {"type": "Feature", "geometry": {"type": "Point", "coordinates": [128.8778245, 35.0862991]}, "properties": {"name": "이룸교회", "address": "(46759) 부산 강서구 신호산단 2로29 신호프라자 503호 이룸교회", "members_num": 10.0}}, {"type": "Feature", "geometry": {"type": "Point", "coordinates": [128.9270692, 35.1091692]}, "properties": {"name": "확신교회", "address": "(46725) 부산 강서구 낙동남로 1050-12", "members_num": 180.0}}, {"type": "Feature", "geometry": {"type": "Point", "coordinates": [128.9242992, 35.1104123]}, "properties": {"name": "진목교회", "address": "(46773) 부산 강서구 명지국제13로47", "members_num": 150.0}}, {"type": "Feature", "geometry": {"type": "Point", "coordinates": [128.9990015, 35.1553562]}, "properties": {"name": "비전교회", "address": "(46993) 부산 사상구 백양대로 498", "members_num": 11.0}}, {"type": "Feature", "geometry": {"type": "Point", "coordinates": [129.0081242, 35.2058939]}, "properties": {"name": "함께하는교회", "address": "(46596) 부산 북구 팽나무로 23-1", "members_num": 50.0}}, {"type": "Feature", "geometry": {"type": "Point", "coordinates": [128.9956333, 35.1334715]}, "properties": {"name": "구덕산교회", "address": "(47055) 부산 사상구 학감대로 39번길 104-22", "members_num": 100.0}}, {"type": "Feature", "geometry": {"type": "Point", "coordinates": [129.0114022, 35.1443515]}, "properties": {"name": "대학교회", "address": "(47011) 부산 사상구 주례로 47", "members_num": 300.0}}, {"type": "Feature", "geometry": {"type": "Point", "coordinates": [128.9877685, 35.1443924]}, "properties": {"name": "하늘빛교회", "address": "(47023) 부산 사상구 학감대로 149 2층 하늘빛교회", "members_num": 25.0}}, {"type": "Feature", "geometry": {"type": "Point", "coordinates": [129.0081242, 35.2058939]}, "properties": {"name": "함께하는교회", "address": "(46596) 부산 북구 팽나무로 23-1", "members_num": 30.0}}, {"type": "Feature", "geometry": {"type": "Point", "coordinates": [128.9856568, 35.0710401]}, "properties": {"name": "두송교회", "address": "(49512) 부산 사하구 두송로170", "members_num": 200.0}}, {"type": "Feature", "geometry": {"type": "Point", "coordinates": [128.5740969, 35.2187106]}, "properties": {"name": "한남제일교회", "address": "(51289) 경남 창원시 마산회원구 회원동서로29", "members_num": 100.0}}, {"type": "Feature", "geometry": {"type": "Point", "coordinates": [128.9796322, 35.1393862]}, "properties": {"name": "학장소망교회", "address": "(47050) 부산 사상구 부산광역시 사상구 대동로 71", "members_num": 120.0}}, {"type": "Feature", "geometry": {"type": "Point", "coordinates": [128.6630352, 35.8855279]}, "properties": {"name": "우리교회", "address": "(41137) 대구 동구 방촌로1길 58", "members_num": 50.0}}, {"type": "Feature", "geometry": {"type": "Point", "coordinates": [128.2433942, 35.6819146]}, "properties": {"name": "재건쌍림교회", "address": "(40163) 경북 고령군 쌍림면 귀원1길 29", "members_num": 35.0}}, {"type": "Feature", "geometry": {"type": "Point", "coordinates": [128.5653955, 35.8440002]}, "properties": {"name": "하늘바라기교회", "address": "( 42471) 대구 남구 두류공원로 121", "members_num": 40.0}}, {"type": "Feature", "geometry": {"type": "Point", "coordinates": [129.3759214, 36.0304451]}, "properties": {"name": "하인숙", "address": "(37801) 경북 포항시 남구 송림로 7 2층", "members_num": 20.0}}, {"type": "Feature", "geometry": {"type": "Point", "coordinates": [129.4111599, 35.976691]}, "properties": {"name": "새소망침례교회", "address": "(37904) 경북 포항시 남구 오천읍 구정길18번길 46", "members_num": 60.0}}, {"type": "Feature", "geometry": {"type": "Point", "coordinates": [128.821334, 35.9248816]}, "properties": {"name": "새하양침례교회", "address": "(38699) 경북 경산시 하양읍 교리길 26", "members_num": 40.0}}, {"type": "Feature", "geometry": {"type": "Point", "coordinates": [129.1167748, 35.555561]}, "properties": {"name": "나눔과섬김의교회", "address": "(44950) 울산 울주군 삼남읍 동향교 2길 18", "members_num": 40.0}}, {"type": "Feature", "geometry": {"type": "Point", "coordinates": [128.9957694, 35.2015476]}, "properties": {"name": "함께하는교회", "address": "(46648) 부산 북구 구남언덕로 25", "members_num": 20.0}}, {"type": "Feature", "geometry": {"type": "Point", "coordinates": [129.3607131, 36.0273348]}, "properties": {"name": "포항제일침례교회", "address": "(37747) 경북 포항시 북구 죽파로 44-5", "members_num": 200.0}}, {"type": "Feature", "geometry": {"type": "Point", "coordinates": [129.4946782, 35.9292388]}, "properties": {"name": "신계교회", "address": "(37943) 경북 포항시 남구 장기면 장기로 868", "members_num": 30.0}}, {"type": "Feature", "geometry": {"type": "Point", "coordinates": [129.4020678, 35.9623143]}, "properties": {"name": "한빛침례교회", "address": "(37887) 경북 포항시 남구 문덕로12번길10-6", "members_num": 100.0}}, {"type": "Feature", "geometry": {"type": "Point", "coordinates": [128.697901, 35.8628004]}, "properties": {"name": "새생명교회", "address": "(41105) 대구 동구 안심로22길 60-3 5층", "members_num": 40.0}}, {"type": "Feature", "geometry": {"type": "Point", "coordinates": [129.3761701, 36.0292846]}, "properties": {"name": "송림교회", "address": "(37803) 경북 포항시 남구 축항로72번길4", "members_num": 40.0}}, {"type": "Feature", "geometry": {"type": "Point", "coordinates": [129.0106451, 35.2459256]}, "properties": {"name": "포도원교회", "address": "(46521) 부산 북구 화명신도시로 255 율리주공@ 304동 1709호", "members_num": 10000.0}}, {"type": "Feature", "geometry": {"type": "Point", "coordinates": [128.4923627, 36.1549877]}, "properties": {"name": "구미상림교회", "address": "(39163) 경북 구미시 장천면 장천상림1길 14", "members_num": 120.0}}, {"type": "Feature", "geometry": {"type": "Point", "coordinates": [128.4076346, 35.8867404]}, "properties": {"name": "하산교회", "address": "(42900) 대구 달성군 하빈명 하산2길 64", "members_num": 0.0}}, {"type": "Feature", "geometry": {"type": "Point", "coordinates": [128.122893, 36.665566]}, "properties": {"name": "마성침례교회", "address": "(36923) 경북 문경시 마성면 심현3길3", "members_num": 40.0}}, {"type": "Feature", "geometry": {"type": "Point", "coordinates": [128.2344564, 36.1582832]}, "properties": {"name": "아포진등교회", "address": "(39673) 경북 김천시 아포읍 진등1길 10", "members_num": 45.0}}, {"type": "Feature", "geometry": {"type": "Point", "coordinates": [129.3812621, 36.0786418]}, "properties": {"name": "포항갈보리침례교회", "address": "(37583) 경북 포항시 북구 장량로 18번길 40-21", "members_num": 150.0}}, {"type": "Feature", "geometry": {"type": "Point", "coordinates": [128.9061931, 35.09417310000001]}, "properties": {"name": "전하는교회", "address": "(46726) 부산 강서구 명지국제2로 27 대산골든스퀘어 606호", "members_num": 50.0}}, {"type": "Feature", "geometry": {"type": "Point", "coordinates": [128.1497192, 36.4092668]}, "properties": {"name": "상주교회", "address": "(37202) 경북 상주시 낙양1길8", "members_num": 79.0}}, {"type": "Feature", "geometry": {"type": "Point", "coordinates": [129.4378879, 36.8286454]}, "properties": {"name": "사동감리교회", "address": "(36347) 경북 울진군 기성면 사동1길 41-1", "members_num": 10.0}}, {"type": "Feature", "geometry": {"type": "Point", "coordinates": [129.4016704, 36.9943377]}, "properties": {"name": "울진온누리교회", "address": "(36324) 경북 울진군 울진읍 읍내7길7", "members_num": 75.0}}, {"type": "Feature", "geometry": {"type": "Point", "coordinates": [128.9870884, 35.1854706]}, "properties": {"name": "샬롬교회", "address": "(46920) 부산 사상구 사상로460 3층", "members_num": 20.0}}, {"type": "Feature", "geometry": {"type": "Point", "coordinates": [128.086691, 34.9439094]}, "properties": {"name": "삼천포감리교회", "address": "(52551) 경남 사천시 주공로63, 401호", "members_num": 0.0}}, {"type": "Feature", "geometry": {"type": "Point", "coordinates": [128.66205, 35.1450204]}, "properties": {"name": "진해제일교회", "address": "(51703) 경남 창원시 진해구 충무로 5", "members_num": 180.0}}, {"type": "Feature", "geometry": {"type": "Point", "coordinates": [127.9879121, 36.6108412]}, "properties": {"name": "마암교회", "address": "(36999) 경북 문경시 농암면 말바우길81번지", "members_num": 30.0}}, {"type": "Feature", "geometry": {"type": "Point", "coordinates": [130.8266003, 37.525337]}, "properties": {"name": "현포침례교회", "address": "(40205) 경북 울릉군 북면 현포길 27-19 현포침례교회", "members_num": 40.0}}, {"type": "Feature", "geometry": {"type": "Point", "coordinates": [128.7416018, 35.8328182]}, "properties": {"name": "경산인안교회", "address": "(38615) 경북 경산시 남매공원로1길1 더베스트404호", "members_num": 20.0}}, {"type": "Feature", "geometry": {"type": "Point", "coordinates": [128.885212, 35.7139914]}, "properties": {"name": "합동", "address": "(38360) 경북 청도군 금천면 사전1길 6-1", "members_num": 50.0}}, {"type": "Feature", "geometry": {"type": "Point", "coordinates": [128.5636496, 35.1896789]}, "properties": {"name": "진리의빛교회", "address": "(51739) 경남 창원시 마산합포구 3.15대로 142", "members_num": 5.0}}, {"type": "Feature", "geometry": {"type": "Point", "coordinates": [128.4193141, 35.2706991]}, "properties": {"name": "함안아름다운교회", "address": "(52050) 경남 함안군 가야읍 진함로1897", "members_num": 11.0}}, {"type": "Feature", "geometry": {"type": "Point", "coordinates": [128.9914303, 35.1914961]}, "properties": {"name": "대광교회", "address": "(46926) 부산 사상구 백양대로 979번나길 51", "members_num": 80.0}}, {"type": "Feature", "geometry": {"type": "Point", "coordinates": [128.8147891, 35.7059635]}, "properties": {"name": "상평교회", "address": "(38352) 경북 청도군 매전면 관방로 7", "members_num": 35.0}}, {"type": "Feature", "geometry": {"type": "Point", "coordinates": [128.041678, 35.6264986]}, "properties": {"name": "봉산교회", "address": "(50211) 경남 합천군 봉산면 김봉길 25-5", "members_num": 30.0}}, {"type": "Feature", "geometry": {"type": "Point", "coordinates": [128.7124258, 35.2094063]}, "properties": {"name": "높은부르심교회", "address": "(51469) 경남 창원시 성산구 대암로143", "members_num": 150.0}}, {"type": "Feature", "geometry": {"type": "Point", "coordinates": [128.5548979, 35.9438391]}, "properties": {"name": "대구생명교회", "address": "(41422) 대구 북구 동천로23길62 2층", "members_num": 15.0}}, {"type": "Feature", "geometry": {"type": "Point", "coordinates": [128.5434987, 35.9206982]}, "properties": {"name": "예수비전교회", "address": "(41458) 대구 북구 칠곡중앙대로북53길25-5", "members_num": 40.0}}, {"type": "Feature", "geometry": {"type": "Point", "coordinates": [128.0909178, 36.3579557]}, "properties": {"name": "신상교회", "address": "(37259) 경북 상주시 외남면 청동로 7", "members_num": 30.0}}, {"type": "Feature", "geometry": {"type": "Point", "coordinates": [129.3270233, 35.7440857]}, "properties": {"name": "제현교회", "address": "(38211) 경북 경주시 외동읍 산업로 2599", "members_num": 10.0}}, {"type": "Feature", "geometry": {"type": "Point", "coordinates": [129.0864437, 35.265549]}, "properties": {"name": "만나교회", "address": "(46223) 부산 금정구 금강로 647번길 40 3층", "members_num": 30.0}}, {"type": "Feature", "geometry": {"type": "Point", "coordinates": [128.3438865, 36.0620145]}, "properties": {"name": "북삼초대교회", "address": "(39808) 경북 칠곡군 인평중앙로 30-2, 2층", "members_num": 20.0}}, {"type": "Feature", "geometry": {"type": "Point", "coordinates": [128.8152196, 35.4107699]}, "properties": {"name": "미전교회", "address": "(50465) 경남 밀양시 삼랑진읍 미전2길 21", "members_num": 5.0}}, {"type": "Feature", "geometry": {"type": "Point", "coordinates": [128.7011129, 35.8435906]}, "properties": {"name": "대구주영교회", "address": "(42268) 대구 수성구 달구벌대로 627길 21", "members_num": 20.0}}, {"type": "Feature", "geometry": {"type": "Point", "coordinates": [128.3572416, 34.9728647]}, "properties": {"name": "방산교회", "address": "(52924) 경남 고성군 겨류면 용산안길 21", "members_num": 10.0}}, {"type": "Feature", "geometry": {"type": "Point", "coordinates": [128.8108038, 36.6619118]}, "properties": {"name": "방잠교회", "address": "(36610) 경북 안동시 와룡면 나소로 297-9", "members_num": 40.0}}, {"type": "Feature", "geometry": {"type": "Point", "coordinates": [127.8958267, 34.745221]}, "properties": {"name": "테필라찬양교회", "address": "(52436) 경남 남해군 남면 남서대로 611-25", "members_num": 20.0}}, {"type": "Feature", "geometry": {"type": "Point", "coordinates": [129.0861033, 35.2050072]}, "properties": {"name": "동래교회", "address": "(47810) 부산 동래구 동래로 138, 1층 사무실", "members_num": 20.0}}, {"type": "Feature", "geometry": {"type": "Point", "coordinates": [128.4151718, 36.139473]}, "properties": {"name": "꿈이있는교회", "address": "(39186) 경북 구미시 산호대로23길21-6", "members_num": 15.0}}, {"type": "Feature", "geometry": {"type": "Point", "coordinates": [128.5446188, 35.81042619999999]}, "properties": {"name": "들꽃피는교회", "address": "(42795) 대구 달서구 상화로 57길 46", "members_num": 50.0}}, {"type": "Feature", "geometry": {"type": "Point", "coordinates": [128.5199886, 36.3408739]}, "properties": {"name": "현산교회", "address": "(37365) 경북 의성군 비안면 현산길89", "members_num": 40.0}}, {"type": "Feature", "geometry": {"type": "Point", "coordinates": [128.6794359, 35.8762246]}, "properties": {"name": "동일교회/중등부", "address": "(41166) 대구 동구 동촌로 374-3, 1층", "members_num": 30.0}}, {"type": "Feature", "geometry": {"type": "Point", "coordinates": [127.8969363, 34.8534179]}, "properties": {"name": "남해전원교회", "address": "(52412) 경남 남해군 남해읍 남해대로 2981-27", "members_num": 30.0}}, {"type": "Feature", "geometry": {"type": "Point", "coordinates": [128.6290077, 35.8928011]}, "properties": {"name": "성빈교회", "address": "(41528) 대구 북구 동북로65길 28-11", "members_num": 450.0}}, {"type": "Feature", "geometry": {"type": "Point", "coordinates": [129.1043413, 35.1717431]}, "properties": {"name": "평화교회", "address": "(48235) 부산 수영구 연수로 312번길 2", "members_num": 250.0}}, {"type": "Feature", "geometry": {"type": "Point", "coordinates": [129.0822192, 35.4621685]}, "properties": {"name": "방주교회", "address": "(50508) 경남 양산시 하북면 진목로 16~3", "members_num": 50.0}}, {"type": "Feature", "geometry": {"type": "Point", "coordinates": [128.4365802, 35.7293111]}, "properties": {"name": "달성제일교회", "address": "(42978) 대구 달성군 논공읍 논공로7길21 (42978) 대구 달성군 논공읍 논공로7길21", "members_num": 150.0}}, {"type": "Feature", "geometry": {"type": "Point", "coordinates": [129.0940343, 35.1902848]}, "properties": {"name": "부산연동교회", "address": "(47561) 부산 연제구 신금로 15", "members_num": 80.0}}, {"type": "Feature", "geometry": {"type": "Point", "coordinates": [129.0879918, 35.2350462]}, "properties": {"name": "부르심의교회", "address": "(46284) 부산 금정구 장전온천천로 113번길 17(1층)", "members_num": 25.0}}, {"type": "Feature", "geometry": {"type": "Point", "coordinates": [129.3507044, 35.6391398]}, "properties": {"name": "월드드림교회", "address": "(44220) 울산 북구 매곡로 43-2", "members_num": 30.0}}, {"type": "Feature", "geometry": {"type": "Point", "coordinates": [128.3868116, 35.381768]}, "properties": {"name": "지정교회", "address": "(52117) 경남 의령군 경남의령군지정면함의로3길7지정교회", "members_num": 30.0}}, {"type": "Feature", "geometry": {"type": "Point", "coordinates": [128.5783671, 36.8706504]}, "properties": {"name": "오계교회", "address": "(36048) 경북 영주시 안정면 대평로 5", "members_num": 30.0}}, {"type": "Feature", "geometry": {"type": "Point", "coordinates": [128.9905813, 35.1388957]}, "properties": {"name": "학장로교회", "address": "(47053) 부산 사상구 학감대로 103", "members_num": 200.0}}, {"type": "Feature", "geometry": {"type": "Point", "coordinates": [128.1605203, 36.6512101]}, "properties": {"name": "상무백석교회", "address": "(36931) 경북 문경시 상무로101 상무백석교회", "members_num": 65.0}}, {"type": "Feature", "geometry": {"type": "Point", "coordinates": [128.0673432, 35.2039906]}, "properties": {"name": "진주에덴교회", "address": "(52656) 경남 진주시 상봉대룡길54", "members_num": 77.0}}, {"type": "Feature", "geometry": {"type": "Point", "coordinates": [128.6988637, 35.8681446]}, "properties": {"name": "반석교회", "address": "(41121) 대구 동구 율하동로15길39", "members_num": 20.0}}, {"type": "Feature", "geometry": {"type": "Point", "coordinates": [129.414562, 35.9635641]}, "properties": {"name": "베들레헴교회", "address": "(790-906) 경북 포항시 남구 오천읍 정몽주로 504-3", "members_num": 24.0}}, {"type": "Feature", "geometry": {"type": "Point", "coordinates": [128.0806928, 35.5118983]}, "properties": {"name": "황계교회", "address": "(50214) 경남 합천군 황계폭포로485-4", "members_num": 10.0}}, {"type": "Feature", "geometry": {"type": "Point", "coordinates": [128.683876, 35.3673592]}, "properties": {"name": "일동교회", "address": "(51119) 경남 창원시 의창구 대산면 갈전로118-8", "members_num": 100.0}}, {"type": "Feature", "geometry": {"type": "Point", "coordinates": [129.1687382, 35.1706883]}, "properties": {"name": "희망찬교회", "address": "(48083) 부산 해운대구 대천로 35 코오롱아파트 102동 102호", "members_num": 18.0}}, {"type": "Feature", "geometry": {"type": "Point", "coordinates": [128.6373871, 36.8342974]}, "properties": {"name": "영주성서침례교회", "address": "(36064) 경북 영주시 원당로275번길 31", "members_num": 15.0}}, {"type": "Feature", "geometry": {"type": "Point", "coordinates": [129.1701344, 35.326741]}, "properties": {"name": "동성가온교회", "address": "(46012) 부산 기장군 정관읍 정관로485 롯데캐슬프라자8층", "members_num": 10.0}}, {"type": "Feature", "geometry": {"type": "Point", "coordinates": [128.1659213, 36.4277494]}, "properties": {"name": "하늘소망교회", "address": "(37159) 경북 상주시 계산3길 22", "members_num": 30.0}}, {"type": "Feature", "geometry": {"type": "Point", "coordinates": [128.5693988, 35.2228822]}, "properties": {"name": "예찬교회", "address": "(51287) 경남 창원시 마산회원구 북성로193-1", "members_num": 10.0}}, {"type": "Feature", "geometry": {"type": "Point", "coordinates": [128.0972424, 35.1775623]}, "properties": {"name": "진주침례교회", "address": "(75727) 경남 진주시 강남로 95번길 6", "members_num": 40.0}}, {"type": "Feature", "geometry": {"type": "Point", "coordinates": [128.3871251, 36.5439454]}, "properties": {"name": "지보교회", "address": "(36853) 경북 예천군 지보면 지보로 175", "members_num": 80.0}}, {"type": "Feature", "geometry": {"type": "Point", "coordinates": [128.2759218, 35.3397667]}, "properties": {"name": "의령침례교회", "address": "(52128) 경남 의령군 덕암로5길 12-1", "members_num": 11.0}}, {"type": "Feature", "geometry": {"type": "Point", "coordinates": [129.4062427, 36.5369792]}, "properties": {"name": "영해교회", "address": "(36412) 경북 영덕군 영해면 예주길 37", "members_num": 100.0}}, {"type": "Feature", "geometry": {"type": "Point", "coordinates": [128.9559582, 35.9726265]}, "properties": {"name": "필그림교회", "address": "(38865) 경북 영천시 장천3길 18", "members_num": 30.0}}, {"type": "Feature", "geometry": {"type": "Point", "coordinates": [128.8175499, 35.2005914]}, "properties": {"name": "장유교회", "address": "(51007) 경남 김해시 장유로307번길 21", "members_num": 350.0}}, {"type": "Feature", "geometry": {"type": "Point", "coordinates": [129.0113025, 35.1962675]}, "properties": {"name": "함께하는교회", "address": "(46624) 부산 북구 시랑로145~1", "members_num": 30.0}}, {"type": "Feature", "geometry": {"type": "Point", "coordinates": [129.4276673, 35.5167587]}, "properties": {"name": "비전교회", "address": "(44035) 울산 동구 바드래4길 74-1", "members_num": 40.0}}, {"type": "Feature", "geometry": {"type": "Point", "coordinates": [129.2629964, 35.5456744]}, "properties": {"name": "행복이더해지는시온성교회", "address": "(44612) 울산 남구 옥현로 92-27 옥현주공1단지 상가", "members_num": 20.0}}, {"type": "Feature", "geometry": {"type": "Point", "coordinates": [129.0479663, 35.8929064]}, "properties": {"name": "아화교회", "address": "(38053) 경북 경주시 서면 아화3길 41-42", "members_num": 150.0}}, {"type": "Feature", "geometry": {"type": "Point", "coordinates": [128.9014672, 35.2321944]}, "properties": {"name": "창대교회", "address": "(50929) 경남 김해시 김해시김해대로2517번길43", "members_num": 30.0}}, {"type": "Feature", "geometry": {"type": "Point", "coordinates": [129.0461813, 35.0897538]}, "properties": {"name": "영선침례교회", "address": "(49061) 부산 영도구 꿈나무길 55", "members_num": 100.0}}, {"type": "Feature", "geometry": {"type": "Point", "coordinates": [128.4949085, 36.3270599]}, "properties": {"name": "비안교회", "address": "(37366) 경북 의성군 만세길 511-12", "members_num": 50.0}}, {"type": "Feature", "geometry": {"type": "Point", "coordinates": [129.317813, 35.5781808]}, "properties": {"name": "세원교회", "address": "(44416) 울산 중구 함월20길14", "members_num": 20.0}}, {"type": "Feature", "geometry": {"type": "Point", "coordinates": [129.031214, 35.3403457]}, "properties": {"name": "주영광교회", "address": "(50620) 경남 양산시 양주1길9", "members_num": 50.0}}, {"type": "Feature", "geometry": {"type": "Point", "coordinates": [128.8032274, 35.0893815]}, "properties": {"name": "높은뜻하나되는교회", "address": "(51611) 경남 창원시 진해구 신항동로226 상가동201호", "members_num": 60.0}}, {"type": "Feature", "geometry": {"type": "Point", "coordinates": [129.0328216, 35.1674052]}, "properties": {"name": "부산성복교회", "address": "(47158) 부산 부산진구 백양순환로27번길4", "members_num": 160.0}}, {"type": "Feature", "geometry": {"type": "Point", "coordinates": [129.0345105, 35.1075063]}, "properties": {"name": "부산염광교회", "address": "(48925) 부산 중구 중구로 150-15", "members_num": 250.0}}, {"type": "Feature", "geometry": {"type": "Point", "coordinates": [128.6291194, 34.896774]}, "properties": {"name": "거제이룸교회", "address": "(53245) 경남 거제시 중곡로 7길10", "members_num": 35.0}}, {"type": "Feature", "geometry": {"type": "Point", "coordinates": [128.1267314, 35.1880158]}, "properties": {"name": "진주중앙교회", "address": "(52778) 경남 진주시 모덕로 288-7", "members_num": 100.0}}, {"type": "Feature", "geometry": {"type": "Point", "coordinates": [128.7506409, 35.8169223]}, "properties": {"name": "경산침례교회", "address": "(38592) 경북 경산시 경산시 계양로 8길 28일", "members_num": 50.0}}, {"type": "Feature", "geometry": {"type": "Point", "coordinates": [128.1994381, 36.5987828]}, "properties": {"name": "우리교회", "address": "(36969) 경북 문경시 점촌로 34", "members_num": 30.0}}, {"type": "Feature", "geometry": {"type": "Point", "coordinates": [128.7173452, 36.1766237]}, "properties": {"name": "의흥장로교회", "address": "(43149) 대구 군위군 의흥면 읍내2길 27-7", "members_num": 20.0}}, {"type": "Feature", "geometry": {"type": "Point", "coordinates": [128.2585743, 36.6136231]}, "properties": {"name": "산양교회", "address": "(36935) 경북 문경시 산양면 불암3길 28", "members_num": 0.0}}, {"type": "Feature", "geometry": {"type": "Point", "coordinates": [128.8704677, 35.2523949]}, "properties": {"name": "김해동산교회", "address": "(50905) 경남 김해시 경상남도 김해시 가락로 335", "members_num": 200.0}}, {"type": "Feature", "geometry": {"type": "Point", "coordinates": [128.7170236, 35.1968266]}, "properties": {"name": "성산한빛교회", "address": "(51470) 경남 창원시 성산구 삼정자로 111번길", "members_num": 300.0}}, {"type": "Feature", "geometry": {"type": "Point", "coordinates": [129.2427071, 35.5667072]}, "properties": {"name": "신울산교회", "address": "(44925) 울산 울주군 범서읍 구영로 174-1", "members_num": 80.0}}, {"type": "Feature", "geometry": {"type": "Point", "coordinates": [128.7747788, 36.0988269]}, "properties": {"name": "화산산성교회", "address": "(39057) 대구 군위군 삼국유사면 화산길 619-24", "members_num": 30.0}}, {"type": "Feature", "geometry": {"type": "Point", "coordinates": [129.1124213, 35.1097702]}, "properties": {"name": "오륙도교회", "address": "(48593) 부산 남구 용호로239-1", "members_num": 30.0}}, {"type": "Feature", "geometry": {"type": "Point", "coordinates": [128.8779423, 35.0847033]}, "properties": {"name": "더울림교회", "address": "(46759) 부산 강서구 신호산단2로 49번길 9 2층", "members_num": 30.0}}, {"type": "Feature", "geometry": {"type": "Point", "coordinates": [128.7320645, 35.8244312]}, "properties": {"name": "경산아름다운교회", "address": "(38626) 경북 경산시 중앙초등길 3 3층", "members_num": 20.0}}, {"type": "Feature", "geometry": {"type": "Point", "coordinates": [129.1952757, 36.0009975]}, "properties": {"name": "옥토교회", "address": "(38015) 경북 경주시 안강읍 구부랑두림길 28", "members_num": 20.0}}, {"type": "Feature", "geometry": {"type": "Point", "coordinates": [128.4766001, 34.8809249]}, "properties": {"name": "대교교회", "address": "(53274) 경남 거제시 거제남서로 5317-1", "members_num": 40.0}}, {"type": "Feature", "geometry": {"type": "Point", "coordinates": [128.5446294, 35.8629704]}, "properties": {"name": "이현교회", "address": "(41843) 대구 서구 평리로 35길 6-11", "members_num": 150.0}}, {"type": "Feature", "geometry": {"type": "Point", "coordinates": [128.8396141, 35.3994971]}, "properties": {"name": "삼랑진제일교회", "address": "(50467) 경남 밀양시 삼랑진읍 송지1안길 4", "members_num": 30.0}}, {"type": "Feature", "geometry": {"type": "Point", "coordinates": [128.6158094, 35.6442555]}, "properties": {"name": "풍각제일교회", "address": "(38308) 경북 청도군 풍각면 헐티로 218-2", "members_num": 180.0}}, {"type": "Feature", "geometry": {"type": "Point", "coordinates": [129.0923455, 35.2192215]}, "properties": {"name": "소망엘림교회", "address": "(46270) 부산 금정구 부곡로42번길 83", "members_num": 30.0}}, {"type": "Feature", "geometry": {"type": "Point", "coordinates": [128.5187286, 35.3067312]}, "properties": {"name": "칠원온누리교회", "address": "(52023) 경남 함안군 칠원읍 구성길 86", "members_num": 100.0}}, {"type": "Feature", "geometry": {"type": "Point", "coordinates": [128.7919591, 36.5435089]}, "properties": {"name": "송천교회", "address": "(36728) 경북 안동시 송천2길 65입니다", "members_num": 100.0}}, {"type": "Feature", "geometry": {"type": "Point", "coordinates": [128.6619832, 35.1555512]}, "properties": {"name": "진해교회", "address": "(51690) 경남 창원시 진해구 여좌로 67", "members_num": 140.0}}, {"type": "Feature", "geometry": {"type": "Point", "coordinates": [127.9529565, 35.1671736]}, "properties": {"name": "수곡원당교회", "address": "(52646) 경남 진주시 수곡면 원창길8", "members_num": 12.0}}, {"type": "Feature", "geometry": {"type": "Point", "coordinates": [128.4280884, 36.118042]}, "properties": {"name": "하늘정원교회", "address": "(39824) 경북 구미시 검성로102", "members_num": 25.0}}, {"type": "Feature", "geometry": {"type": "Point", "coordinates": [128.679405, 34.98862829999999]}, "properties": {"name": "관포교회", "address": "(53201) 경남 거제시 장목면 거제북로 2828", "members_num": 70.0}}, {"type": "Feature", "geometry": {"type": "Point", "coordinates": [128.6288079, 34.9818295]}, "properties": {"name": "칠천도교회", "address": "(53203) 경상남도 거제시 하청면 연구2길 11-1", "members_num": 50.0}}, {"type": "Feature", "geometry": {"type": "Point", "coordinates": [128.0894091, 34.9350267]}, "properties": {"name": "창대교회", "address": "(52562) 경남 사천시 남일로 109-1", "members_num": 30.0}}, {"type": "Feature", "geometry": {"type": "Point", "coordinates": [128.6288079, 34.9818295]}, "properties": {"name": "칠천도교회", "address": "(532-03) 경남 거제시 하청면 연구 2길 11-1", "members_num": 50.0}}, {"type": "Feature", "geometry": {"type": "Point", "coordinates": [128.974705, 35.0910628]}, "properties": {"name": "신평중앙교회", "address": "(49442) 부산광역시 사하구 신산로177-7", "members_num": 200.0}}, {"type": "Feature", "geometry": {"type": "Point", "coordinates": [129.0861419, 35.1310049]}, "properties": {"name": "순복음남부산교회", "address": "(48462) 부산광역시 남구 천제등로28번길 55 순복음남부산교회", "members_num": 20.0}}, {"type": "Feature", "geometry": {"type": "Point", "coordinates": [128.8032274, 35.0893815]}, "properties": {"name": "테이크아웃교회", "address": "(51611) 경상남도 창원시 진해구 신항동로226 부영2단지 202-903", "members_num": 10.0}}, {"type": "Feature", "geometry": {"type": "Point", "coordinates": [128.3765715, 36.4304306]}, "properties": {"name": "고락", "address": "(37304) 경북 의성군 다인면 신락1길 37-5", "members_num": 50.0}}, {"type": "Feature", "geometry": {"type": "Point", "coordinates": [129.0510297, 35.1699747]}, "properties": {"name": "은혜의강가교회", "address": "(47133) 부산시 부산진구 동평로213", "members_num": 20.0}}, {"type": "Feature", "geometry": {"type": "Point", "coordinates": [128.5471613, 35.9223194]}, "properties": {"name": "팔달중앙교회", "address": "(41462) 대구광역시 북구 칠곡중앙대로 300(4층)", "members_num": 140.0}}, {"type": "Feature", "geometry": {"type": "Point", "coordinates": [128.7198442, 35.3030656]}, "properties": {"name": "7073부대군인거성교회", "address": "(50867) 경남 김해시 진영읍 진영산복로20, 107/1601", "members_num": 40.0}}, {"type": "Feature", "geometry": {"type": "Point", "coordinates": [128.6693936, 36.349136]}, "properties": {"name": "원당교회", "address": "(37334) 경상북도 의성군 의성읍 원당1길 19-8", "members_num": 20.0}}, {"type": "Feature", "geometry": {"type": "Point", "coordinates": [128.1572159, 36.4225695]}, "properties": {"name": "상산감리교회", "address": "(37169) 경상북도 상주시 동수3길 109(무양동201-2)", "members_num": 25.0}}, {"type": "Feature", "geometry": {"type": "Point", "coordinates": [128.985103, 35.1558547]}, "properties": {"name": "주심교회", "address": "(46981) 부산광역시 사상구 대동로 309 2층", "members_num": 20.0}}, {"type": "Feature", "geometry": {"type": "Point", "coordinates": [128.8649998, 35.2626708]}, "properties": {"name": "기성", "address": "(50896) 경상남도 김해시 삼계중앙로5번길 17-28 화정제일교회", "members_num": 70.0}}, {"type": "Feature", "geometry": {"type": "Point", "coordinates": [129.3293259, 36.1645201]}, "properties": {"name": "고현교회", "address": "(37519) 경상북도 포항시 북구 청하면 고현길 110-7", "members_num": 25.0}}, {"type": "Feature", "geometry": {"type": "Point", "coordinates": [128.5454012, 35.9116768]}, "properties": {"name": "나눔의교회", "address": "(41470) 대구광역시 북구 매전로73 나눔의교회", "members_num": 20.0}}, {"type": "Feature", "geometry": {"type": "Point", "coordinates": [128.6077848, 35.8832095]}, "properties": {"name": "영광스러운교회", "address": "(대구광역시) 북구 대현로 75 3층 글로리어스미션센터", "members_num": 30.0}}, {"type": "Feature", "geometry": {"type": "Point", "coordinates": [129.1361632, 36.9263472]}, "properties": {"name": "옥방교회", "address": "(36265) 경상북도 봉화군 소천면 남회룡로 1485-3", "members_num": 60.0}}, {"type": "Feature", "geometry": {"type": "Point", "coordinates": [128.9914129, 35.3134507]}, "properties": {"name": "양산호산나교회", "address": "(50655) 경상남도 양산시 물금읍 물금로75 204-402호", "members_num": 0.0}}, {"type": "Feature", "geometry": {"type": "Point", "coordinates": [128.3756014, 36.0673231]}, "properties": {"name": "구미영락교회", "address": "(39364) 경상북도 구미시 오태8길 66", "members_num": 200.0}}, {"type": "Feature", "geometry": {"type": "Point", "coordinates": [128.4093773, 35.2751673]}, "properties": {"name": "주님의교회", "address": "(52046) 경상남도 함안군 가야읍 함안대로558번지", "members_num": 15.0}}, {"type": "Feature", "geometry": {"type": "Point", "coordinates": [129.1119556, 35.1178779]}, "properties": {"name": "살리는교회", "address": "(48585) 부산광역시 남구 용호로 165", "members_num": 18.0}}, {"type": "Feature", "geometry": {"type": "Point", "coordinates": [128.8875638, 35.2291346]}, "properties": {"name": "은혜평강교회", "address": "(50924) 경상남도 김해시 김해대로 2385번길 24", "members_num": 30.0}}, {"type": "Feature", "geometry": {"type": "Point", "coordinates": [129.1687548, 35.4047096]}, "properties": {"name": "명동교회", "address": "(50532) 경상남도 양산시 신명동로 33", "members_num": 170.0}}, {"type": "Feature", "geometry": {"type": "Point", "coordinates": [129.1915077, 35.3261536]}, "properties": {"name": "정관한빛교회", "address": "(46019) 부산 기장군 정관읍 방곡로 55-12", "members_num": 50.0}}, {"type": "Feature", "geometry": {"type": "Point", "coordinates": [128.8658687, 35.2593102]}, "properties": {"name": "김해대성교회", "address": "(50903) 경남 김해시 삼계중앙로 6번길 10", "members_num": 70.0}}, {"type": "Feature", "geometry": {"type": "Point", "coordinates": [129.0922549, 35.2652129]}, "properties": {"name": "우림교회", "address": "(46224) 부산광역시 금정구 중앙대로 2027 새생명빌딩 4층", "members_num": 100.0}}, {"type": "Feature", "geometry": {"type": "Point", "coordinates": [128.6979703, 35.1499717]}, "properties": {"name": "진해창대교회", "address": "(51655) 경남 창원시 진해구 충장로 435, 3층 진해창대교회", "members_num": 11.0}}, {"type": "Feature", "geometry": {"type": "Point", "coordinates": [127.9962373, 35.2811059]}, "properties": {"name": "외율교회", "address": "(52640) 경상남도 진주시 명석면 외율길 57번길 9", "members_num": 25.0}}, {"type": "Feature", "geometry": {"type": "Point", "coordinates": [128.0095445, 34.8597931]}, "properties": {"name": "창선교회", "address": "(52453) 경상남도 남해군 창선로 131번길 창선교회", "members_num": 100.0}}, {"type": "Feature", "geometry": {"type": "Point", "coordinates": [128.7053413, 35.1581361]}, "properties": {"name": "아름다운교회", "address": "(51587) 경상남도 창원시 진해구 석동로 75번길 20-8 아름다운교회", "members_num": 50.0}}, {"type": "Feature", "geometry": {"type": "Point", "coordinates": [128.5573267, 35.1308682]}, "properties": {"name": "유산교회", "address": "(51779) 경남 창원시 마산합포구 구산면 유산1길 36", "members_num": 15.0}}, {"type": "Feature", "geometry": {"type": "Point", "coordinates": [128.8723355, 35.2482805]}, "properties": {"name": "구산제일교회", "address": "(50910) 경남 김해시 구산로 30번길 3-10", "members_num": 12.0}}, {"type": "Feature", "geometry": {"type": "Point", "coordinates": [129.105842, 35.2130768]}, "properties": {"name": "부산행복한교회", "address": "(46328) 부산광역시 금정구 반송로 361", "members_num": 50.0}}, {"type": "Feature", "geometry": {"type": "Point", "coordinates": [128.8182601, 35.1696469]}, "properties": {"name": "새소망교회", "address": "(51780) 경남 김해시 율하2로 153번길 15 새소망교회", "members_num": 40.0}}, {"type": "Feature", "geometry": {"type": "Point", "coordinates": [128.811597, 35.1755997]}, "properties": {"name": "예수정교회", "address": "(51014) 경상남도 김해시 율하2로 19", "members_num": 200.0}}, {"type": "Feature", "geometry": {"type": "Point", "coordinates": [128.9183517, 35.3520915]}, "properties": {"name": "감로교회", "address": "(50803) 경상남도 김해시 동북호1135번길 12-1", "members_num": 30.0}}, {"type": "Feature", "geometry": {"type": "Point", "coordinates": [128.8182601, 35.1696469]}, "properties": {"name": "새소망교회", "address": "(51018) 경상남도 김해시 율하2로 153번길15", "members_num": 30.0}}, {"type": "Feature", "geometry": {"type": "Point", "coordinates": [128.8225905, 35.1761952]}, "properties": {"name": "평안교회", "address": "(51016) 경상남도 김해시 율하2로 236번길 31", "members_num": 12.0}}, {"type": "Feature", "geometry": {"type": "Point", "coordinates": [129.0287943, 36.5326157]}, "properties": {"name": "진보영광교회", "address": "(37407) 경상북도 청송군 진보면 돈골길 11", "members_num": 10.0}}, {"type": "Feature", "geometry": {"type": "Point", "coordinates": [128.5672745, 35.8451101]}, "properties": {"name": "대구광야교회", "address": "(42471) 대구광역시 남구 두류공원로17길 57(대명동)1층", "members_num": 30.0}}, {"type": "Feature", "geometry": {"type": "Point", "coordinates": [129.0878867, 35.2623475]}, "properties": {"name": "꿈이있는교회", "address": "(46225) 부산광역시 금정구 금강로613 2층", "members_num": 20.0}}, {"type": "Feature", "geometry": {"type": "Point", "coordinates": [128.7940299, 35.1779298]}, "properties": {"name": "우리는교회", "address": "(50998) 경상남도 김해시 계동로 17 3층", "members_num": 60.0}}, {"type": "Feature", "geometry": {"type": "Point", "coordinates": [129.5602585, 36.078185]}, "properties": {"name": "대보교회", "address": "(37928) 경북 포항시 호미곶면 해맞이로 189-12", "members_num": 30.0}}, {"type": "Feature", "geometry": {"type": "Point", "coordinates": [128.7085075, 35.2151382]}, "properties": {"name": "비전드림교회", "address": "(51462) 경남 창원시 성산구 대암로 110 경동프라자 303호", "members_num": 20.0}}, {"type": "Feature", "geometry": {"type": "Point", "coordinates": [128.6908235, 35.2794849]}, "properties": {"name": "샘솟는교회", "address": "(51132) 경남 창원시 의창구 동읍 의창대로915번길6", "members_num": 20.0}}, {"type": "Feature", "geometry": {"type": "Point", "coordinates": [129.3374839, 36.009503]}, "properties": {"name": "포항빛내리교회", "address": "(37663) 경상북도 포항시 남구 효자동192-2번지", "members_num": 30.0}}, {"type": "Feature", "geometry": {"type": "Point", "coordinates": [128.572625, 35.8782241]}, "properties": {"name": "달산교회", "address": "(41794) 대구광역시 서구 북비산로 364", "members_num": 200.0}}, {"type": "Feature", "geometry": {"type": "Point", "coordinates": [128.8728129, 35.2485034]}, "properties": {"name": "선한이웃교회", "address": "(50910) 경남 김해시 구산로 40 2층", "members_num": 30.0}}, {"type": "Feature", "geometry": {"type": "Point", "coordinates": [128.5524712, 35.84322820000001]}, "properties": {"name": "대구햇살교회", "address": "(41816) 대구광역시 달서구 장기로73 (5층)", "members_num": 12.0}}, {"type": "Feature", "geometry": {"type": "Point", "coordinates": [129.346506, 35.543945]}, "properties": {"name": "김기석", "address": "(44710) 울산광역시 남구 돋질로 377번길 4 3층", "members_num": 15.0}}, {"type": "Feature", "geometry": {"type": "Point", "coordinates": [129.0055331, 35.2118043]}, "properties": {"name": "부산청운교회", "address": "(46547) 부산광역시 북구 금곡대로 20번길14", "members_num": 60.0}}, {"type": "Feature", "geometry": {"type": "Point", "coordinates": [128.4885544, 35.1156766]}, "properties": {"name": "진동성산교회", "address": "(51793) 경상남도 마산시합포구 삼진의거대로 642_27", "members_num": 13.0}}, {"type": "Feature", "geometry": {"type": "Point", "coordinates": [129.075095, 35.8881148]}, "properties": {"name": "서면교회", "address": "(38052) 경상북도 경주시 서면 부운율전길 40", "members_num": 20.0}}, {"type": "Feature", "geometry": {"type": "Point", "coordinates": [129.1590331, 35.408827]}, "properties": {"name": "다움교회", "address": "(50514) 경남 양산시 소주회야로77 2층", "members_num": 40.0}}, {"type": "Feature", "geometry": {"type": "Point", "coordinates": [129.2307002, 35.8754012]}, "properties": {"name": "양북교회", "address": "(38092) 경상북도 경주시 승삼4길 9-16", "members_num": 5.0}}, {"type": "Feature", "geometry": {"type": "Point", "coordinates": [129.3679926, 36.4135322]}, "properties": {"name": "구세군영덕교회", "address": "(36433) 경상북도 영덕군 영덕읍 군청길 127-7", "members_num": 40.0}}, {"type": "Feature", "geometry": {"type": "Point", "coordinates": [129.0118242, 35.2139691]}, "properties": {"name": "감사교회", "address": "(46552) 부산광역시 북구 의성로 79", "members_num": 50.0}}, {"type": "Feature", "geometry": {"type": "Point", "coordinates": [130.8737432, 37.5436405]}, "properties": {"name": "천부제일교회", "address": "(40211) 경북 울릉군 북면 천부길 29", "members_num": 80.0}}, {"type": "Feature", "geometry": {"type": "Point", "coordinates": [129.4071747, 35.9824911]}, "properties": {"name": "사랑과진리교회", "address": "(37925) 경상북도 포항시 남구 오천읍 해병로 127 신세계우방2차 201동307호", "members_num": 20.0}}, {"type": "Feature", "geometry": {"type": "Point", "coordinates": [129.0923739, 35.2739529]}, "properties": {"name": "우리는교회", "address": "(46218) 부산광역시 금정구 청룡예전로 2, 3층", "members_num": 20.0}}, {"type": "Feature", "geometry": {"type": "Point", "coordinates": [128.7398399, 35.1284577]}, "properties": {"name": "우리교회", "address": "(51582) 경남 창원시 진해구 진해대로 727 112동 202호", "members_num": 50.0}}, {"type": "Feature", "geometry": {"type": "Point", "coordinates": [128.3353196, 36.1058865]}, "properties": {"name": "구미김천밀알선교단", "address": "(39318) 경상북도 구미시 형곡동로5길 6-15, 2층", "members_num": 30.0}}, {"type": "Feature", "geometry": {"type": "Point", "coordinates": [129.1696792, 35.407665]}, "properties": {"name": "웅상중앙교회", "address": "(50532) 경상남도 양산시 신명동 3길 33", "members_num": 180.0}}, {"type": "Feature", "geometry": {"type": "Point", "coordinates": [129.2219333, 35.9924907]}, "properties": {"name": "통합", "address": "(38018) 경상북도 경주시 안강읍 안강중앙로 200-1 2층", "members_num": 15.0}}, {"type": "Feature", "geometry": {"type": "Point", "coordinates": [128.041678, 35.6264986]}, "properties": {"name": "봉산교회", "address": "(50211) 경상남도 합천군 봉산면 김봉길 25-5", "members_num": 23.0}}, {"type": "Feature", "geometry": {"type": "Point", "coordinates": [128.8089829, 35.2031897]}, "properties": {"name": "장유제일교회", "address": "(50983) 경상남도 김해시 능동로167번길 1넥스코아상가 113호", "members_num": 200.0}}, {"type": "Feature", "geometry": {"type": "Point", "coordinates": [128.2853011, 35.2934237]}, "properties": {"name": "오감교회", "address": "(52159) 경상남도 의령군 의령읍 남강로287", "members_num": 13.0}}, {"type": "Feature", "geometry": {"type": "Point", "coordinates": [128.4235773, 34.828358]}, "properties": {"name": "도남교회", "address": "(53075) 경상남도 통영시 데메4길 23", "members_num": 30.0}}, {"type": "Feature", "geometry": {"type": "Point", "coordinates": [129.167225, 35.7034876]}, "properties": {"name": "실로암교회", "address": "(44910) 울산광역시 울주군 두서면 활천내와로 301-5", "members_num": 500.0}}, {"type": "Feature", "geometry": {"type": "Point", "coordinates": [128.0592687, 36.6508051]}, "properties": {"name": "가은중앙교회", "address": "(36969) 경상북도 문경시 가은읍 도탄길8", "members_num": 45.0}}, {"type": "Feature", "geometry": {"type": "Point", "coordinates": [129.0895272, 35.2211289]}, "properties": {"name": "로뎀(호스피스)선교교회", "address": "(46307) 부산광역시 금정구 부곡로 56/ 부곡요양병원 내 로뎀선교교회", "members_num": 20.0}}, {"type": "Feature", "geometry": {"type": "Point", "coordinates": [129.0665382, 35.1525681]}, "properties": {"name": "나드림교회", "address": "(47305) 부산시 부산진구 동성로25번길 33", "members_num": 80.0}}, {"type": "Feature", "geometry": {"type": "Point", "coordinates": [128.3402611, 36.0695041]}, "properties": {"name": "예본교회", "address": "(39810) 경상북도 칠곡군 북삼읍 인강9길14", "members_num": 10.0}}, {"type": "Feature", "geometry": {"type": "Point", "coordinates": [129.1968772, 35.1785949]}, "properties": {"name": "송정교회", "address": "(48073) 부산 해운대구 송정광어골로82번길122,302호(송정동,영동써니빌라)", "members_num": 100.0}}, {"type": "Feature", "geometry": {"type": "Point", "coordinates": [128.6339098, 35.25965160000001]}, "properties": {"name": "창원농인교회", "address": "(51165) 경상남도 창원시의창구 도계로 12,2층 (51165) 경상남도 창원시의창구 도계로 12,2층", "members_num": 50.0}}, {"type": "Feature", "geometry": {"type": "Point", "coordinates": [128.8302799, 36.0235608]}, "properties": {"name": "덕암교회", "address": "(38807) 경상북도 영천시 화산면 용호길2 덕암교회", "members_num": 35.0}}, {"type": "Feature", "geometry": {"type": "Point", "coordinates": [129.1116368, 35.148075]}, "properties": {"name": "남천중앙교회", "address": "(48314) 부산 수영구 남천바다로10번길43,남천중앙교회(남천동)", "members_num": 100.0}}, {"type": "Feature", "geometry": {"type": "Point", "coordinates": [128.9997226, 36.0303432]}, "properties": {"name": "평천교회", "address": "(38819) 경북 영천시 임고면 포은로 738", "members_num": 100.0}}, {"type": "Feature", "geometry": {"type": "Point", "coordinates": [129.0726403, 35.1738108]}, "properties": {"name": "충만교회", "address": "(47216) 부산 부산진구 연수로11번길5,2층(양정동)", "members_num": 100.0}}, {"type": "Feature", "geometry": {"type": "Point", "coordinates": [129.4280085, 35.5095408]}, "properties": {"name": "영광교회", "address": "(44044) 진성 10길 89 동구 울산광역시", "members_num": 70.0}}, {"type": "Feature", "geometry": {"type": "Point", "coordinates": [129.3472431, 35.6386627]}, "properties": {"name": "늘사랑교회", "address": "(44220) 울산 광역시 북구 호계로 402 102-202호", "members_num": 30.0}}, {"type": "Feature", "geometry": {"type": "Point", "coordinates": [129.0702442, 35.3199774]}, "properties": {"name": "사송주님의교회", "address": "(50644) 경남 양산시 동면 내송대방길 6 사송주님의교회", "members_num": 150.0}}, {"type": "Feature", "geometry": {"type": "Point", "coordinates": [129.3591801, 35.64198680000001]}, "properties": {"name": "울산광은교회", "address": "(44223) 울산광역시 북구 매산로 66 월드메르디앙 209동 702호", "members_num": 100.0}}, {"type": "Feature", "geometry": {"type": "Point", "coordinates": [129.3568909, 35.646187]}, "properties": {"name": "갓메이드교회", "address": "(44215) 울산광역시 북구 신기12길14 1층", "members_num": 30.0}}, {"type": "Feature", "geometry": {"type": "Point", "coordinates": [128.3354398, 36.1087818]}, "properties": {"name": "구미이레교회", "address": "(39312) 경상북도 구미시 형곡동로 57-1", "members_num": 12.0}}, {"type": "Feature", "geometry": {"type": "Point", "coordinates": [128.43241, 36.0952514]}, "properties": {"name": "이끌림교회", "address": "(39440) 경상북도 구미시 인동31길10-10 해인빌 203호", "members_num": 16.0}}, {"type": "Feature", "geometry": {"type": "Point", "coordinates": [128.4341522, 36.0958711]}, "properties": {"name": "선한이웃교회", "address": "(39442) 경상북도 구미시 인동 35길 22-12 2F", "members_num": 15.0}}, {"type": "Feature", "geometry": {"type": "Point", "coordinates": [128.1479308, 36.2736707]}, "properties": {"name": "안곡교회", "address": "(39100) 경북 구미시 안곡2길 7", "members_num": 15.0}}, {"type": "Feature", "geometry": {"type": "Point", "coordinates": [128.4262688, 36.11491609999999]}, "properties": {"name": "합동", "address": "(39428) 경상북도 구미시 수출대로 수출대로 31길36.2층", "members_num": 20.0}}, {"type": "Feature", "geometry": {"type": "Point", "coordinates": [128.350398, 36.1836603]}, "properties": {"name": "구미동산교회", "address": "(39152) 경상북도 구미시 고아읍 선산대로 608 상가 302호 구미동산교회", "members_num": 30.0}}, {"type": "Feature", "geometry": {"type": "Point", "coordinates": [129.054129, 35.1936199]}, "properties": {"name": "동원교회", "address": "(47973) 부산광역시 동래구 쇠미로3-9", "members_num": 250.0}}, {"type": "Feature", "geometry": {"type": "Point", "coordinates": [129.0905509, 35.2652766]}, "properties": {"name": "은신교회", "address": "(46224) 부산광역시 금정구 금강로658-1", "members_num": 29.0}}, {"type": "Feature", "geometry": {"type": "Point", "coordinates": [129.1075995, 35.2116574]}, "properties": {"name": "큰빛교회", "address": "(46335) 부산광역시 금정구 반송로 380 2층", "members_num": 30.0}}, {"type": "Feature", "geometry": {"type": "Point", "coordinates": [128.0894621, 34.9264941]}, "properties": {"name": "재건동산교회", "address": "(52565) 경상남도 사천시 남일로 104-1", "members_num": 20.0}}, {"type": "Feature", "geometry": {"type": "Point", "coordinates": [128.4988743, 36.1381871]}, "properties": {"name": "주언교회", "address": "(39163) 경상북도 구미시 장천면 묵어길 66-13", "members_num": 20.0}}, {"type": "Feature", "geometry": {"type": "Point", "coordinates": [129.4233701, 35.950907]}, "properties": {"name": "광명교회", "address": "(37911) 경상북도 포항시 남구 오천읍 철강로 830번길 199-9", "members_num": 200.0}}, {"type": "Feature", "geometry": {"type": "Point", "coordinates": [128.8779974, 35.9321463]}, "properties": {"name": "금호교회", "address": "(38877) 경상북도 영천시 금호읍 거여로 4 금호교회", "members_num": 100.0}}, {"type": "Feature", "geometry": {"type": "Point", "coordinates": [128.2137624, 34.954351]}, "properties": {"name": "수양교회", "address": "(52955) 경상남도 고성군 하일면", "members_num": 50.0}}, {"type": "Feature", "geometry": {"type": "Point", "coordinates": [128.4172973, 36.1462146]}, "properties": {"name": "구미열방교회", "address": "(39179) 경상북도 구미시 흥안로3길5-25", "members_num": 20.0}}, {"type": "Feature", "geometry": {"type": "Point", "coordinates": [128.3545167, 36.1169853]}, "properties": {"name": "구미명지교회", "address": "(39272) 경상북도 구미시 화신로 166-8 (송정동 대웅솔랜드 103동 상가)", "members_num": 30.0}}, {"type": "Feature", "geometry": {"type": "Point", "coordinates": [128.7492904, 35.8745269]}, "properties": {"name": "토기장이교회", "address": "(41072) 대구광역시 동구 메디밸리로 19 지하", "members_num": 13.0}}, {"type": "Feature", "geometry": {"type": "Point", "coordinates": [128.4263542, 35.2782326]}, "properties": {"name": "꿈이있는교회", "address": "(52072) 경남 함안군 산인면 가야로 236", "members_num": 30.0}}, {"type": "Feature", "geometry": {"type": "Point", "coordinates": [128.3519931, 36.06964809999999]}, "properties": {"name": "주기쁨교회", "address": "(39362) 경북 구미시 금오대로 12길 21-4, 2층 주기쁨교회", "members_num": 11.0}}, {"type": "Feature", "geometry": {"type": "Point", "coordinates": [128.3340618, 36.0671551]}, "properties": {"name": "북삼드림교회", "address": "(39807) 경상북도 칠곡군 북삼읍 북삼로 159 3층", "members_num": 18.0}}, {"type": "Feature", "geometry": {"type": "Point", "coordinates": [129.0167144, 35.1549998]}, "properties": {"name": "동서교회", "address": "(부산시) 부산진구 개금동 백양대로 308-21", "members_num": 120.0}}, {"type": "Feature", "geometry": {"type": "Point", "coordinates": [129.3522267, 36.0267121]}, "properties": {"name": "행복한교회", "address": "(37689) 경상북도 포항시 포항시 북구 새천년대로631번길47 상가 3층 행복한교회", "members_num": 30.0}}, {"type": "Feature", "geometry": {"type": "Point", "coordinates": [128.6965009, 35.8715877]}, "properties": {"name": "반야월제일교회", "address": "(41119) 대구광역시 반야월로 14길 25-1 반야월제일교회", "members_num": 70.0}}, {"type": "Feature", "geometry": {"type": "Point", "coordinates": [129.1720954, 35.1710594]}, "properties": {"name": "해운대영광교회", "address": "(48082) 부산광역시 해운대구 좌동로 53번길 17", "members_num": 45.0}}, {"type": "Feature", "geometry": {"type": "Point", "coordinates": [128.5465525, 35.9224937]}, "properties": {"name": "삶터교회", "address": "(41457) 대구광역시 북구 칠곡중앙대로 301, 국카대표 2층", "members_num": 12.0}}, {"type": "Feature", "geometry": {"type": "Point", "coordinates": [129.3538229, 36.0230915]}, "properties": {"name": "포항샘터교회", "address": "(37753) 경상북도 포항시 북구 양학천로 20-8 샘터교회", "members_num": 15.0}}, {"type": "Feature", "geometry": {"type": "Point", "coordinates": [129.4584724, 35.9962109]}, "properties": {"name": "동해제일교회", "address": "(37922) 경북 포항시 남구 동해면 호미로 3110", "members_num": 30.0}}, {"type": "Feature", "geometry": {"type": "Point", "coordinates": [128.7980644, 35.193547]}, "properties": {"name": "장유새샘교회", "address": "(50988) 경남 김해시 대청로210번길 24 엔트로빌딩 7층 장유새샘교회", "members_num": 30.0}}, {"type": "Feature", "geometry": {"type": "Point", "coordinates": [128.069941, 36.1243364]}, "properties": {"name": "서현교회", "address": "(39640) 경상북도 김천시 영남대로 1274", "members_num": 50.0}}, {"type": "Feature", "geometry": {"type": "Point", "coordinates": [129.1110455, 35.1912049]}, "properties": {"name": "사랑빚는교회", "address": "(47905) 부산시 동래구 연안로52번길 63 2층", "members_num": 30.0}}, {"type": "Feature", "geometry": {"type": "Point", "coordinates": [129.0001064, 35.1463331]}, "properties": {"name": "부산제일남교회", "address": "(47016) 부산 사상구 동주로24-4번길 주례3동", "members_num": 150.0}}, {"type": "Feature", "geometry": {"type": "Point", "coordinates": [128.795874, 35.1952819]}, "properties": {"name": "장유풍성한교회", "address": "(50991) 경상남도 김해시 대청로 257(삼문동)", "members_num": 300.0}}, {"type": "Feature", "geometry": {"type": "Point", "coordinates": [128.7396663, 35.2977153]}, "properties": {"name": "꿈이있는교회", "address": "(50868) 경상남도 김해시 진영읍 진영로 258 수정상가2층", "members_num": 40.0}}, {"type": "Feature", "geometry": {"type": "Point", "coordinates": [128.6351823, 35.2606379]}, "properties": {"name": "창원새로운교회", "address": "(51164) 경남 창원시 의창구 도계로57 창원새로운교회", "members_num": 10.0}}, {"type": "Feature", "geometry": {"type": "Point", "coordinates": [128.9922625, 35.1865409]}, "properties": {"name": "모라중앙교회", "address": "(46928) 부산 사상구 백양대로 902번길 26", "members_num": 250.0}}, {"type": "Feature", "geometry": {"type": "Point", "coordinates": [129.173979, 35.3177742]}, "properties": {"name": "일신교회", "address": "(46011) 부샌 부산시 게장군 정관읍 매곡길 38 일신교회", "members_num": 200.0}}, {"type": "Feature", "geometry": {"type": "Point", "coordinates": [129.3873887, 36.087603]}, "properties": {"name": "열방비전교회", "address": "(47712) 경북 포항시 북구 신덕로 261번길 3층", "members_num": 30.0}}, {"type": "Feature", "geometry": {"type": "Point", "coordinates": [128.11498, 36.1216616]}, "properties": {"name": "평화동교회", "address": "(39610) 경상북도 경북 김천시 평화중앙9길 32-3 (평화동)", "members_num": 250.0}}, {"type": "Feature", "geometry": {"type": "Point", "coordinates": [128.3295097, 34.9653643]}, "properties": {"name": "고성침례교회", "address": "(52946) 경상남도 고성군 고성읍 동외로27번길 57", "members_num": 30.0}}, {"type": "Feature", "geometry": {"type": "Point", "coordinates": [128.1156492, 35.1824387]}, "properties": {"name": "이찬우", "address": "(52783) 경남 진주시 대신로 243번길 16", "members_num": 500.0}}, {"type": "Feature", "geometry": {"type": "Point", "coordinates": [129.4662296, 35.6913435]}, "properties": {"name": "나아", "address": "(38219) 경북 경주시 양남면 동해안로 640", "members_num": 200.0}}, {"type": "Feature", "geometry": {"type": "Point", "coordinates": [127.7424804, 35.6256738]}, "properties": {"name": "봉평교회", "address": "(50004) 경상남도 함양군 서하면 봉전길32", "members_num": 33.0}}, {"type": "Feature", "geometry": {"type": "Point", "coordinates": [129.4384392, 35.6302157]}, "properties": {"name": "작은숲교회", "address": "(44264) 울산시 북구 강동산하3로37 승민빌딩2층203호", "members_num": 50.0}}, {"type": "Feature", "geometry": {"type": "Point", "coordinates": [128.148651, 36.3540423]}, "properties": {"name": "상주양촌교회", "address": "(37227) 37160 경상북도 상주시 양촌3길 83-6 (양촌동) 양촌교회", "members_num": 45.0}}, {"type": "Feature", "geometry": {"type": "Point", "coordinates": [128.2249403, 35.8052189]}, "properties": {"name": "계정교회", "address": "(40066) 경상북도 성주군 수륜면 계정1길7", "members_num": 15.0}}, {"type": "Feature", "geometry": {"type": "Point", "coordinates": [128.7398399, 35.1284577]}, "properties": {"name": "진광교회", "address": "(51583) 경상남도 창원시 진해구 진해대로 629", "members_num": 30.0}}, {"type": "Feature", "geometry": {"type": "Point", "coordinates": [129.2555078, 35.5503809]}, "properties": {"name": "울산풍성한교회", "address": "(44605) 울산시 남구 신복로 72번길 6~19", "members_num": 20.0}}, {"type": "Feature", "geometry": {"type": "Point", "coordinates": [128.0894091, 34.9350267]}, "properties": {"name": "반석감리교회", "address": "(52562) 경상남도 사천시 남일로 63-1", "members_num": 20.0}}, {"type": "Feature", "geometry": {"type": "Point", "coordinates": [129.2558437, 35.5498812]}, "properties": {"name": "모든세대교회", "address": "(44605) 울산광역시 남구 신복로 62번길 3", "members_num": 90.0}}, {"type": "Feature", "geometry": {"type": "Point", "coordinates": [129.212232, 35.240768]}, "properties": {"name": "기장로교회", "address": "(46069) 부산시 기장군 기장읍 대청로 21번길 63", "members_num": 400.0}}, {"type": "Feature", "geometry": {"type": "Point", "coordinates": [128.8459893, 35.2237158]}, "properties": {"name": "김해서부교회", "address": "(51025) 경상남도 김해시 금관대로 1073번길32-6 김해서부교회", "members_num": 25.0}}, {"type": "Feature", "geometry": {"type": "Point", "coordinates": [128.909033, 35.2494782]}, "properties": {"name": "김해주님교회", "address": "(50814) 경상남도 김해시 삼안로255번안길 26-10 2층", "members_num": 3.0}}, {"type": "Feature", "geometry": {"type": "Point", "coordinates": [128.7899138, 35.3712284]}, "properties": {"name": "오산교회", "address": "(50453) 경상남도 밀양시 상남면 외평로 34-1", "members_num": 80.0}}, {"type": "Feature", "geometry": {"type": "Point", "coordinates": [128.4706257, 35.6497762]}, "properties": {"name": "가태교회", "address": "(42992) 대구시 달성군 유가읍가태길55", "members_num": 20.0}}, {"type": "Feature", "geometry": {"type": "Point", "coordinates": [128.2421695, 35.325349]}, "properties": {"name": "가례교회", "address": "(52137) 경남 의령군 가례면 의병로 1길 11-15", "members_num": 20.0}}, {"type": "Feature", "geometry": {"type": "Point", "coordinates": [128.9022931, 35.2376632]}, "properties": {"name": "김해새소망교회", "address": "(50839) 경상남도 김해시 분성로 501번길 29-2번지", "members_num": 20.0}}, {"type": "Feature", "geometry": {"type": "Point", "coordinates": [128.5454323, 35.9198136]}, "properties": {"name": "대구풍성한교회", "address": "(41458) 대구광역시 북구 칠곡중앙대로 55길 10", "members_num": 70.0}}, {"type": "Feature", "geometry": {"type": "Point", "coordinates": [128.6783101, 35.0284334]}, "properties": {"name": "황포교회", "address": "(53200) 경상남도 거제시 장목면 황포1길 131", "members_num": 50.0}}, {"type": "Feature", "geometry": {"type": "Point", "coordinates": [129.0803119, 35.2025205]}, "properties": {"name": "예장고신", "address": "(47815) 부산시 동래구 충렬대로 182번가길 23", "members_num": 50.0}}, {"type": "Feature", "geometry": {"type": "Point", "coordinates": [128.6516829, 35.4679247]}, "properties": {"name": "무안동부교회", "address": "(50408) 경상남도 밀양시 무안면 사명로 484-1", "members_num": 90.0}}, {"type": "Feature", "geometry": {"type": "Point", "coordinates": [128.4500684, 35.1067124]}, "properties": {"name": "도계교회", "address": "(51796) 경남 창원시 마산합포구 삼진의거대로 262", "members_num": 100.0}}, {"type": "Feature", "geometry": {"type": "Point", "coordinates": [129.4195487, 35.495264]}, "properties": {"name": "더함교회", "address": "(44078) 울산 동구 월봉로10,더함교회(화정동)", "members_num": 200.0}}, {"type": "Feature", "geometry": {"type": "Point", "coordinates": [128.7197866, 35.8287393]}, "properties": {"name": "사랑담은교회", "address": "(38662) 경북 경산시 펜타힐즈2로57,SM타워8층사랑담은교회(중산동)", "members_num": 150.0}}, {"type": "Feature", "geometry": {"type": "Point", "coordinates": [129.2716109, 36.5782806]}, "properties": {"name": "신리교회", "address": "(36402) 경북 영덕군 창수면영양창수로2263,신리교회", "members_num": 70.0}}, {"type": "Feature", "geometry": {"type": "Point", "coordinates": [128.5968374, 35.8631317]}, "properties": {"name": "봉산교회", "address": "(41958) 대구 중구 봉산문화길73-1,봉산교회(봉산동)", "members_num": 100.0}}, {"type": "Feature", "geometry": {"type": "Point", "coordinates": [128.7673071, 35.2559565]}, "properties": {"name": "담안교회", "address": "(50875) 경남 김해시 담안교회", "members_num": 70.0}}, {"type": "Feature", "geometry": {"type": "Point", "coordinates": [129.3773765, 36.321064]}, "properties": {"name": "구계교회", "address": "(36461) 경북 영덕군 남정면구계2길26", "members_num": 100.0}}, {"type": "Feature", "geometry": {"type": "Point", "coordinates": [128.6211484, 35.2638948]}, "properties": {"name": "여수룬교회", "address": "(51195) 경남 창원시 의창구서상로54,여수룬교회(서상동)", "members_num": 200.0}}, {"type": "Feature", "geometry": {"type": "Point", "coordinates": [128.7119718, 35.2873163]}, "properties": {"name": "동산세광교회", "address": "(50871) 경남 김해시 진영읍 허계로 65-1", "members_num": 150.0}}, {"type": "Feature", "geometry": {"type": "Point", "coordinates": [128.1533919, 36.5566046]}, "properties": {"name": "호산나교회", "address": "(37108) 경북 상주시 이안면공검이안길920-13,호산나교회", "members_num": 200.0}}, {"type": "Feature", "geometry": {"type": "Point", "coordinates": [128.1942308, 36.4186699]}, "properties": {"name": "한영혼교회", "address": "(37240) 경북 상주시 영남제일로1328,황가네기사식당(외답동)", "members_num": 30.0}}, {"type": "Feature", "geometry": {"type": "Point", "coordinates": [128.001748, 36.5330317]}, "properties": {"name": "황령중앙교회", "address": "(37103) 경북 상주시 은척면칠봉로533,황령리242", "members_num": 100.0}}, {"type": "Feature", "geometry": {"type": "Point", "coordinates": [128.0647225, 36.231505]}, "properties": {"name": "능치제일교회", "address": "(39500) 경상북도 김천시 어모면 작점로811", "members_num": 20.0}}, {"type": "Feature", "geometry": {"type": "Point", "coordinates": [128.7913748, 35.8288781]}, "properties": {"name": "신월교회", "address": "(38540) 경북 경산시 압량읍신월길44,당음리", "members_num": 150.0}}, {"type": "Feature", "geometry": {"type": "Point", "coordinates": [128.4938168, 36.5753832]}, "properties": {"name": "나눔교회", "address": "(36759) 경북 안동시 풍천면새움3로69,나눔교회(하나로타워701호)", "members_num": 100.0}}, {"type": "Feature", "geometry": {"type": "Point", "coordinates": [128.7111149, 35.8716407]}, "properties": {"name": "하늘평안교회", "address": "(41111) 대구 동구 경안로109길41,504(서호동)", "members_num": 20.0}}, {"type": "Feature", "geometry": {"type": "Point", "coordinates": [129.1030751, 35.179707]}, "properties": {"name": "샬롬양문교회", "address": "(48202) 부산 수영구 과정로91번길74,망미동(망미동)", "members_num": 100.0}}, {"type": "Feature", "geometry": {"type": "Point", "coordinates": [128.9740477, 35.0608945]}, "properties": {"name": "충만한교회", "address": "(49493) 부산시 사하구 윤공단로144 충만한교회", "members_num": 100.0}}, {"type": "Feature", "geometry": {"type": "Point", "coordinates": [129.2124305, 35.2461072]}, "properties": {"name": "예수인교회", "address": "(46067) 부산 기장군 기장읍읍내로76,예수인교회", "members_num": 200.0}}, {"type": "Feature", "geometry": {"type": "Point", "coordinates": [128.5982989, 35.2558706]}, "properties": {"name": "마산세광교회", "address": "(51203) 경남 창원시 마산회원구 구암 북2길 128", "members_num": 60.0}}, {"type": "Feature", "geometry": {"type": "Point", "coordinates": [128.5459838, 35.8608194]}, "properties": {"name": "사랑담은교회", "address": "(41847) 대구광역시 서구 당산로 279 3층-4층", "members_num": 20.0}}, {"type": "Feature", "geometry": {"type": "Point", "coordinates": [128.7386859, 36.8546665]}, "properties": {"name": "반송교회", "address": "(36244) 경상북도 봉화군 상운면 반송길 352-2", "members_num": 50.0}}, {"type": "Feature", "geometry": {"type": "Point", "coordinates": [128.9957483, 35.3238951]}, "properties": {"name": "숭사기상복", "address": "(50602) 경상남도 양산시 물금읍 가촌서로93 양산시 동일 105동1204호", "members_num": 35.0}}, {"type": "Feature", "geometry": {"type": "Point", "coordinates": [128.8058604, 35.2067964]}, "properties": {"name": "장유화목교회", "address": "(50976) 경남 김해시 장유로 184, 엠파이어상가 1관 2층 장유화목교회(부곡동)", "members_num": 200.0}}, {"type": "Feature", "geometry": {"type": "Point", "coordinates": [129.1659966, 35.8465434]}, "properties": {"name": "경주중앙교회", "address": "(38057) 경상북도 경주시 태종로266-8", "members_num": 800.0}}, {"type": "Feature", "geometry": {"type": "Point", "coordinates": [128.4664735, 36.6749649]}, "properties": {"name": "우계교회", "address": "(36817) 경북 예천군 예천읍도효자로40-13,교회현관앞", "members_num": 200.0}}, {"type": "Feature", "geometry": {"type": "Point", "coordinates": [128.0839497, 35.196546]}, "properties": {"name": "진주교회", "address": "(52753) 경남 진주시 촉석로 201번길 8-1 진주교회", "members_num": 400.0}}, {"type": "Feature", "geometry": {"type": "Point", "coordinates": [129.0858461, 35.5087018]}, "properties": {"name": "삼성교회", "address": "(44955) 울산광역시 울주군 삼남읍 방기4길 21, 삼성교회", "members_num": 50.0}}, {"type": "Feature", "geometry": {"type": "Point", "coordinates": [128.6886816, 35.8612644]}, "properties": {"name": "샘솟는교회", "address": "(41109) 대구 동구 율하서로100,2층(율하동)", "members_num": 30.0}}, {"type": "Feature", "geometry": {"type": "Point", "coordinates": [128.5494571, 35.853359]}, "properties": {"name": "열린문침례교회", "address": "(42645) 대구 달서구 당산로38길16,2층(두류동)", "members_num": 100.0}}, {"type": "Feature", "geometry": {"type": "Point", "coordinates": [128.4879403, 35.1148907]}, "properties": {"name": "동행하는교회", "address": "(51792) 경남 창원시 마산합포구진동면진동시장길15,동행하는교회", "members_num": 200.0}}, {"type": "Feature", "geometry": {"type": "Point", "coordinates": [129.1474465, 35.3821852]}, "properties": {"name": "겨자씨교회", "address": "(50542) 경남 양산시 평산로70,2층(평산동)", "members_num": 100.0}}, {"type": "Feature", "geometry": {"type": "Point", "coordinates": [128.8862921, 35.2405148]}, "properties": {"name": "나전교회", "address": "(50842) 경남 김해시 가야로451번길6-23,나전교회(동상동)", "members_num": 80.0}}, {"type": "Feature", "geometry": {"type": "Point", "coordinates": [129.2132253, 35.24106099999999]}, "properties": {"name": "기장중앙교회", "address": "(46069) 부산 기장군 기장읍차성로265,기장중앙교회", "members_num": 100.0}}, {"type": "Feature", "geometry": {"type": "Point", "coordinates": [128.2663029, 35.3189936]}, "properties": {"name": "그루터기교회", "address": "(모름) 경남 의령군 의령읍 의병로25길21-7", "members_num": 8.0}}, {"type": "Feature", "geometry": {"type": "Point", "coordinates": [127.7382364, 35.5237431]}, "properties": {"name": "민들레교회", "address": "(50024) 경남 함양군 함양읍기동길19-11,민들레교회", "members_num": 50.0}}, {"type": "Feature", "geometry": {"type": "Point", "coordinates": [128.7251462, 35.3121898]}, "properties": {"name": "진영대성교회", "address": "(50861) 경남 김해시 진영읍진산대로63-44,진영대성교회1층", "members_num": 200.0}}, {"type": "Feature", "geometry": {"type": "Point", "coordinates": [128.9890131, 35.0940908]}, "properties": {"name": "부산소망교회", "address": "(49394) 부산시 사하구 사하로 141번나길35-4 괴정우신타워상가 2층", "members_num": 50.0}}, {"type": "Feature", "geometry": {"type": "Point", "coordinates": [128.5301012, 35.8102759]}, "properties": {"name": "새빛침례교회", "address": "(42799) 대구 달서구 상화로29길11(진천동)", "members_num": 50.0}}, {"type": "Feature", "geometry": {"type": "Point", "coordinates": [128.9031529, 35.2287852]}, "properties": {"name": "아이액츠", "address": "(50933) 경상남도 김해시 김해대로 2529번길 3 301호", "members_num": 30.0}}, {"type": "Feature", "geometry": {"type": "Point", "coordinates": [129.348367, 37.0548116]}, "properties": {"name": "사계교회", "address": "(36311) 경북 울진군 북면섶실길65-33", "members_num": 50.0}}, {"type": "Feature", "geometry": {"type": "Point", "coordinates": [128.8518847, 35.3515184]}, "properties": {"name": "생철교회", "address": "(50800) 경남 김해시 생림면안양로4-9,생철교회 별관1층", "members_num": 50.0}}, {"type": "Feature", "geometry": {"type": "Point", "coordinates": [128.1976416, 35.1323219]}, "properties": {"name": "송곡교회", "address": "(52842) 경남 진주시 금곡면송곡길99,송곡교회", "members_num": 100.0}}, {"type": "Feature", "geometry": {"type": "Point", "coordinates": [128.5488213, 35.8054749]}, "properties": {"name": "들샘교회", "address": "(42839) 대구 달서구 상화로58길 86, 롯데캐슬레이크 106동 2003호", "members_num": 40.0}}, {"type": "Feature", "geometry": {"type": "Point", "coordinates": [128.9802003, 35.1015712]}, "properties": {"name": "희망교회", "address": "(49345) 부산시 사하구 낙동대로356번길 20", "members_num": 150.0}}, {"type": "Feature", "geometry": {"type": "Point", "coordinates": [128.1957808, 35.337474]}, "properties": {"name": "칠곡로교회", "address": "(47572) 경남 의령군 칠곡면 칠곡로 5길 26", "members_num": 50.0}}, {"type": "Feature", "geometry": {"type": "Point", "coordinates": [129.1703776, 35.1704499]}, "properties": {"name": "트루바인교회", "address": "(48082) 부산광역시 해운대구 대천로 42번길 8, 2층커피153(중동)", "members_num": 30.0}}, {"type": "Feature", "geometry": {"type": "Point", "coordinates": [128.5667378, 35.9431712]}, "properties": {"name": "대구침례교회", "address": "(대구광역시) 달성군 화원읍 성암로25 본리그린빌2단지 206동 106호", "members_num": 50.0}}, {"type": "Feature", "geometry": {"type": "Point", "coordinates": [128.4481566, 35.7847434]}, "properties": {"name": "삼리교회", "address": "(42969) 대구 달성군 옥포읍 금계길 12 르상트레빌 701동 504호", "members_num": 100.0}}, {"type": "Feature", "geometry": {"type": "Point", "coordinates": [128.5642183, 35.9330062]}, "properties": {"name": "은성교회", "address": "(41432) 대구 북구 구암로43길 11-6", "members_num": 50.0}}, {"type": "Feature", "geometry": {"type": "Point", "coordinates": [128.1083779, 35.1787833]}, "properties": {"name": "동진주교회", "address": "(54689) 경상남도 진주시 도동천로69", "members_num": 150.0}}, {"type": "Feature", "geometry": {"type": "Point", "coordinates": [128.7122903, 35.8739015]}, "properties": {"name": "각산평화교회", "address": "(41113) 대구광역시 동구 반야월북로 27길 7", "members_num": 13.0}}, {"type": "Feature", "geometry": {"type": "Point", "coordinates": [130.8345973, 37.472925]}, "properties": {"name": "남양침례교회", "address": "(40235) 경북 울릉군 서면 남서길 36-7", "members_num": 100.0}}, {"type": "Feature", "geometry": {"type": "Point", "coordinates": [129.3048923, 35.4385619]}, "properties": {"name": "온산중앙교회", "address": "(45003) 울산 울주군 온산읍 서영남2길 18-23", "members_num": 10.0}}, {"type": "Feature", "geometry": {"type": "Point", "coordinates": [129.007174, 35.1965831]}, "properties": {"name": "대양제일교회", "address": "(46642) 부산시 북구 시랑로106번길2", "members_num": 100.0}}, {"type": "Feature", "geometry": {"type": "Point", "coordinates": [128.9547779, 35.1792519]}, "properties": {"name": "덕두교회", "address": "(46720) 01075724372 부산시 강서구 공항앞길 13번길 21", "members_num": 70.0}}, {"type": "Feature", "geometry": {"type": "Point", "coordinates": [128.7338379, 35.3042393]}, "properties": {"name": "진영한사랑교회", "address": "(50865) 경상남도 김해시 여래로20번길 7-1, 201호", "members_num": 15.0}}, {"type": "Feature", "geometry": {"type": "Point", "coordinates": [128.9192809, 36.6934366]}, "properties": {"name": "인계교회", "address": "(36607) 경상북도 안동시 예안면 청구길 120-1", "members_num": 18.0}}, {"type": "Feature", "geometry": {"type": "Point", "coordinates": [129.1275558, 35.1952191]}, "properties": {"name": "참좋은교회", "address": "(48029) 부산 해운대구 해운대로61번길83 목화빌2-201", "members_num": 200.0}}, {"type": "Feature", "geometry": {"type": "Point", "coordinates": [128.7592648, 35.8087518]}, "properties": {"name": "진리와능력교회", "address": "(38605) 경북 경산시 솔숲길 100 사동휴먼시아2단지 202/206", "members_num": 100.0}}, {"type": "Feature", "geometry": {"type": "Point", "coordinates": [129.333105, 35.556216]}, "properties": {"name": "하늘숲교회", "address": "(44521) 울산광역시 중구 구교로105 2층", "members_num": 10.0}}, {"type": "Feature", "geometry": {"type": "Point", "coordinates": [128.6444811, 35.2527736]}, "properties": {"name": "새로운교회", "address": "(경상남도) 창원시 의창구 도계로 135 115-102", "members_num": 10.0}}, {"type": "Feature", "geometry": {"type": "Point", "coordinates": [128.8007499, 35.2036577]}, "properties": {"name": "장유주성교회", "address": "(50977) 경상남도 김해시 월산로 111-43 드림피아 빌딩 502호", "members_num": 25.0}}, {"type": "Feature", "geometry": {"type": "Point", "coordinates": [129.4037626, 35.96094040000001]}, "properties": {"name": "하늘영광교회", "address": "(37881) 경상북도 포항시 문덕로23번길 5-2", "members_num": 20.0}}, {"type": "Feature", "geometry": {"type": "Point", "coordinates": [128.6436569, 34.8596027]}, "properties": {"name": "거제드림교회", "address": "(53298) 경상남도 거제시 거제중앙로 1509-22", "members_num": 20.0}}, {"type": "Feature", "geometry": {"type": "Point", "coordinates": [128.6279368, 35.1993647]}, "properties": {"name": "은혜교회", "address": "(51564) 경상남도 창원시 성산구 신촌로130 동원로얄듀크 104동 801호", "members_num": 100.0}}, {"type": "Feature", "geometry": {"type": "Point", "coordinates": [128.2088387, 35.1483845]}, "properties": {"name": "갈곡교회", "address": "(52841) 경상남도 진주시 문산읍 갈곡길16번길 8-3", "members_num": 40.0}}, {"type": "Feature", "geometry": {"type": "Point", "coordinates": [128.6103211, 35.86839860000001]}, "properties": {"name": "그이름교회", "address": "(41946) 대구시 중구 국채보상로730. 401호", "members_num": 20.0}}, {"type": "Feature", "geometry": {"type": "Point", "coordinates": [128.5227933, 35.8092557]}, "properties": {"name": "처음교회", "address": "(42775) 대구 달서구 상화로 7길 83, 3층 처음교회 (진천동)", "members_num": 20.0}}, {"type": "Feature", "geometry": {"type": "Point", "coordinates": [128.7087255, 35.8677252]}, "properties": {"name": "주다복교회", "address": "(41113) 대구 동구 경안로101길 46", "members_num": 90.0}}]}