{"type": "FeatureCollection", "features": [{"type": "Feature", "geometry": {"type": "Point", "coordinates": [126.9514218, 35.9524861]}, "properties": {"name": "다이룸교회", "address": "(54616) 전북 익산시 익산대로 17길 8", "members_num": 34.0}}, {"type": "Feature", "geometry": {"type": "Point", "coordinates": [127.6586968, 36.0064115]}, "properties": {"name": "드림교회", "address": "(55516) 전북 무주군 무주읍 주계로 88-6", "members_num": 50.0}}, {"type": "Feature", "geometry": {"type": "Point", "coordinates": [127.106649, 36.0458924]}, "properties": {"name": "여산동부교회", "address": "(54519) 전북 익산시 여산면 천호산길9", "members_num": 50.0}}, {"type": "Feature", "geometry": {"type": "Point", "coordinates": [126.9284044, 35.9483495]}, "properties": {"name": "신흥교회", "address": "(54669) 전북 익산시 오산면 무왕로2길 321-49", "members_num": 150.0}}, {"type": "Feature", "geometry": {"type": "Point", "coordinates": [126.9909399, 35.0558869]}, "properties": {"name": "물댄동산", "address": "(58125) 전남 화순군 충의로121 3층", "members_num": 10.0}}, {"type": "Feature", "geometry": {"type": "Point", "coordinates": [127.1291969, 35.8143222]}, "properties": {"name": "전주대은교회", "address": "(54986) 전북 전주시 완산구 선너머2길 26-15", "members_num": 100.0}}, {"type": "Feature", "geometry": {"type": "Point", "coordinates": [126.870355, 35.5585583]}, "properties": {"name": "높은뜻은혜교회", "address": "(56191) 전북 정읍시 충정로 50 3층", "members_num": 18.0}}, {"type": "Feature", "geometry": {"type": "Point", "coordinates": [126.7047215, 35.9572047]}, "properties": {"name": "꿈꾸는", "address": "(54103) 전북 군산시 상지곡안 1길 6", "members_num": 30.0}}, {"type": "Feature", "geometry": {"type": "Point", "coordinates": [126.5190162, 34.991691]}, "properties": {"name": "오경배", "address": "(57165) 전남 함평군 엄다면 곤재로835 8 (57165) 전남 함평군 엄다면 곤재로835 8", "members_num": 45.0}}, {"type": "Feature", "geometry": {"type": "Point", "coordinates": [126.2097356, 35.0609049]}, "properties": {"name": "지도제일교회", "address": "(58813) 전남 신안군 지도읍 읍내길 121", "members_num": 80.0}}, {"type": "Feature", "geometry": {"type": "Point", "coordinates": [126.4172112, 34.8460207]}, "properties": {"name": "왕산벧엘교회", "address": "(58559) 전남 무안군 삼향읍 왕산로 90-9", "members_num": 50.0}}, {"type": "Feature", "geometry": {"type": "Point", "coordinates": [126.902443, 35.1482486]}, "properties": {"name": "우리교회", "address": "(61631) 광주 남구 서동로 39 진아리채리센츠 상가동 207호", "members_num": 10.0}}, {"type": "Feature", "geometry": {"type": "Point", "coordinates": [127.7071886, 34.7595847]}, "properties": {"name": "온누리빛교회", "address": "(59699) 전남 여수시 여수시 문수로 143", "members_num": 10.0}}, {"type": "Feature", "geometry": {"type": "Point", "coordinates": [127.5150959, 35.6461119]}, "properties": {"name": "장수교회", "address": "(55632) 전북 장수군 장수읍 하비길 32, 404호", "members_num": 500.0}}, {"type": "Feature", "geometry": {"type": "Point", "coordinates": [126.8759772, 35.5572987]}, "properties": {"name": "정읍명성교회", "address": "(56194) 전북 정읍시 학산로 121", "members_num": 300.0}}, {"type": "Feature", "geometry": {"type": "Point", "coordinates": [127.5176071, 35.9620714]}, "properties": {"name": "우리교회", "address": "(55405) 전북 진안군 용담면 순복길 62-8", "members_num": 10.0}}, {"type": "Feature", "geometry": {"type": "Point", "coordinates": [126.1528444, 35.0449638]}, "properties": {"name": "사옥", "address": "(58814) 전남 신안군 지도읍 당촌길 252-10", "members_num": 40.0}}, {"type": "Feature", "geometry": {"type": "Point", "coordinates": [126.8591038, 35.2070039]}, "properties": {"name": "새노래교회", "address": "(61087) 광주 북구 첨단연신로 265 301호", "members_num": 20.0}}, {"type": "Feature", "geometry": {"type": "Point", "coordinates": [127.1510234, 35.843538]}, "properties": {"name": "생명의빛교회", "address": "(54916) 전북 전주시 덕진구 명주5길30 2층 생명의빛교회", "members_num": 10.0}}, {"type": "Feature", "geometry": {"type": "Point", "coordinates": [127.1288147, 35.8107044]}, "properties": {"name": "세계선교열방교회", "address": "(55048) 전북 전주시 완산구 따박골 8길 12", "members_num": 20.0}}, {"type": "Feature", "geometry": {"type": "Point", "coordinates": [126.8628022, 35.1348445]}, "properties": {"name": "채움교회", "address": "(62035) 광주 서구 금화로 149번길25. 채움교회 (모아엘가아파트앞.2층)", "members_num": 30.0}}, {"type": "Feature", "geometry": {"type": "Point", "coordinates": [126.936239, 36.05256749999999]}, "properties": {"name": "용산교회", "address": "(54529) 전북 익산시 대동길 12", "members_num": 50.0}}, {"type": "Feature", "geometry": {"type": "Point", "coordinates": [127.0157321, 35.4286541]}, "properties": {"name": "열림문교회", "address": "(57300) 전남 담양군 용면 가마골로", "members_num": 5.0}}, {"type": "Feature", "geometry": {"type": "Point", "coordinates": [127.0429224, 36.1436979]}, "properties": {"name": "채운교회", "address": "(54516) 전북 익산시 망성면 동안로301", "members_num": 15.0}}, {"type": "Feature", "geometry": {"type": "Point", "coordinates": [127.6524268, 34.7460959]}, "properties": {"name": "주안제일교회", "address": "(59664) 전남 여수시 소호4길 6-21", "members_num": 50.0}}, {"type": "Feature", "geometry": {"type": "Point", "coordinates": [126.9018148, 35.7323449]}, "properties": {"name": "유정", "address": "(56109) 전북 정읍시 감곡면 유정길 33-16", "members_num": 35.0}}, {"type": "Feature", "geometry": {"type": "Point", "coordinates": [127.6631245, 34.5716872]}, "properties": {"name": "개도중앙교회", "address": "(59783) 전남 여수시 화정면 개도화산길 25", "members_num": 80.0}}, {"type": "Feature", "geometry": {"type": "Point", "coordinates": [126.7917336, 35.0227438]}, "properties": {"name": "늘푸른언덕교회", "address": "(58217) 전남 나주시 상야 4길 22 스퀘어가든 316호", "members_num": 8.0}}, {"type": "Feature", "geometry": {"type": "Point", "coordinates": [126.6930578, 35.970944]}, "properties": {"name": "늘사랑교회", "address": "(54127) 전북 군산시 신설1길 44 (54127) 전북 군산시 신설1길 44", "members_num": 150.0}}, {"type": "Feature", "geometry": {"type": "Point", "coordinates": [127.7029665, 34.75416430000001]}, "properties": {"name": "여수화평교회", "address": "(59702) 전남 여수시 문수4길 2-11", "members_num": 80.0}}, {"type": "Feature", "geometry": {"type": "Point", "coordinates": [127.1194085, 35.8006958]}, "properties": {"name": "전주열방교회", "address": "(55084) 전북 전주시 완산구 거마평로 108. 2층", "members_num": 20.0}}, {"type": "Feature", "geometry": {"type": "Point", "coordinates": [126.7299321, 35.4247114]}, "properties": {"name": "은혜로", "address": "(56450) 전북 고창군 고창읍 월산길11-11", "members_num": 7.0}}, {"type": "Feature", "geometry": {"type": "Point", "coordinates": [126.8040082, 35.138866]}, "properties": {"name": "모아교회", "address": "(62432) 광주 광산구 용보로 49번 안길58", "members_num": 36.0}}, {"type": "Feature", "geometry": {"type": "Point", "coordinates": [127.1368185, 35.7924872]}, "properties": {"name": "산돌교회", "address": "(55121) 전북 전주시 완산구 평화16길 6", "members_num": 20.0}}, {"type": "Feature", "geometry": {"type": "Point", "coordinates": [127.2793805, 35.0585959]}, "properties": {"name": "주암사랑교회", "address": "(57911) 전남 순천시 주암면 동주로 2512", "members_num": 50.0}}, {"type": "Feature", "geometry": {"type": "Point", "coordinates": [127.7153922, 34.94746689999999]}, "properties": {"name": "태인수표교희원로목사", "address": "(57776) 전남 광양시 눈소10길 와우 중흥S클래스 102동 505호", "members_num": 20.0}}, {"type": "Feature", "geometry": {"type": "Point", "coordinates": [126.3972924, 34.7887614]}, "properties": {"name": "빌라델비아교회", "address": "(58743) 전남 목포시 둥근섬로27-1", "members_num": 3.0}}, {"type": "Feature", "geometry": {"type": "Point", "coordinates": [127.5189225, 34.9500999]}, "properties": {"name": "주님이세운교회", "address": "(57977) 전남 순천시 연향번영길94동성상가3층", "members_num": 6.0}}, {"type": "Feature", "geometry": {"type": "Point", "coordinates": [127.6998371, 34.7517749]}, "properties": {"name": "백합교회", "address": "(59703) 전남 여수시 문수5길 12 백합교회", "members_num": 30.0}}, {"type": "Feature", "geometry": {"type": "Point", "coordinates": [127.1658018, 35.8397043]}, "properties": {"name": "다시,봄교회", "address": "(가나비전교회안) 전북 전주시 덕진구 안덕원 1길 43", "members_num": 30.0}}, {"type": "Feature", "geometry": {"type": "Point", "coordinates": [126.2682322, 34.4190539]}, "properties": {"name": "진도복지선교회", "address": "(53859) 전남 진도군 의신면사정길84-10", "members_num": 12.0}}, {"type": "Feature", "geometry": {"type": "Point", "coordinates": [127.126973, 35.828997]}, "properties": {"name": "전주예림교회", "address": "(54941) 전북 전주시 완산구 전룡로 132ㅡ4", "members_num": 50.0}}, {"type": "Feature", "geometry": {"type": "Point", "coordinates": [127.0559085, 35.8334486]}, "properties": {"name": "주비전스토리", "address": "(55365) 전북 완주군 이서면 안전로 107-25", "members_num": 25.0}}, {"type": "Feature", "geometry": {"type": "Point", "coordinates": [126.8309688, 35.8934345]}, "properties": {"name": "청하전원교회", "address": "(543-08) 전북 김제시 청하면 신금1길 104", "members_num": 10.0}}, {"type": "Feature", "geometry": {"type": "Point", "coordinates": [126.930924, 35.1280226]}, "properties": {"name": "백향목교회", "address": "(61498) 광주 동구 남문로 638-3", "members_num": 25.0}}, {"type": "Feature", "geometry": {"type": "Point", "coordinates": [126.8921485, 35.1427513]}, "properties": {"name": "광주대중교회", "address": "(61612) 광주 남구 대남대로351 동강오피스빌 1001호", "members_num": 35.0}}, {"type": "Feature", "geometry": {"type": "Point", "coordinates": [126.8600954, 35.1495994]}, "properties": {"name": "성산교회", "address": "(61990) 광주 서구 광주 서구 운천로184번길 35 (쌍촌동)", "members_num": 60.0}}, {"type": "Feature", "geometry": {"type": "Point", "coordinates": [126.9993708, 35.9433501]}, "properties": {"name": "익산행복한교회", "address": "(54591) 전북 익산시 서동로 27길 12-40", "members_num": 100.0}}, {"type": "Feature", "geometry": {"type": "Point", "coordinates": [127.1239885, 35.960162]}, "properties": {"name": "하나됨교회", "address": "(55319) 전북 완주군 봉동읍 원둔산3길 8-15", "members_num": 10.0}}, {"type": "Feature", "geometry": {"type": "Point", "coordinates": [127.6480844, 34.7776973]}, "properties": {"name": "이끄시는교회", "address": "(59639) 전남 여수시 성산2길 10-10", "members_num": 60.0}}, {"type": "Feature", "geometry": {"type": "Point", "coordinates": [127.1166832, 35.8273214]}, "properties": {"name": "본교회", "address": "(54950) 전북 전주시 완산구 안터1길16 초꼬슴201(본교회)", "members_num": 10.0}}, {"type": "Feature", "geometry": {"type": "Point", "coordinates": [127.1862887, 35.9453142]}, "properties": {"name": "빛과진리교회", "address": "(55340) 전북 완주군 고산면 명석길70-89", "members_num": 43.0}}, {"type": "Feature", "geometry": {"type": "Point", "coordinates": [127.157555, 35.8534938]}, "properties": {"name": "드림교회", "address": "(54908) 전북 전주시 덕진구 우아10길 25-14", "members_num": 50.0}}, {"type": "Feature", "geometry": {"type": "Point", "coordinates": [127.3977262, 35.419651]}, "properties": {"name": "god선교교회", "address": "(55736) 전북 남원시 용성로 251-3 도통1통 경로당", "members_num": 7.0}}, {"type": "Feature", "geometry": {"type": "Point", "coordinates": [126.5069225, 35.3251996]}, "properties": {"name": "와룡교회", "address": "(57022) 전남 영광군 영광읍 와룡로 509 와룡교회", "members_num": 20.0}}, {"type": "Feature", "geometry": {"type": "Point", "coordinates": [125.4290967, 34.6835306]}, "properties": {"name": "흑산진리교회", "address": "(58863) 전남 신안군 흑산면 흑산일주로 156-4", "members_num": 25.0}}, {"type": "Feature", "geometry": {"type": "Point", "coordinates": [127.0221032, 34.6458008]}, "properties": {"name": "소망교회", "address": "(59339) 전남 장흥군 전남 장흥군 안양면 남부관광로 1458-132", "members_num": 30.0}}, {"type": "Feature", "geometry": {"type": "Point", "coordinates": [126.966147, 35.0511931]}, "properties": {"name": "맑은샘교회", "address": "(58109) 전남 화순군 화순읍 벽라2길 8", "members_num": 40.0}}, {"type": "Feature", "geometry": {"type": "Point", "coordinates": [126.8527972, 35.9445688]}, "properties": {"name": "죽산교회", "address": "(54063) 전북 군산시 대야면 탑동길 13-28", "members_num": 30.0}}, {"type": "Feature", "geometry": {"type": "Point", "coordinates": [126.8967365, 35.1295497]}, "properties": {"name": "광주청산교회", "address": "(61721) 광주 남구 회서로51 광주청산교회", "members_num": 60.0}}, {"type": "Feature", "geometry": {"type": "Point", "coordinates": [126.4258104, 34.8038994]}, "properties": {"name": "목포소명교회", "address": "(58650) 전남 목포시 비파로 61 5층 소명교회", "members_num": 50.0}}, {"type": "Feature", "geometry": {"type": "Point", "coordinates": [127.3852231, 35.4096707]}, "properties": {"name": "상동교회", "address": "(15761) 전북 남원시 용성로79-14", "members_num": 70.0}}, {"type": "Feature", "geometry": {"type": "Point", "coordinates": [127.3522552, 35.5144991]}, "properties": {"name": "덕과중앙교회", "address": "(55700) 전북 남원시 덕과면 덕과로 10", "members_num": 35.0}}, {"type": "Feature", "geometry": {"type": "Point", "coordinates": [126.9710069, 36.0764784]}, "properties": {"name": "새로남성결교회", "address": "(54510) 전북 익산시 함열읍 함열중앙로 125", "members_num": 0.0}}, {"type": "Feature", "geometry": {"type": "Point", "coordinates": [127.0299035, 34.6314801]}, "properties": {"name": "수문교회", "address": "(59339) 전남 장흥군 안양면 수문용곡로 123 수문교회", "members_num": 50.0}}, {"type": "Feature", "geometry": {"type": "Point", "coordinates": [127.0093772, 36.1455074]}, "properties": {"name": "벧엘성결교회", "address": "(54515) 전북 익산시 망성면 신작길 27-2", "members_num": 50.0}}, {"type": "Feature", "geometry": {"type": "Point", "coordinates": [126.4100356, 34.7962326]}, "properties": {"name": "강은충", "address": "(58699) 전남 목포시 남농로 15번길 7ㅡ1", "members_num": 50.0}}, {"type": "Feature", "geometry": {"type": "Point", "coordinates": [127.5298439, 34.95068090000001]}, "properties": {"name": "예울림교회", "address": "(57974) 전남 순천시 해룡면 조례못등2길 12-7", "members_num": 30.0}}, {"type": "Feature", "geometry": {"type": "Point", "coordinates": [126.8176053, 35.19015660000001]}, "properties": {"name": "이음장로교회", "address": "(62225) 광주 광산구 장신로64번길 9-4, 2층", "members_num": 12.0}}, {"type": "Feature", "geometry": {"type": "Point", "coordinates": [127.6069427, 35.4711293]}, "properties": {"name": "인월별빛교회", "address": "(55715) 전북 남원시 인월면 취암길38-19", "members_num": 6.0}}, {"type": "Feature", "geometry": {"type": "Point", "coordinates": [127.6084233, 34.9725178]}, "properties": {"name": "명성쉐마순복음교회", "address": "(57748) 전남 광양시 광양읍 용강로 31. 3층", "members_num": 11.0}}, {"type": "Feature", "geometry": {"type": "Point", "coordinates": [126.8823035, 35.1275336]}, "properties": {"name": "근원교회", "address": "(근원교회) 광주 서구 광주 서구 풍암순환로 192, 3층", "members_num": 13.0}}, {"type": "Feature", "geometry": {"type": "Point", "coordinates": [126.8722761, 35.2141572]}, "properties": {"name": "행복한교회", "address": "(61019) 광주 북구 하서로 447번길 64-11", "members_num": 70.0}}, {"type": "Feature", "geometry": {"type": "Point", "coordinates": [127.6564172, 34.7592295]}, "properties": {"name": "참소망교회", "address": "(59674) 전남 여수시 시청서2길 6", "members_num": 150.0}}, {"type": "Feature", "geometry": {"type": "Point", "coordinates": [127.7255793, 34.9621671]}, "properties": {"name": "광영동교회", "address": "(57715) 전남 광양시 광영로 32 대아상가 201호", "members_num": 0.0}}, {"type": "Feature", "geometry": {"type": "Point", "coordinates": [125.9817603, 34.7859648]}, "properties": {"name": "비금동부교회", "address": "(58843) 전남 신안군 비금면 용소길 192-14", "members_num": 50.0}}, {"type": "Feature", "geometry": {"type": "Point", "coordinates": [127.3616671, 35.7390602]}, "properties": {"name": "강정교회", "address": "(55449) 전북 진안군 마령면 원강정1길60", "members_num": 20.0}}, {"type": "Feature", "geometry": {"type": "Point", "coordinates": [125.9346829, 34.7106788]}, "properties": {"name": "도초성광교회", "address": "(58852) 전남 신안군 도초면 도초서길 11", "members_num": 70.0}}, {"type": "Feature", "geometry": {"type": "Point", "coordinates": [127.5284446, 34.9724481]}, "properties": {"name": "다복한교회", "address": "(57930) 전남 순천시 왕지5길 49-36", "members_num": 10.0}}, {"type": "Feature", "geometry": {"type": "Point", "coordinates": [127.641685, 34.7731612]}, "properties": {"name": "여수한빛교회", "address": "(59642) 전남 여수시 전남 여수시 성산6길 33-5", "members_num": 20.0}}, {"type": "Feature", "geometry": {"type": "Point", "coordinates": [125.9700661, 34.7125676]}, "properties": {"name": "한빛교회", "address": "(58849) 전남 신안군 도초면 도초동부길 159-5", "members_num": 7.0}}, {"type": "Feature", "geometry": {"type": "Point", "coordinates": [126.7268332, 35.9714482]}, "properties": {"name": "이음교회", "address": "(54084) 전북 군산시 경포천로 142-6", "members_num": 100.0}}, {"type": "Feature", "geometry": {"type": "Point", "coordinates": [127.5117581, 34.9459321]}, "properties": {"name": "작은자교회", "address": "(57991) 전남 순천시 덕암길 88번지", "members_num": 30.0}}, {"type": "Feature", "geometry": {"type": "Point", "coordinates": [126.9277701, 35.952991]}, "properties": {"name": "복된교회", "address": "(54669) 전북 익산시 선화2로 35", "members_num": 250.0}}, {"type": "Feature", "geometry": {"type": "Point", "coordinates": [126.8547862, 35.5678199]}, "properties": {"name": "예진감리교회", "address": "(56163) 전북 정읍시 중앙3길 18 3층 예진교회", "members_num": 15.0}}, {"type": "Feature", "geometry": {"type": "Point", "coordinates": [126.9686917, 35.9351183]}, "properties": {"name": "복음교회", "address": "(54613) 전북 익산시 서동로 166", "members_num": 50.0}}, {"type": "Feature", "geometry": {"type": "Point", "coordinates": [127.7046009, 34.9353791]}, "properties": {"name": "가스펠성서침례교회", "address": "(57797) 전남 광양시 눈소2길 71-10", "members_num": 40.0}}, {"type": "Feature", "geometry": {"type": "Point", "coordinates": [127.1538306, 35.8560575]}, "properties": {"name": "화목교회", "address": "(54905) 전북 전주시 덕진구 호성로18-11", "members_num": 100.0}}, {"type": "Feature", "geometry": {"type": "Point", "coordinates": [126.6805329, 35.9774585]}, "properties": {"name": "군산부르심교회", "address": "(54010) 전북 군산시 군산시 공항로 64 부르심교회", "members_num": 10.0}}, {"type": "Feature", "geometry": {"type": "Point", "coordinates": [126.6773192, 35.9520613]}, "properties": {"name": "원당교회", "address": "(54150) 전북 군산시 원당길 55-3", "members_num": 150.0}}, {"type": "Feature", "geometry": {"type": "Point", "coordinates": [126.4217068, 34.7993839]}, "properties": {"name": "목포엘림교회", "address": "(58695) 전남 목포시 하당로30번길 18-2", "members_num": 60.0}}, {"type": "Feature", "geometry": {"type": "Point", "coordinates": [126.833823, 35.1922867]}, "properties": {"name": "성광교회", "address": "(62250) 광주 광산구 신창로71번길 33 부영2차 상가 2동 201호", "members_num": 20.0}}, {"type": "Feature", "geometry": {"type": "Point", "coordinates": [127.5175749, 34.9463888]}, "properties": {"name": "새평강교회", "address": "(57979) 전남 순천시 연향번영3길 8-16", "members_num": 23.0}}, {"type": "Feature", "geometry": {"type": "Point", "coordinates": [126.9236673, 36.0293548]}, "properties": {"name": "대성교회", "address": "(54529) 전북 익산시 황등면 대성1길 31", "members_num": 70.0}}, {"type": "Feature", "geometry": {"type": "Point", "coordinates": [127.5141916, 34.9614965]}, "properties": {"name": "순천예림교회", "address": "(57944) 전남 순천시 신월큰길 86", "members_num": 50.0}}, {"type": "Feature", "geometry": {"type": "Point", "coordinates": [127.1304784, 35.7919977]}, "properties": {"name": "함께하는교회", "address": "(55134) 전북 전주시 완산구 맏내2길14", "members_num": 100.0}}, {"type": "Feature", "geometry": {"type": "Point", "coordinates": [126.6012728, 34.5753821]}, "properties": {"name": "이레교회", "address": "(59025) 전남 해남군 수성6길23-9", "members_num": 6.0}}, {"type": "Feature", "geometry": {"type": "Point", "coordinates": [126.8093642, 35.9452513]}, "properties": {"name": "지경교회", "address": "(54061) 전북 군산시 대야면 만자로 21", "members_num": 500.0}}, {"type": "Feature", "geometry": {"type": "Point", "coordinates": [127.4835938, 34.9477457]}, "properties": {"name": "실버사랑교회", "address": "(57957) 전남 순천시 저전길58", "members_num": 10.0}}, {"type": "Feature", "geometry": {"type": "Point", "coordinates": [126.6982333, 35.4366066]}, "properties": {"name": "고창 선한말씀교회", "address": "(56433) 전북 고창군 고창읍 중앙로215(구피)", "members_num": 30.0}}, {"type": "Feature", "geometry": {"type": "Point", "coordinates": [127.4363155, 35.2425699]}, "properties": {"name": "구례봉덕교회", "address": "(57613) 전남 구례군 용방면 봉덕길 38-8", "members_num": 50.0}}, {"type": "Feature", "geometry": {"type": "Point", "coordinates": [127.1211345, 35.8384836]}, "properties": {"name": "행복한교회", "address": "(54893) 전북 전주시 덕진구 들사평1길 22-4", "members_num": 60.0}}, {"type": "Feature", "geometry": {"type": "Point", "coordinates": [127.4425241, 35.2616148]}, "properties": {"name": "광의교회", "address": "(57611) 전남 구례군 광의면 하대2길 3", "members_num": 110.0}}, {"type": "Feature", "geometry": {"type": "Point", "coordinates": [127.4994468, 34.99051]}, "properties": {"name": "우리사랑교회", "address": "(57925) 전남 순천시 서면 건보길 25-6", "members_num": 440.0}}, {"type": "Feature", "geometry": {"type": "Point", "coordinates": [127.1401383, 35.9141429]}, "properties": {"name": "고천교회", "address": "(55330) 전북 완주군 봉동읍 고천길 18", "members_num": 29.0}}, {"type": "Feature", "geometry": {"type": "Point", "coordinates": [126.959365, 36.0776518]}, "properties": {"name": "함열영락교회", "address": "(54511) 전북 익산시 함열읍 미력3길 16-5", "members_num": 100.0}}, {"type": "Feature", "geometry": {"type": "Point", "coordinates": [127.1295882, 35.7917677]}, "properties": {"name": "제자들교회", "address": "(55134) 전북 전주시 완산구 맏내2길 19", "members_num": 50.0}}, {"type": "Feature", "geometry": {"type": "Point", "coordinates": [127.1215298, 35.8582377]}, "properties": {"name": "주현교회", "address": "(54837) 전북 전주시 덕진구 솔내5길7", "members_num": 15.0}}, {"type": "Feature", "geometry": {"type": "Point", "coordinates": [126.9826351, 36.0586464]}, "properties": {"name": "중리교회", "address": "(54526) 전북 익산시 낭산면 낭산용기길", "members_num": 50.0}}, {"type": "Feature", "geometry": {"type": "Point", "coordinates": [126.8894116, 35.1761816]}, "properties": {"name": "광주동양교회", "address": "(61114) 광주 북구 비엔날레로42번길 15-9", "members_num": 300.0}}, {"type": "Feature", "geometry": {"type": "Point", "coordinates": [126.5720229, 34.854997]}, "properties": {"name": "영암구봉교회", "address": "(58428) 전남 영암군 구산로1", "members_num": 15.0}}, {"type": "Feature", "geometry": {"type": "Point", "coordinates": [127.6243528, 34.7274926]}, "properties": {"name": "여수영터교회", "address": "(59657) 전남 여수시 화양면 영터길17-20", "members_num": 17.0}}, {"type": "Feature", "geometry": {"type": "Point", "coordinates": [126.836327, 35.1954866]}, "properties": {"name": "광산벧엘교회", "address": "(62250) 광주 광산구 신창로 105번길 34-10", "members_num": 20.0}}, {"type": "Feature", "geometry": {"type": "Point", "coordinates": [126.8963855, 35.1539538]}, "properties": {"name": "광주서문교회", "address": "(61921) 광주 서구 월산로166", "members_num": 500.0}}, {"type": "Feature", "geometry": {"type": "Point", "coordinates": [126.9343635, 35.9456137]}, "properties": {"name": "더드림교회", "address": "(54658) 전북 익산시 군익로13길 21", "members_num": 80.0}}, {"type": "Feature", "geometry": {"type": "Point", "coordinates": [127.6895264, 34.9467583]}, "properties": {"name": "만나교회", "address": "(57780) 전남 광양시 무등길13-3", "members_num": 27.0}}, {"type": "Feature", "geometry": {"type": "Point", "coordinates": [127.217831, 35.8749593]}, "properties": {"name": "평리교회", "address": "(55355) 전북 완주군 평리교회", "members_num": 50.0}}, {"type": "Feature", "geometry": {"type": "Point", "coordinates": [126.915923, 35.1864992]}, "properties": {"name": "빛과소금인교회", "address": "(61132) 광주 북구 송월로 30번길 47", "members_num": 10.0}}, {"type": "Feature", "geometry": {"type": "Point", "coordinates": [126.9289259, 35.715858]}, "properties": {"name": "감곡중앙교회", "address": "(56109) 전북 정읍시 감곡면 원삼1길41-14", "members_num": 25.0}}, {"type": "Feature", "geometry": {"type": "Point", "coordinates": [126.8432991, 35.0455596]}, "properties": {"name": "남평교회", "address": "(58227) 전남 나주시 남평 2로 32~7", "members_num": 300.0}}, {"type": "Feature", "geometry": {"type": "Point", "coordinates": [126.8116276, 35.9544218]}, "properties": {"name": "대야중앙교회", "address": "(54060) 전북 군산시 대야면 서악길 4", "members_num": 80.0}}, {"type": "Feature", "geometry": {"type": "Point", "coordinates": [127.5632779, 34.6721005]}, "properties": {"name": "이목교회", "address": "(59653) 전남 여수시 여수시 화양면 이목길14-20", "members_num": 40.0}}, {"type": "Feature", "geometry": {"type": "Point", "coordinates": [127.7010267, 34.7677695]}, "properties": {"name": "평민교회", "address": "(59697) 전남 여수시 좌수영로 402", "members_num": 30.0}}, {"type": "Feature", "geometry": {"type": "Point", "coordinates": [126.5929995, 34.8312236]}, "properties": {"name": "신학교회", "address": "(58428) 전남 영암군 시종면 신학1로17", "members_num": 20.0}}, {"type": "Feature", "geometry": {"type": "Point", "coordinates": [126.9711052, 35.9453839]}, "properties": {"name": "은실교회", "address": "(54627) 전북 익산시 보석로 27", "members_num": 60.0}}, {"type": "Feature", "geometry": {"type": "Point", "coordinates": [126.4625754, 35.0641973]}, "properties": {"name": "해운교회", "address": "(58514) 전남 무안군 현경면 해운동길 77", "members_num": 35.0}}, {"type": "Feature", "geometry": {"type": "Point", "coordinates": [126.8727236, 35.2187581]}, "properties": {"name": "글로리아교회", "address": "(61017) 광주 북구 거진길 74", "members_num": 50.0}}, {"type": "Feature", "geometry": {"type": "Point", "coordinates": [127.5719264, 34.7912579]}, "properties": {"name": "복촌교회", "address": "(59607) 전남 여수시 소라면 서부로 857-1", "members_num": 30.0}}, {"type": "Feature", "geometry": {"type": "Point", "coordinates": [127.5880428, 34.7198045]}, "properties": {"name": "대옥교회", "address": "(화양면 상전길8 대옥교회) 전남 여수시 사", "members_num": 50.0}}, {"type": "Feature", "geometry": {"type": "Point", "coordinates": [127.6185924, 34.6932068]}, "properties": {"name": "화양중앙교회", "address": "(59779) 전남 여수시 화양면 소장길 65", "members_num": 18.0}}, {"type": "Feature", "geometry": {"type": "Point", "coordinates": [127.6531114, 34.7590789]}, "properties": {"name": "여천목양교회", "address": "(59662) 전남 여수시 장성마을길 18-8", "members_num": 130.0}}, {"type": "Feature", "geometry": {"type": "Point", "coordinates": [126.904498, 34.7461108]}, "properties": {"name": "평안교회", "address": "(59310) 전남 장흥군 부산면 용반2길32", "members_num": 9.0}}, {"type": "Feature", "geometry": {"type": "Point", "coordinates": [127.0459918, 36.11642880000001]}, "properties": {"name": "무형중앙교회", "address": "(54516) 전북 익산시 망성면 무형길 100", "members_num": 44.0}}, {"type": "Feature", "geometry": {"type": "Point", "coordinates": [126.4681268, 35.0897756]}, "properties": {"name": "석성제일교회", "address": "(57137) 전남 함평군 함평읍 성재동길17", "members_num": 28.0}}, {"type": "Feature", "geometry": {"type": "Point", "coordinates": [126.9058812, 35.7975651]}, "properties": {"name": "김제창대교회", "address": "(54401) 전북 김제시 도작3길 20", "members_num": 80.0}}, {"type": "Feature", "geometry": {"type": "Point", "coordinates": [126.7912709, 35.0208301]}, "properties": {"name": "한사랑교회", "address": "(58325) 전남 나주시 배멧1길50 503호", "members_num": 12.0}}, {"type": "Feature", "geometry": {"type": "Point", "coordinates": [126.7253915, 34.9891534]}, "properties": {"name": "부덕교회", "address": "(부덕교회) 전남 나주시 부춘길5", "members_num": 10.0}}, {"type": "Feature", "geometry": {"type": "Point", "coordinates": [126.7696825, 34.6481581]}, "properties": {"name": "강진감리교회", "address": "(59226) 전남 강진군 강진읍 목화길38", "members_num": 10.0}}, {"type": "Feature", "geometry": {"type": "Point", "coordinates": [126.4181574, 35.146406]}, "properties": {"name": "소망교회", "address": "(57110) 전남 함평군 손불면 석산로 904-6", "members_num": 11.0}}, {"type": "Feature", "geometry": {"type": "Point", "coordinates": [126.4796061, 35.0369418]}, "properties": {"name": "성남교회", "address": "(57144) 전남 함평군 함평읍함장로691-10", "members_num": 29.0}}, {"type": "Feature", "geometry": {"type": "Point", "coordinates": [127.7054355, 34.7551658]}, "properties": {"name": "순종하는교회", "address": "(순종하는교회) 전남 여수시 문수로 99, 3층", "members_num": 30.0}}, {"type": "Feature", "geometry": {"type": "Point", "coordinates": [126.9204406, 34.4640627]}, "properties": {"name": "삭금중앙교회", "address": "(59361) 전남 장흥군 가학회진로 843", "members_num": 21.0}}, {"type": "Feature", "geometry": {"type": "Point", "coordinates": [126.3639104, 35.0544009]}, "properties": {"name": "현북교회", "address": "(58509) 전남 무안군 현경면 오류길 14-11", "members_num": 200.0}}, {"type": "Feature", "geometry": {"type": "Point", "coordinates": [126.5514275, 35.0672921]}, "properties": {"name": "석호교회", "address": "(57141) 전남 함평군 대동면 석호길 10", "members_num": 40.0}}, {"type": "Feature", "geometry": {"type": "Point", "coordinates": [126.4796061, 35.0369418]}, "properties": {"name": "합동측", "address": "(57144) 전남 함평군 함평읍 함장로691-10", "members_num": 30.0}}, {"type": "Feature", "geometry": {"type": "Point", "coordinates": [127.0905421, 36.0390396]}, "properties": {"name": "여산침례교회", "address": "(54020) 전북 익산시 여산면 가람로 149", "members_num": 25.0}}, {"type": "Feature", "geometry": {"type": "Point", "coordinates": [126.9615287, 34.6573633]}, "properties": {"name": "장흥안양교회", "address": "(59341) 전남 장흥군 안양면 용안로 784", "members_num": 15.0}}, {"type": "Feature", "geometry": {"type": "Point", "coordinates": [127.766955, 34.6946519]}, "properties": {"name": "굴전교회", "address": "(59771) 전남 여수시 돌산읍돌산로", "members_num": 20.0}}, {"type": "Feature", "geometry": {"type": "Point", "coordinates": [126.9813981, 35.9521008]}, "properties": {"name": "비전교회", "address": "(54640) 전북 익산시 동서로61길 8 2층 비전교회", "members_num": 35.0}}, {"type": "Feature", "geometry": {"type": "Point", "coordinates": [127.1040534, 35.645592]}, "properties": {"name": "백여교회", "address": "(55363) 전북 완주군 구이면 구이로 460", "members_num": 50.0}}, {"type": "Feature", "geometry": {"type": "Point", "coordinates": [126.7180411, 35.9101685]}, "properties": {"name": "우포교회", "address": "(54179) 전북 군산시 옥구읍 우포길 39", "members_num": 14.0}}, {"type": "Feature", "geometry": {"type": "Point", "coordinates": [126.8123547, 35.1714387]}, "properties": {"name": "하남은광교회", "address": "(62349) 광주 광산구 월곡중앙로 54번길 21-7", "members_num": 250.0}}, {"type": "Feature", "geometry": {"type": "Point", "coordinates": [126.6961632, 35.9698661]}, "properties": {"name": "밀알교회", "address": "(61583) 전북 군산시 신설로14", "members_num": 80.0}}, {"type": "Feature", "geometry": {"type": "Point", "coordinates": [127.0217488, 35.93366690000001]}, "properties": {"name": "오산교회", "address": "(54580) 전북 익산시 춘포면 미등골길14-6", "members_num": 24.0}}, {"type": "Feature", "geometry": {"type": "Point", "coordinates": [126.7267329, 34.9047701]}, "properties": {"name": "성소교회", "address": "(58316) 전남 나주시 금교로 260-73", "members_num": 60.0}}, {"type": "Feature", "geometry": {"type": "Point", "coordinates": [126.4269845, 34.8427429]}, "properties": {"name": "본향교회", "address": "(58561) 전남 무안군 삼향읍 중등포길 39", "members_num": 20.0}}, {"type": "Feature", "geometry": {"type": "Point", "coordinates": [126.6279314, 35.180247]}, "properties": {"name": "행복한교회", "address": "(57124) 전남 함평군 월야면 전하길21 행복한교회", "members_num": 30.0}}, {"type": "Feature", "geometry": {"type": "Point", "coordinates": [126.9903353, 35.6048956]}, "properties": {"name": "칠보제일교회", "address": "(56128) 전북 정읍시 칠보 중앙로105", "members_num": 100.0}}, {"type": "Feature", "geometry": {"type": "Point", "coordinates": [126.8927222, 35.9237944]}, "properties": {"name": "남전교회", "address": "(54671) 전북 익산시 오산면 북참길 19-9", "members_num": 25.0}}, {"type": "Feature", "geometry": {"type": "Point", "coordinates": [126.738395, 34.3128201]}, "properties": {"name": "순복음예닮교회", "address": "(59112) 전남 완도군 완도읍 청해진서로 44 현대아파트상가 206호", "members_num": 30.0}}, {"type": "Feature", "geometry": {"type": "Point", "coordinates": [127.1981767, 35.6124011]}, "properties": {"name": "학암교회", "address": "(58905) 전북 임실군 운암면 학암3길 44", "members_num": 30.0}}, {"type": "Feature", "geometry": {"type": "Point", "coordinates": [127.1206193, 35.8189602]}, "properties": {"name": "선한이웃교회", "address": "(54976) 전북 전주시 완산구 효자로 322 2층", "members_num": 30.0}}, {"type": "Feature", "geometry": {"type": "Point", "coordinates": [127.1604028, 35.8494325]}, "properties": {"name": "야베스비젼교회", "address": "(561-741) 전북 전주시 덕진구 우아동", "members_num": 25.0}}, {"type": "Feature", "geometry": {"type": "Point", "coordinates": [127.1359686, 35.8108182]}, "properties": {"name": "물댄동산교회", "address": "(55047) 전북 전주시 완산구 안행로 150, 102동 1003호", "members_num": 92.0}}, {"type": "Feature", "geometry": {"type": "Point", "coordinates": [126.8513693, 35.9059304]}, "properties": {"name": "김제동산교회", "address": "(54309) 전북 김제시 청하면 강변로118", "members_num": 70.0}}, {"type": "Feature", "geometry": {"type": "Point", "coordinates": [126.9600958, 35.938994]}, "properties": {"name": "풍성한교회", "address": "(54596) 전북 익산시 중앙로 125-23 2층 풍성한교회", "members_num": 35.0}}, {"type": "Feature", "geometry": {"type": "Point", "coordinates": [127.1550602, 35.8431168]}, "properties": {"name": "전주목양교회", "address": "(54913) 전북 전주시 덕진구 안골5길 7-6 전주목양교회", "members_num": 30.0}}, {"type": "Feature", "geometry": {"type": "Point", "coordinates": [127.6890872, 34.7854374]}, "properties": {"name": "여수행복한교회", "address": "(59632) 전남 여수시 봉계대곡길 52 여수행복한교회", "members_num": 100.0}}, {"type": "Feature", "geometry": {"type": "Point", "coordinates": [126.7544754, 35.0312506]}, "properties": {"name": "풍성교회", "address": "(금영로940-8) 전남 나주시", "members_num": 9.0}}, {"type": "Feature", "geometry": {"type": "Point", "coordinates": [126.919127, 35.1739478]}, "properties": {"name": "파인트리네트웍스", "address": "(61193) 광주 북구 우산동170-33 타워빌 207호", "members_num": 10.0}}, {"type": "Feature", "geometry": {"type": "Point", "coordinates": [126.8996844, 35.9374195]}, "properties": {"name": "익산밤빛교회", "address": "(45671) 전북 익산시 오산면", "members_num": 4.0}}, {"type": "Feature", "geometry": {"type": "Point", "coordinates": [126.8886478, 35.6859996]}, "properties": {"name": "신태인중앙교회", "address": "(56106) 전북 정읍시 신태인읍 신태인1길 54-4", "members_num": 60.0}}, {"type": "Feature", "geometry": {"type": "Point", "coordinates": [126.8313816, 35.1914435]}, "properties": {"name": "사랑의교회", "address": "(62248) 광주 광산구 수완로74번길38-3", "members_num": 70.0}}, {"type": "Feature", "geometry": {"type": "Point", "coordinates": [127.5245749, 34.9473877]}, "properties": {"name": "주님이일하시는교회", "address": "(57986) 전남 순천시 하대석길 59 4층", "members_num": 20.0}}, {"type": "Feature", "geometry": {"type": "Point", "coordinates": [126.0791984, 34.8526073]}, "properties": {"name": "오상교회", "address": "(58834) 전남 신안군 암태면 천포길 3", "members_num": 20.0}}, {"type": "Feature", "geometry": {"type": "Point", "coordinates": [126.8003431, 35.0096526]}, "properties": {"name": "길을여는교회", "address": "(58329) 전남 나주시 혁신로 135", "members_num": 200.0}}, {"type": "Feature", "geometry": {"type": "Point", "coordinates": [127.1430271, 34.5279313]}, "properties": {"name": "녹동감리교회", "address": "(59560) 전남 고흥군 녹동신항8길 21-8", "members_num": 20.0}}, {"type": "Feature", "geometry": {"type": "Point", "coordinates": [127.1249547, 34.4618146]}, "properties": {"name": "산돌교회", "address": "(거금일주로345) 전남 고흥군 금산면", "members_num": 40.0}}, {"type": "Feature", "geometry": {"type": "Point", "coordinates": [126.4718424, 34.9834156]}, "properties": {"name": "꿈이있는교회", "address": "(58521) 전남 무안군 전남 무안군 무안읍 성남1길 106", "members_num": 39.0}}, {"type": "Feature", "geometry": {"type": "Point", "coordinates": [126.9659245, 35.930791]}, "properties": {"name": "울밖교회", "address": "(54608) 전북 익산시 서동로28길48", "members_num": 120.0}}, {"type": "Feature", "geometry": {"type": "Point", "coordinates": [126.8852587, 35.2157742]}, "properties": {"name": "은혜의복음", "address": "(61027) 광주 북구 양산택지소로36 은혜관1층 은혜의복음교회사무실", "members_num": 300.0}}, {"type": "Feature", "geometry": {"type": "Point", "coordinates": [127.8044332, 34.4878372]}, "properties": {"name": "안도교회", "address": "(59786) 전남 여수시 남면 안도안길27-5", "members_num": 25.0}}, {"type": "Feature", "geometry": {"type": "Point", "coordinates": [126.8605809, 35.1646046]}, "properties": {"name": "상무주님의교회", "address": "(61910) 광주 서구 상무버들로 26, 4층", "members_num": 15.0}}, {"type": "Feature", "geometry": {"type": "Point", "coordinates": [126.7047894, 35.9573085]}, "properties": {"name": "군산삼성교회", "address": "(54103) 전북 군산시 상지곡안1길 12-4 군산삼성교회", "members_num": 70.0}}, {"type": "Feature", "geometry": {"type": "Point", "coordinates": [127.5842474, 34.9766966]}, "properties": {"name": "광양제일교회", "address": "(57742) 전남 광양시 광양읍 인덕로 1058", "members_num": 800.0}}, {"type": "Feature", "geometry": {"type": "Point", "coordinates": [126.4895442, 35.0996321]}, "properties": {"name": "진양교회", "address": "(57135) 전남 함평군 함평읍 한나리길 40-37", "members_num": 30.0}}, {"type": "Feature", "geometry": {"type": "Point", "coordinates": [127.1256178, 35.8581339]}, "properties": {"name": "온세계교회", "address": "(54837) 전북 전주시 덕진구 솔내6길 42", "members_num": 70.0}}, {"type": "Feature", "geometry": {"type": "Point", "coordinates": [127.0391392, 35.8306647]}, "properties": {"name": "완주교회", "address": "(55365) 전북 완주군 이서면 신지앵고길 14~3", "members_num": 50.0}}, {"type": "Feature", "geometry": {"type": "Point", "coordinates": [126.8540452, 35.9846691]}, "properties": {"name": "대일교회", "address": "(54056) 전북 군산시 임피면 남상길 22", "members_num": 70.0}}, {"type": "Feature", "geometry": {"type": "Point", "coordinates": [126.8982892, 35.1470627]}, "properties": {"name": "동행교회", "address": "(61630) 광주 남구 덕림남1길3 나동", "members_num": 100.0}}, {"type": "Feature", "geometry": {"type": "Point", "coordinates": [126.6683141, 34.383957]}, "properties": {"name": "주만남교회", "address": "(59102) 전남 완도군 청해진북로 277", "members_num": 0.0}}, {"type": "Feature", "geometry": {"type": "Point", "coordinates": [126.8113063, 35.1803302]}, "properties": {"name": "수완우리교회", "address": "(62234) 광주 광산구 풍영로 93 3층 수완우리교회", "members_num": 40.0}}, {"type": "Feature", "geometry": {"type": "Point", "coordinates": [127.079938, 35.8736556]}, "properties": {"name": "전주돌단교회", "address": "(54847) 전북 전주시 덕진구 쪽구름3길 39-23", "members_num": 70.0}}, {"type": "Feature", "geometry": {"type": "Point", "coordinates": [127.5665759, 34.968402]}, "properties": {"name": "화목교회", "address": "(57760) 전남 광양시 갈티로45", "members_num": 11.0}}, {"type": "Feature", "geometry": {"type": "Point", "coordinates": [126.6044607, 35.408486]}, "properties": {"name": "무장중앙교회", "address": "(56456) 전북 고창군 무장면 석곡로 11", "members_num": 10.0}}, {"type": "Feature", "geometry": {"type": "Point", "coordinates": [126.5372087, 35.066472]}, "properties": {"name": "함평대동교회", "address": "(57145) 전남 함평군 대동면 대동길 25", "members_num": 80.0}}, {"type": "Feature", "geometry": {"type": "Point", "coordinates": [126.9186034, 35.1328603]}, "properties": {"name": "방림교회", "address": "(61676) 광주 남구 용대로186 103동 206호", "members_num": 1000.0}}, {"type": "Feature", "geometry": {"type": "Point", "coordinates": [127.6453276, 34.7784575]}, "properties": {"name": "두드림교회", "address": "(59638) 전남 여수시 무선로 259", "members_num": 150.0}}, {"type": "Feature", "geometry": {"type": "Point", "coordinates": [126.8363732, 35.1678029]}, "properties": {"name": "덕흥중앙교회", "address": "(61900) 광주 서구 덕흥3길 43(덕흥동)", "members_num": 30.0}}, {"type": "Feature", "geometry": {"type": "Point", "coordinates": [127.1305117, 35.3316469]}, "properties": {"name": "풍산교회", "address": "(56054) 전북 순창군 풍산면월산길41-4", "members_num": 13.0}}, {"type": "Feature", "geometry": {"type": "Point", "coordinates": [126.8182111, 35.6277986]}, "properties": {"name": "도학교회", "address": "(56149) 전북 정읍시 덕천면 동학로 620", "members_num": 30.0}}, {"type": "Feature", "geometry": {"type": "Point", "coordinates": [126.8352885, 35.071477]}, "properties": {"name": "광주칠석교회", "address": "(54529) 광주광역시 남구 칠석1길 51, 광주칠석교회", "members_num": 50.0}}, {"type": "Feature", "geometry": {"type": "Point", "coordinates": [127.0559085, 35.8334486]}, "properties": {"name": "주비전스토리교회", "address": "(55365) 전북 완주군 안전로107-25", "members_num": 14.0}}, {"type": "Feature", "geometry": {"type": "Point", "coordinates": [126.8739885, 35.2126561]}, "properties": {"name": "새성교회", "address": "(61019) 광주 북구 하서로421, 2증 203호", "members_num": 30.0}}, {"type": "Feature", "geometry": {"type": "Point", "coordinates": [127.3283106, 35.8030994]}, "properties": {"name": "진안세동교회", "address": "(32145) 전북 진안군 부귀면 원세동길 7-2", "members_num": 30.0}}, {"type": "Feature", "geometry": {"type": "Point", "coordinates": [127.0218511, 35.9454408]}, "properties": {"name": "신동교회", "address": "(54580) 전북 익산시 춘포면 노적길 40", "members_num": 50.0}}, {"type": "Feature", "geometry": {"type": "Point", "coordinates": [127.3368859, 34.8334563]}, "properties": {"name": "삼광학원(벌교고,삼광중)미션스쿨", "address": "(59430) 전남 보성군 전남 보성군 벌교읍 채동선로 115", "members_num": 500.0}}, {"type": "Feature", "geometry": {"type": "Point", "coordinates": [126.8407729, 35.2143599]}, "properties": {"name": "주봄교회", "address": "(62260) 광주 광산구 월계로 137, 상가동 2층", "members_num": 10.0}}, {"type": "Feature", "geometry": {"type": "Point", "coordinates": [127.6541147, 34.7670179]}, "properties": {"name": "순복음은성교회", "address": "(59645) 전남 여수시 선원 1길 19", "members_num": 100.0}}, {"type": "Feature", "geometry": {"type": "Point", "coordinates": [127.1015592, 35.8340744]}, "properties": {"name": "온한아름교회", "address": "(54956) 전북 전주시 완산구 서곡2길10-4 코람데오빌 1층 상가", "members_num": 11.0}}, {"type": "Feature", "geometry": {"type": "Point", "coordinates": [126.8904668, 35.1447826]}, "properties": {"name": "혜성교회", "address": "(61422) 광주 동구 경양로 27번길 22", "members_num": 500.0}}, {"type": "Feature", "geometry": {"type": "Point", "coordinates": [127.1260892, 35.7946098]}, "properties": {"name": "주소망교회", "address": "(55091) 전북 전주시 완산구 솟대로5 (2층)", "members_num": 15.0}}, {"type": "Feature", "geometry": {"type": "Point", "coordinates": [126.3304237, 34.7140525]}, "properties": {"name": "에덴중앙교회", "address": "(59000) 전남 해남군 월산길43", "members_num": 13.0}}, {"type": "Feature", "geometry": {"type": "Point", "coordinates": [126.9192773, 35.1581063]}, "properties": {"name": "혜성교회", "address": "(61422) 광주 동구 경양로 247번길 22", "members_num": 1000.0}}, {"type": "Feature", "geometry": {"type": "Point", "coordinates": [127.5804003, 34.974531]}, "properties": {"name": "광양동산교회", "address": "(57739) 전남 광양시 남등3길 13", "members_num": 300.0}}, {"type": "Feature", "geometry": {"type": "Point", "coordinates": [127.485071, 34.9637809]}, "properties": {"name": "예수님만나는교회", "address": "(57939) 전남 순천시 북문길165 1층", "members_num": 15.0}}, {"type": "Feature", "geometry": {"type": "Point", "coordinates": [127.1008774, 35.8320558]}, "properties": {"name": "전주예원교회", "address": "(54957) 전북 전주시 완산구 서곡7길 24", "members_num": 100.0}}, {"type": "Feature", "geometry": {"type": "Point", "coordinates": [127.1487726, 35.8645482]}, "properties": {"name": "예사랑교회", "address": "(54902) 전북 전주시 덕진구 동부대로 879, 302호", "members_num": 10.0}}, {"type": "Feature", "geometry": {"type": "Point", "coordinates": [126.9442782, 35.1333264]}, "properties": {"name": "주님의교회", "address": "(61492) 광주 동구 의재로 149-7 상가2층 주님의교회", "members_num": 15.0}}, {"type": "Feature", "geometry": {"type": "Point", "coordinates": [126.8649825, 34.3916075]}, "properties": {"name": "덕동교회", "address": "(59132) 전남 완도군 고금면 덕동길27", "members_num": 4.0}}, {"type": "Feature", "geometry": {"type": "Point", "coordinates": [127.1125752, 35.7256513]}, "properties": {"name": "청명교회", "address": "(55362) 전북 완주군 구이면 구이로 1687-8", "members_num": 10.0}}, {"type": "Feature", "geometry": {"type": "Point", "coordinates": [126.8208315, 35.2217036]}, "properties": {"name": "광주첨단교회", "address": "(62235) 광주 광산구 비아로34번길42", "members_num": 300.0}}, {"type": "Feature", "geometry": {"type": "Point", "coordinates": [126.9062041, 35.1693163]}, "properties": {"name": "부르심교회", "address": "(61219) 광주 북구 서암대로199 중흥모아타운 정문 상가", "members_num": 25.0}}, {"type": "Feature", "geometry": {"type": "Point", "coordinates": [127.1277229, 35.7876204]}, "properties": {"name": "순복음생명나무교회", "address": "(55135) 전북 전주시 완산구 완산구 모악로 4705-5", "members_num": 14.0}}, {"type": "Feature", "geometry": {"type": "Point", "coordinates": [126.98229, 35.9606623]}, "properties": {"name": "엘벧엘교회", "address": "(54553) 전북 익산시 하나로8길 13(2층)", "members_num": 13.0}}, {"type": "Feature", "geometry": {"type": "Point", "coordinates": [126.9563384, 35.9277193]}, "properties": {"name": "주빛교회", "address": "(54676) 전북 익산시 목천로 319 2층", "members_num": 4.0}}, {"type": "Feature", "geometry": {"type": "Point", "coordinates": [126.8817877, 35.9315566]}, "properties": {"name": "신석제일교회", "address": "(54671) 전북 익산시 익산시 신석2길 47-1", "members_num": 20.0}}, {"type": "Feature", "geometry": {"type": "Point", "coordinates": [127.4846836, 34.9455677]}, "properties": {"name": "밝은빛교회", "address": "(57958) 전남 순천시 남제새길 83번지", "members_num": 14.0}}, {"type": "Feature", "geometry": {"type": "Point", "coordinates": [126.9670771, 35.9346539]}, "properties": {"name": "우리는교회", "address": "(54613) 전북 익산시 동천로 7길 70 2층", "members_num": 9.0}}, {"type": "Feature", "geometry": {"type": "Point", "coordinates": [127.6665084, 34.7797773]}, "properties": {"name": "주영광교회", "address": "(59635) 전남 여수시 여천1길86~5", "members_num": 2.0}}, {"type": "Feature", "geometry": {"type": "Point", "coordinates": [126.8077822, 35.85498930000001]}, "properties": {"name": "갈전교회", "address": "(54304) 전북 김제시 진봉면 갈전길 45-3(정당리) 갈전교회 사택", "members_num": 19.0}}, {"type": "Feature", "geometry": {"type": "Point", "coordinates": [126.8630039, 35.1856369]}, "properties": {"name": "길하나교회", "address": "(61265) 광주 북구 북문대로 249번길 55 유일가든 106-805", "members_num": 7.0}}, {"type": "Feature", "geometry": {"type": "Point", "coordinates": [126.4856594, 35.6126086]}, "properties": {"name": "성산교회", "address": "(12959) 전북 부안군 도유로1", "members_num": 20.0}}, {"type": "Feature", "geometry": {"type": "Point", "coordinates": [126.8565246, 35.5715914]}, "properties": {"name": "포도나무교회", "address": "(56180) 전북 정읍시 성황산길 24-5", "members_num": 70.0}}, {"type": "Feature", "geometry": {"type": "Point", "coordinates": [126.8788468, 35.1558387]}, "properties": {"name": "밝은빛교회", "address": "(61977) 광주 서구 내방로 340-6", "members_num": 20.0}}, {"type": "Feature", "geometry": {"type": "Point", "coordinates": [126.4851377, 35.183558]}, "properties": {"name": "구봉교회", "address": "(57104) 전남 함평군 신광면 일강로 873-11", "members_num": 15.0}}, {"type": "Feature", "geometry": {"type": "Point", "coordinates": [127.4250524, 34.6500334]}, "properties": {"name": "화계교회", "address": "(5918) 전남 고흥군 전남 고흥군 점암면 한산 길66-35", "members_num": 45.0}}, {"type": "Feature", "geometry": {"type": "Point", "coordinates": [126.9560771, 36.1310645]}, "properties": {"name": "법성교회", "address": "(54506) 전북 익산시 용안면 옹북로 184", "members_num": 15.0}}, {"type": "Feature", "geometry": {"type": "Point", "coordinates": [127.1128732, 35.8311316]}, "properties": {"name": "누리샘교회", "address": "(54351) 전북 전주시 완산구 서신천변13길10-7", "members_num": 10.0}}, {"type": "Feature", "geometry": {"type": "Point", "coordinates": [126.8979051, 35.9995359]}, "properties": {"name": "화등중앙교회", "address": "(54053) 전북 군산시 서수면 화등길 116", "members_num": 22.0}}, {"type": "Feature", "geometry": {"type": "Point", "coordinates": [127.1404293, 35.7946707]}, "properties": {"name": "주사랑교회", "address": "(55120) 전북 전주시 완산구 덕적골1길 31-8", "members_num": 10.0}}, {"type": "Feature", "geometry": {"type": "Point", "coordinates": [127.1490475, 35.8620557]}, "properties": {"name": "전주희락교회", "address": "(54903) 전북 전주시 덕진구 호성로 134 진흥더블파크상가 3층", "members_num": 60.0}}, {"type": "Feature", "geometry": {"type": "Point", "coordinates": [126.6595326, 34.3414671]}, "properties": {"name": "당인교회", "address": "(59106) 전남 완도군 군외면 청해진서로 1340", "members_num": 30.0}}, {"type": "Feature", "geometry": {"type": "Point", "coordinates": [126.8391866, 35.1856135]}, "properties": {"name": "월광비젼교회", "address": "(62295) 광주 광산구 수등로 277-1, 5층", "members_num": 15.0}}, {"type": "Feature", "geometry": {"type": "Point", "coordinates": [126.8924006, 34.7032918]}, "properties": {"name": "장흥내안리교회", "address": "(59302) 전남 장흥군 부산면 내안구룡길71", "members_num": 50.0}}, {"type": "Feature", "geometry": {"type": "Point", "coordinates": [127.009861, 36.0683714]}, "properties": {"name": "낭산중앙교회", "address": "(54522) 전북 익산시 낭산면 호암신동길 4", "members_num": 60.0}}, {"type": "Feature", "geometry": {"type": "Point", "coordinates": [127.7062545, 34.7685166]}, "properties": {"name": "행복한교회", "address": "(59629) 전남 여수시 미평10길26", "members_num": 50.0}}, {"type": "Feature", "geometry": {"type": "Point", "coordinates": [126.822251, 35.2442065]}, "properties": {"name": "동부교회", "address": "(57248) 전남 장성군 남면 진남2로82-7", "members_num": 30.0}}, {"type": "Feature", "geometry": {"type": "Point", "coordinates": [126.7216214, 35.034346]}, "properties": {"name": "광명교회", "address": "(58255) 전남 나주시 나주로 208 3층", "members_num": 5.0}}, {"type": "Feature", "geometry": {"type": "Point", "coordinates": [126.7539652, 35.98180869999999]}, "properties": {"name": "순복음군산우리교회", "address": "(54044) 전북 군산시 잠두2길 21(구암동)", "members_num": 30.0}}, {"type": "Feature", "geometry": {"type": "Point", "coordinates": [126.681708, 35.9686957]}, "properties": {"name": "군산양정교회", "address": "(54164) 전북 군산시 소룡안3길 24, 상가동 2층(산북동, 코오롱아파트)", "members_num": 20.0}}, {"type": "Feature", "geometry": {"type": "Point", "coordinates": [127.1140621, 35.8001668]}, "properties": {"name": "전주갈릴리교회", "address": "(55085) 전북 전주시 완산구 용리로 13", "members_num": 100.0}}, {"type": "Feature", "geometry": {"type": "Point", "coordinates": [127.5139497, 34.9477391]}, "properties": {"name": "생명샘교회", "address": "(57991) 전남 순천시 구암길8", "members_num": 25.0}}, {"type": "Feature", "geometry": {"type": "Point", "coordinates": [126.8934864, 35.826925]}, "properties": {"name": "백산성결교회", "address": "(54365) 전북 김제시 백산로 31", "members_num": 100.0}}, {"type": "Feature", "geometry": {"type": "Point", "coordinates": [126.1212326, 35.0024157]}, "properties": {"name": "방축교회", "address": "(58807) 전남 신안군 보물섬길 122-10", "members_num": 120.0}}, {"type": "Feature", "geometry": {"type": "Point", "coordinates": [126.6553588, 34.56281999999999]}, "properties": {"name": "옥천교회", "address": "(51310) 전남 해남군 전남 해남군 옥천면 옥천면 15-7 옥천교회", "members_num": 100.0}}, {"type": "Feature", "geometry": {"type": "Point", "coordinates": [127.3046984, 35.6864609]}, "properties": {"name": "좌산교회", "address": "(55460) 전북 진안군 성수면 관진로429", "members_num": 20.0}}, {"type": "Feature", "geometry": {"type": "Point", "coordinates": [127.1260478, 35.7947403]}, "properties": {"name": "전주주안에교회", "address": "(55091) 전북 전주시 완산구 솟대로 7", "members_num": 0.0}}, {"type": "Feature", "geometry": {"type": "Point", "coordinates": [127.5161955, 34.9606306]}, "properties": {"name": "합동", "address": "(57945) 전남 순천시 유동길 85", "members_num": 77.0}}, {"type": "Feature", "geometry": {"type": "Point", "coordinates": [126.4182784, 34.7988882]}, "properties": {"name": "목포사랑침례교회", "address": "(58698) 전남 목포시 백년대로 232", "members_num": 40.0}}, {"type": "Feature", "geometry": {"type": "Point", "coordinates": [127.25467, 35.9056271]}, "properties": {"name": "위봉교회", "address": "(55348) 전북 완주군 소양면 위봉길7-8", "members_num": 25.0}}, {"type": "Feature", "geometry": {"type": "Point", "coordinates": [126.9565558, 36.1401717]}, "properties": {"name": "법성교회", "address": "(54506) 전북 익산시 돌마루길9", "members_num": 40.0}}, {"type": "Feature", "geometry": {"type": "Point", "coordinates": [126.7044491, 35.5113529]}, "properties": {"name": "열방제자교회", "address": "(56415) 전북 고창군 흥덕면 고인돌대로", "members_num": 33.0}}, {"type": "Feature", "geometry": {"type": "Point", "coordinates": [126.8044781, 35.3244722]}, "properties": {"name": "성산교회", "address": "(57212) 전남 장성군 장성읍성산1길45", "members_num": 30.0}}, {"type": "Feature", "geometry": {"type": "Point", "coordinates": [126.7836428, 35.3148178]}, "properties": {"name": "장성소망교회", "address": "(57212) 전남 장성군 장성읍 화차길 45 장성소망교회", "members_num": 20.0}}, {"type": "Feature", "geometry": {"type": "Point", "coordinates": [126.8529032, 35.5824013]}, "properties": {"name": "정읍온누리교회", "address": "(56176) 전북 정읍시 수성택지5길 48-11", "members_num": 12.0}}, {"type": "Feature", "geometry": {"type": "Point", "coordinates": [126.9565558, 36.1401717]}, "properties": {"name": "법성교회", "address": "(54506) 전북 익산시 돌마루길9", "members_num": 40.0}}, {"type": "Feature", "geometry": {"type": "Point", "coordinates": [126.7640643, 35.9291722]}, "properties": {"name": "대위마을교회", "address": "(54177) 전북 군산시 대위안길 20-11", "members_num": 30.0}}, {"type": "Feature", "geometry": {"type": "Point", "coordinates": [126.9497505, 35.939102]}, "properties": {"name": "사랑인교회", "address": "(54601) 전북 익산시 중앙로26 (2층)", "members_num": 50.0}}, {"type": "Feature", "geometry": {"type": "Point", "coordinates": [127.0688122, 35.8729877]}, "properties": {"name": "더사랑교회", "address": "(54808) 전북 전주시 덕진구 반월 5길 8-11, 더사랑교회", "members_num": 12.0}}, {"type": "Feature", "geometry": {"type": "Point", "coordinates": [126.3735028, 34.8070408]}, "properties": {"name": "목포온누리교회", "address": "(58638) 전남 목포시 원산로 59번길 30", "members_num": 50.0}}, {"type": "Feature", "geometry": {"type": "Point", "coordinates": [127.1051035, 35.9356631]}, "properties": {"name": "쉼교회", "address": "(55332) 전북 완주군 삼례읍 신수로 203~19", "members_num": 55.0}}, {"type": "Feature", "geometry": {"type": "Point", "coordinates": [126.3881851, 34.7514525]}, "properties": {"name": "믿음의교회", "address": "(58450) 전남 영암군 삼호읍 모밀항길 87-27", "members_num": 17.0}}, {"type": "Feature", "geometry": {"type": "Point", "coordinates": [127.1505459, 35.8443543]}, "properties": {"name": "전주사랑교회", "address": "(54916) 전북 전주시 덕진구 견훤로367", "members_num": 14.0}}, {"type": "Feature", "geometry": {"type": "Point", "coordinates": [126.3937526, 34.8107014]}, "properties": {"name": "목포드림교회", "address": "(58647) 전남 목포시 용당로 281 3층", "members_num": 30.0}}, {"type": "Feature", "geometry": {"type": "Point", "coordinates": [126.3908885, 34.7976772]}, "properties": {"name": "새계명교회", "address": "(58731) 전남 목포시 백년대로 12번길 12", "members_num": 30.0}}, {"type": "Feature", "geometry": {"type": "Point", "coordinates": [126.4214976, 34.8092124]}, "properties": {"name": "대한예수교장로회", "address": "(58660) 전남 목포시 하당로 229 2층", "members_num": 20.0}}, {"type": "Feature", "geometry": {"type": "Point", "coordinates": [126.8698785, 35.1713348]}, "properties": {"name": "동천소망교회", "address": "(61903) 광주 서구 하남대로 706. 제일메디프라자 4층", "members_num": 150.0}}, {"type": "Feature", "geometry": {"type": "Point", "coordinates": [126.955636, 35.9346477]}, "properties": {"name": "이리동부교회", "address": "(54600) 전북 익산시 주현로 43-20", "members_num": 200.0}}, {"type": "Feature", "geometry": {"type": "Point", "coordinates": [126.8105831, 35.1756086]}, "properties": {"name": "광주성은교회", "address": "(62328) 광주 광산구 사암로 340번안길 6 수산빌딩 6층", "members_num": 100.0}}, {"type": "Feature", "geometry": {"type": "Point", "coordinates": [126.8851092, 35.6120516]}, "properties": {"name": "성원교회", "address": "(56133) 전북 정읍시 북면칠북로 21-29", "members_num": 65.0}}, {"type": "Feature", "geometry": {"type": "Point", "coordinates": [127.1771882, 35.9282212]}, "properties": {"name": "은혜동산교회", "address": "(55350) 전북 완주군 용진읍신지용복1길26", "members_num": 7.0}}, {"type": "Feature", "geometry": {"type": "Point", "coordinates": [127.7019933, 34.7520057]}, "properties": {"name": "주향기교회", "address": "(59708) 전남 여수시 여문 문화1길 54 은우빌딩 2층", "members_num": 100.0}}, {"type": "Feature", "geometry": {"type": "Point", "coordinates": [127.5804003, 34.974531]}, "properties": {"name": "광양동산교회", "address": "(57739) 전남 광양시 남등 3길 13", "members_num": 250.0}}, {"type": "Feature", "geometry": {"type": "Point", "coordinates": [126.8404433, 35.5084073]}, "properties": {"name": "수성교회", "address": "(56212) 전북 정읍시 첨단3로7 102동 1307호", "members_num": 15.0}}, {"type": "Feature", "geometry": {"type": "Point", "coordinates": [127.1643234, 35.8097736]}, "properties": {"name": "신실교회", "address": "(55110) 전북 전주시 완산구 바람쐬는길 39-34", "members_num": 30.0}}, {"type": "Feature", "geometry": {"type": "Point", "coordinates": [127.4909923, 34.943224]}, "properties": {"name": "생명샘교회", "address": "(57959) 전남 순천시 우석로 188-2 (인제동) 지하", "members_num": 5.0}}, {"type": "Feature", "geometry": {"type": "Point", "coordinates": [127.1670167, 35.8283163]}, "properties": {"name": "전주시온반석교회", "address": "(55021) 전북 전주시 덕진구 석소로5-14번지", "members_num": 0.0}}, {"type": "Feature", "geometry": {"type": "Point", "coordinates": [126.9467377, 35.9493088]}, "properties": {"name": "예수생명교회", "address": "(54656) 전북 익산시 선화로23길17 보은빌딩204호", "members_num": 20.0}}, {"type": "Feature", "geometry": {"type": "Point", "coordinates": [127.1003239, 35.8208563]}, "properties": {"name": "105여단백오교회", "address": "(54964) 전북 전주시 완산구 배학4길 39 3층", "members_num": 50.0}}, {"type": "Feature", "geometry": {"type": "Point", "coordinates": [127.1374814, 35.7966608]}, "properties": {"name": "행복한교회", "address": "(55121) 전북 전주시 완산구 평화로222-34, 3층", "members_num": 20.0}}, {"type": "Feature", "geometry": {"type": "Point", "coordinates": [127.292251, 35.5496643]}, "properties": {"name": "주천교회", "address": "(55949) 전북 임실군 오수면 주천2길 83-19", "members_num": 25.0}}, {"type": "Feature", "geometry": {"type": "Point", "coordinates": [127.5935501, 34.9768502]}, "properties": {"name": "사랑의빛교회", "address": "(57745) 전남 광양시 광양읍 유당로 74", "members_num": 70.0}}, {"type": "Feature", "geometry": {"type": "Point", "coordinates": [126.0536492, 34.2882704]}, "properties": {"name": "눌옥도화평교회", "address": "(58957) 전남 진도군 조도면 읍구길4", "members_num": 10.0}}, {"type": "Feature", "geometry": {"type": "Point", "coordinates": [127.242332, 35.6562764]}, "properties": {"name": "호암교회", "address": "(55911) 전북 임실군 호암2길 10~19", "members_num": 15.0}}, {"type": "Feature", "geometry": {"type": "Point", "coordinates": [127.3070804, 35.5771536]}, "properties": {"name": "봉천교회", "address": "(55948) 전북 임실군 오수면 봉천2길 12", "members_num": 20.0}}, {"type": "Feature", "geometry": {"type": "Point", "coordinates": [127.6693285, 34.7605085]}, "properties": {"name": "임재교회", "address": "(59687) 전남 여수시 선소로82", "members_num": 10.0}}, {"type": "Feature", "geometry": {"type": "Point", "coordinates": [126.7137325, 34.3914499]}, "properties": {"name": "완도방주교회", "address": "(59103) 전남 완도군 청해진로 1051", "members_num": 42.0}}, {"type": "Feature", "geometry": {"type": "Point", "coordinates": [127.6093952, 34.97587499999999]}, "properties": {"name": "나실인교회", "address": "(57746) 전남 광양시 광양읍 용강리 용강1길 37", "members_num": 26.0}}, {"type": "Feature", "geometry": {"type": "Point", "coordinates": [127.4881349, 34.950366]}, "properties": {"name": "선한목자교회", "address": "(57956) 전남 순천시 강남로71", "members_num": 11.0}}, {"type": "Feature", "geometry": {"type": "Point", "coordinates": [126.9996281, 35.9592176]}, "properties": {"name": "사랑의교회", "address": "(54558) 전북 익산시 선화로 683-14", "members_num": 55.0}}, {"type": "Feature", "geometry": {"type": "Point", "coordinates": [127.1199151, 35.8439246]}, "properties": {"name": "정다운교회", "address": "(54888) 전북 전주시 덕진구 기린대로549", "members_num": 30.0}}, {"type": "Feature", "geometry": {"type": "Point", "coordinates": [126.8644648, 35.5653678]}, "properties": {"name": "함께하는교회", "address": "(561~89) 전북 정읍시 충정로142함께하는교회", "members_num": 22.0}}, {"type": "Feature", "geometry": {"type": "Point", "coordinates": [127.1454577, 35.813675]}, "properties": {"name": "복죽교회", "address": "(55043) 전북 김제시 복북4길 21", "members_num": 23.0}}, {"type": "Feature", "geometry": {"type": "Point", "coordinates": [127.135267, 35.8131055]}, "properties": {"name": "동산양문교회", "address": "(55046) 전북 전주시 완산구 서원로354번지 2층", "members_num": 9.0}}, {"type": "Feature", "geometry": {"type": "Point", "coordinates": [126.6098208, 35.588786]}, "properties": {"name": "곰소제일교회", "address": "(56346) 전북 부안군 진서면 곰소1길11", "members_num": 40.0}}, {"type": "Feature", "geometry": {"type": "Point", "coordinates": [126.4198302, 35.0013688]}, "properties": {"name": "동산교회", "address": "(58517) 전남 무안군 현경면 동산길 97", "members_num": 220.0}}, {"type": "Feature", "geometry": {"type": "Point", "coordinates": [126.4455233, 35.401941]}, "properties": {"name": "예장상하리교회", "address": "(57004) 전남 영광군 홍농읍 497", "members_num": 33.0}}, {"type": "Feature", "geometry": {"type": "Point", "coordinates": [126.5411986, 35.4603872]}, "properties": {"name": "해리중앙교회", "address": "(56428) 전북 고창군 해리면 하련1길 9", "members_num": 34.0}}, {"type": "Feature", "geometry": {"type": "Point", "coordinates": [127.1586493, 35.8271717]}, "properties": {"name": "이레교회", "address": "(55010) 전북 전주시 완산구 인봉로 40-9", "members_num": 30.0}}, {"type": "Feature", "geometry": {"type": "Point", "coordinates": [127.1382441, 35.8070842]}, "properties": {"name": "김정복", "address": "(408) 전북 전주시 완산구 유기전2길23 대명까치맨션 101", "members_num": 15.0}}, {"type": "Feature", "geometry": {"type": "Point", "coordinates": [127.6711776, 34.7634892]}, "properties": {"name": "여수씨티교회", "address": "(59680) 전남 여수시 선소로122", "members_num": 70.0}}, {"type": "Feature", "geometry": {"type": "Point", "coordinates": [127.7004005, 34.7689506]}, "properties": {"name": "그사랑교회", "address": "(59697) 전남 여수시 둔덕4길 15 (1층)", "members_num": 20.0}}, {"type": "Feature", "geometry": {"type": "Point", "coordinates": [127.1331882, 35.8324741]}, "properties": {"name": "꿈사랑교회", "address": "(54938) 전북 전주시 덕진구 숲정이로 51", "members_num": 120.0}}, {"type": "Feature", "geometry": {"type": "Point", "coordinates": [127.1185666, 35.8156686]}, "properties": {"name": "소명교회", "address": "(54977) 전북 전주시 완산구 중산3길 15 하늘채401호", "members_num": 22.0}}, {"type": "Feature", "geometry": {"type": "Point", "coordinates": [127.0950348, 35.809016]}, "properties": {"name": "지명교회", "address": "(55063) 전북 전주시 완산구 후곡길5-20", "members_num": 30.0}}, {"type": "Feature", "geometry": {"type": "Point", "coordinates": [127.132447, 35.7955115]}, "properties": {"name": "전주아름다운교회", "address": "(55050) 전북 전주시 완산구 189-46", "members_num": 100.0}}, {"type": "Feature", "geometry": {"type": "Point", "coordinates": [127.4717654, 35.492956]}, "properties": {"name": "태평교회", "address": "(55708) 전북 남원시 산동면 태평길 10-13", "members_num": 70.0}}, {"type": "Feature", "geometry": {"type": "Point", "coordinates": [127.1194495, 35.8178848]}, "properties": {"name": "새백성교회", "address": "(54976) 전북 전주시 완산구 중산로43-9", "members_num": 40.0}}, {"type": "Feature", "geometry": {"type": "Point", "coordinates": [127.7323045, 34.8267563]}, "properties": {"name": "상암찬미교회", "address": "(59619) 전남 여수시 상암 4길 13", "members_num": 8.0}}, {"type": "Feature", "geometry": {"type": "Point", "coordinates": [127.1127918, 35.8313809]}, "properties": {"name": "전주서린교회", "address": "(54951) 전북 전주시 완산구 서신천변 15길 11-6", "members_num": 50.0}}, {"type": "Feature", "geometry": {"type": "Point", "coordinates": [127.2341358, 35.8804839]}, "properties": {"name": "내주교회", "address": "(55355) 전북 완주군 소양면 인덕길 243번길", "members_num": 15.0}}, {"type": "Feature", "geometry": {"type": "Point", "coordinates": [126.7203889, 35.1180979]}, "properties": {"name": "평동서부교회", "address": "(62459) 광주 광산구 평동로409", "members_num": 100.0}}, {"type": "Feature", "geometry": {"type": "Point", "coordinates": [126.8910609, 35.1408065]}, "properties": {"name": "새힘고회", "address": "(61604) 광주 남구 군분로87,3층", "members_num": 2.0}}, {"type": "Feature", "geometry": {"type": "Point", "coordinates": [127.0678905, 35.9730707]}, "properties": {"name": "대한예수교장로회궁평교회", "address": "(54576) 전북 익산시 왕궁면 궁평1길 7", "members_num": 70.0}}, {"type": "Feature", "geometry": {"type": "Point", "coordinates": [126.6353244, 35.1396946]}, "properties": {"name": "나산동부교회", "address": "(57130) 전남 함평군 나산면 수상길17", "members_num": 25.0}}, {"type": "Feature", "geometry": {"type": "Point", "coordinates": [126.9133905, 35.1624262]}, "properties": {"name": "중흥순복음교회", "address": "(61235) 광주 북구 중흥로173번길24 (중흥동)", "members_num": 45.0}}, {"type": "Feature", "geometry": {"type": "Point", "coordinates": [126.4325402, 34.8020772]}, "properties": {"name": "목포말씀치유교회", "address": "(58687) 전남 목포시 통일대로 75번길 10 부영3차아파트 상가2층 201호", "members_num": 10.0}}, {"type": "Feature", "geometry": {"type": "Point", "coordinates": [126.6218026, 34.8365433]}, "properties": {"name": "한빛교회", "address": "(58429) 전남 영암군 도포면 토말로 65", "members_num": 50.0}}, {"type": "Feature", "geometry": {"type": "Point", "coordinates": [126.8166845, 35.20153070000001]}, "properties": {"name": "새로운교회", "address": "(62221) 광주 광산구 풍영로 330번길 15, 802동 203호", "members_num": 15.0}}, {"type": "Feature", "geometry": {"type": "Point", "coordinates": [126.9057838, 35.1364652]}, "properties": {"name": "빛고을소망교회", "address": "(61658) 광주 남구 진다리로40번길4", "members_num": 30.0}}, {"type": "Feature", "geometry": {"type": "Point", "coordinates": [127.525326, 34.9681255]}, "properties": {"name": "순천블레싱교회", "address": "(57932) 전남 순천시 왕지로6 호수빌딩1층", "members_num": 5.0}}, {"type": "Feature", "geometry": {"type": "Point", "coordinates": [126.8493466, 35.1926437]}, "properties": {"name": "신창교회", "address": "(62287) 광주 광산구 구촌반촌길 291(신창동424)", "members_num": 100.0}}, {"type": "Feature", "geometry": {"type": "Point", "coordinates": [127.1711286, 35.829327]}, "properties": {"name": "전주예원교회", "address": "(55023) 전북 전주시 덕진구 아중3길 14-3", "members_num": 80.0}}, {"type": "Feature", "geometry": {"type": "Point", "coordinates": [126.7120192, 35.973805]}, "properties": {"name": "하진교회", "address": "(54121) 전북 군산시 팔마로 97-1번지 2층 하진교회", "members_num": 6.0}}, {"type": "Feature", "geometry": {"type": "Point", "coordinates": [127.5738188, 35.9953122]}, "properties": {"name": "대유제일교회", "address": "(55501) 전북 무주군 부남면 대티길 53-2", "members_num": 40.0}}, {"type": "Feature", "geometry": {"type": "Point", "coordinates": [126.1394091, 34.36634720000001]}, "properties": {"name": "서망교회", "address": "(58945) 전남 진도군 임회면 서망항길7", "members_num": 10.0}}, {"type": "Feature", "geometry": {"type": "Point", "coordinates": [126.7164927, 34.9353602]}, "properties": {"name": "나주세지교회", "address": "(58316) 전남 나주시 세지면 송제길101", "members_num": 35.0}}, {"type": "Feature", "geometry": {"type": "Point", "coordinates": [126.4301697, 34.8051193]}, "properties": {"name": "선한목자교회", "address": "(58685) 전남 목포시 신흥로92(옥암동)4층", "members_num": 15.0}}, {"type": "Feature", "geometry": {"type": "Point", "coordinates": [126.7535951, 35.9797076]}, "properties": {"name": "주능력교회", "address": "(54044) 전북 군산시 마지골길 27-10", "members_num": 10.0}}, {"type": "Feature", "geometry": {"type": "Point", "coordinates": [126.9320595, 36.073756]}, "properties": {"name": "와초교회", "address": "(54505) 전북 익산시 성당면 황성로 557", "members_num": 80.0}}, {"type": "Feature", "geometry": {"type": "Point", "coordinates": [126.7148162, 35.97716]}, "properties": {"name": "은혜평강교회", "address": "(58870) 전북 군산시 삼학7길", "members_num": 10.0}}, {"type": "Feature", "geometry": {"type": "Point", "coordinates": [127.1149084, 35.8109123]}, "properties": {"name": "주동행교회", "address": "(55053) 전북 전주시 완산구 거마평로 208 2층", "members_num": 20.0}}, {"type": "Feature", "geometry": {"type": "Point", "coordinates": [126.9355194, 35.123211]}, "properties": {"name": "광주충만교회", "address": "(61502) 광주 동구 소태동 학소로42번길12 상가301호", "members_num": 17.0}}, {"type": "Feature", "geometry": {"type": "Point", "coordinates": [126.9886035, 35.9584817]}, "properties": {"name": "내사랑침례교회", "address": "(54562) 전북 익산시 무왕로22길19 지하", "members_num": 10.0}}, {"type": "Feature", "geometry": {"type": "Point", "coordinates": [126.9794488, 35.2226073]}, "properties": {"name": "고서중앙교회", "address": "(57387) 전남 담양군 고서면 성월성산길57-45", "members_num": 44.0}}, {"type": "Feature", "geometry": {"type": "Point", "coordinates": [126.8384119, 35.1938269]}, "properties": {"name": "세계로복음교회", "address": "(62252) 광주 광산구 신창로106번길16-16 하늘아래101호", "members_num": 100.0}}, {"type": "Feature", "geometry": {"type": "Point", "coordinates": [127.5509452, 34.9277592]}, "properties": {"name": "우리동네작은교회", "address": "(58016) 전남 순천시 매안3길 11, 두리안빌딩2층", "members_num": 25.0}}, {"type": "Feature", "geometry": {"type": "Point", "coordinates": [126.910624, 35.1693271]}, "properties": {"name": "하늘가족교회", "address": "(61217) 광주 북구 우치로 17(2층)", "members_num": 10.0}}, {"type": "Feature", "geometry": {"type": "Point", "coordinates": [127.3061423, 35.7071342]}, "properties": {"name": "임마누엘냉천수양관교회", "address": "(55457) 전북 진안군 성수면 용포로 170", "members_num": 100.0}}, {"type": "Feature", "geometry": {"type": "Point", "coordinates": [126.9106423, 34.6970695]}, "properties": {"name": "행웡교회", "address": "(59314) 전남 장흥군 행원4길 32", "members_num": 20.0}}, {"type": "Feature", "geometry": {"type": "Point", "coordinates": [126.6948345, 35.427949]}, "properties": {"name": "고창순복음제일교회", "address": "(56439) 전북 고창군 고창읍 중거리당산로 69", "members_num": 30.0}}, {"type": "Feature", "geometry": {"type": "Point", "coordinates": [126.9754648, 35.934365]}, "properties": {"name": "주성안교회", "address": "(54614) 전북 익산시 약촌로41", "members_num": 11.0}}, {"type": "Feature", "geometry": {"type": "Point", "coordinates": [126.952225, 35.944927]}, "properties": {"name": "초대순복음교회", "address": "(54592) 전북 익산시 인북로 165-43", "members_num": 15.0}}, {"type": "Feature", "geometry": {"type": "Point", "coordinates": [126.724927, 35.9627905]}, "properties": {"name": "주손교호", "address": "(54092) 전북 군산시 경포천로34 104동1402호", "members_num": 0.0}}, {"type": "Feature", "geometry": {"type": "Point", "coordinates": [127.5214201, 34.9439793]}, "properties": {"name": "순천우리교회", "address": "(57988) 전남 순천시 연향1로62 203동1103호", "members_num": 30.0}}, {"type": "Feature", "geometry": {"type": "Point", "coordinates": [126.6219536, 34.9063604]}, "properties": {"name": "금월교회", "address": "(58425) 전남 영암군 시종면 흥복동길 4", "members_num": 40.0}}, {"type": "Feature", "geometry": {"type": "Point", "coordinates": [126.9252935, 35.285466]}, "properties": {"name": "샘뜰교회", "address": "(57324) 전남 담양군 수북면 고리대길 106-28", "members_num": 15.0}}, {"type": "Feature", "geometry": {"type": "Point", "coordinates": [126.7879286, 35.4386589]}, "properties": {"name": "달성교회", "address": "(57200) 전남 장성군 북이면 방장로 822", "members_num": 30.0}}, {"type": "Feature", "geometry": {"type": "Point", "coordinates": [127.6480844, 34.7776973]}, "properties": {"name": "이끄시는교회", "address": "(59639) 전남 여수시 성산2길 10-10", "members_num": 40.0}}, {"type": "Feature", "geometry": {"type": "Point", "coordinates": [126.7055604, 35.9569074]}, "properties": {"name": "군산행복한교회", "address": "(54103) 전북 군산시 상지곡안2길4-5", "members_num": 32.0}}, {"type": "Feature", "geometry": {"type": "Point", "coordinates": [126.8103048, 35.7178042]}, "properties": {"name": "백산교회", "address": "(56321) 전북 부안군 백산면 시기길20", "members_num": 66.0}}, {"type": "Feature", "geometry": {"type": "Point", "coordinates": [127.156359, 35.8411407]}, "properties": {"name": "더품는교회", "address": "(54913) 전북 전주시 덕진구 견훤로 356-1, 2F", "members_num": 30.0}}, {"type": "Feature", "geometry": {"type": "Point", "coordinates": [126.3933755, 34.8026358]}, "properties": {"name": "우리좋은교회", "address": "(58707) 전남 목포시 영산로246 경훈빌딩 5층", "members_num": 20.0}}, {"type": "Feature", "geometry": {"type": "Point", "coordinates": [126.9625616, 35.9597097]}, "properties": {"name": "익산시사랑의교회", "address": "(54632) 전북 익산시 무왕로6길 27", "members_num": 13.0}}, {"type": "Feature", "geometry": {"type": "Point", "coordinates": [126.7830109, 35.8605121]}, "properties": {"name": "오이코스교회", "address": "(54303) 전북 김제시 진봉면 해망1길 38-37", "members_num": 3.0}}, {"type": "Feature", "geometry": {"type": "Point", "coordinates": [127.1196071, 35.8056898]}, "properties": {"name": "예심교회", "address": "(55081) 전북 전주시 완산구 성지산3길35", "members_num": 20.0}}, {"type": "Feature", "geometry": {"type": "Point", "coordinates": [126.9890567, 35.9566038]}, "properties": {"name": "복천교회", "address": "(54561) 전북 익산시 무왕로22길35 401호", "members_num": 7.0}}, {"type": "Feature", "geometry": {"type": "Point", "coordinates": [126.2328053, 35.0916163]}, "properties": {"name": "외양교회", "address": "(58811) 전남 신안군 지도읍 원내양길 143", "members_num": 20.0}}, {"type": "Feature", "geometry": {"type": "Point", "coordinates": [126.8032252, 35.7014178]}, "properties": {"name": "거령교회", "address": "(56322) 전북 부안군 백산면동학로88", "members_num": 70.0}}, {"type": "Feature", "geometry": {"type": "Point", "coordinates": [126.783122, 35.7288722]}, "properties": {"name": "부안동부교회", "address": "(56319) 전북 부안군 부령로 391", "members_num": 70.0}}, {"type": "Feature", "geometry": {"type": "Point", "coordinates": [126.7447977, 35.7782128]}, "properties": {"name": "산월교회", "address": "(56302) 전북 부안군 산월길25-7", "members_num": 80.0}}, {"type": "Feature", "geometry": {"type": "Point", "coordinates": [126.7970642, 35.7296708]}, "properties": {"name": "금판교회", "address": "(56321) 전북 부안군 백산면 금판로 금판교회", "members_num": 60.0}}, {"type": "Feature", "geometry": {"type": "Point", "coordinates": [126.8689577, 35.1880837]}, "properties": {"name": "광주중심교회", "address": "(61097) 광주 북구 동림용산로12-8", "members_num": 10.0}}, {"type": "Feature", "geometry": {"type": "Point", "coordinates": [126.8741788, 35.1527007]}, "properties": {"name": "광주주향교회", "address": "(61975) 광주 서구 화운로 155번길 24", "members_num": 35.0}}, {"type": "Feature", "geometry": {"type": "Point", "coordinates": [126.7801958, 35.2436389]}, "properties": {"name": "장성백운교회", "address": "(57250) 전남 장성군 남면 백운길 18", "members_num": 45.0}}, {"type": "Feature", "geometry": {"type": "Point", "coordinates": [126.8432991, 35.0455596]}, "properties": {"name": "남평교회", "address": "(58227) 전남 나주시 남평읍 남평2로 32-7", "members_num": 300.0}}, {"type": "Feature", "geometry": {"type": "Point", "coordinates": [127.008838, 35.8070829]}, "properties": {"name": "산동교회", "address": "(54339) 전북 김제시 금구면 낙산로 130", "members_num": 50.0}}, {"type": "Feature", "geometry": {"type": "Point", "coordinates": [126.2691306, 34.6683144]}, "properties": {"name": "은혜교회", "address": "(59002) 전남 해남군 화원면 화봉길144-44", "members_num": 11.0}}, {"type": "Feature", "geometry": {"type": "Point", "coordinates": [126.4745338, 34.9792752]}, "properties": {"name": "무안읍교회", "address": "(58531) 전남 무안군 무안로490 우체국건너", "members_num": 100.0}}, {"type": "Feature", "geometry": {"type": "Point", "coordinates": [126.7311142, 35.9724855]}, "properties": {"name": "군산대성교회", "address": "(54077) 전북 군산시 번영로 65", "members_num": 17.0}}, {"type": "Feature", "geometry": {"type": "Point", "coordinates": [126.7831986, 35.3002231]}, "properties": {"name": "희망교회", "address": "(57219) 전남 장성군 장성읍 매화6길 13", "members_num": 110.0}}, {"type": "Feature", "geometry": {"type": "Point", "coordinates": [126.9912803, 35.0580737]}, "properties": {"name": "새생명교회(화순)", "address": "(58125) 전남 화순군 화순읍 광덕로 147", "members_num": 100.0}}, {"type": "Feature", "geometry": {"type": "Point", "coordinates": [126.3894783, 34.7990407]}, "properties": {"name": "기동교회", "address": "(587145) 전남 목포시 텃진목로 21번길 27호", "members_num": 5.0}}, {"type": "Feature", "geometry": {"type": "Point", "coordinates": [126.4383752, 34.8079291]}, "properties": {"name": "우리교회", "address": "(58674) 전남 목포시 당가두로 14번길 3-4", "members_num": 40.0}}, {"type": "Feature", "geometry": {"type": "Point", "coordinates": [126.8786288, 35.4262998]}, "properties": {"name": "장성약수교회", "address": "(57205) 전남 장성군 북하면 백양로 890", "members_num": 70.0}}, {"type": "Feature", "geometry": {"type": "Point", "coordinates": [126.6945073, 35.274433]}, "properties": {"name": "옥천교회", "address": "(57236) 전남 장성군 삼동로 279-6", "members_num": 20.0}}, {"type": "Feature", "geometry": {"type": "Point", "coordinates": [126.7851405, 35.2309683]}, "properties": {"name": "행정교회", "address": "(58251) 전남 장성군 남면 행정길 134", "members_num": 30.0}}, {"type": "Feature", "geometry": {"type": "Point", "coordinates": [126.7980104, 35.1777595]}, "properties": {"name": "순복음호남교회", "address": "(62337) 광주 광산구 하남동 557", "members_num": 40.0}}, {"type": "Feature", "geometry": {"type": "Point", "coordinates": [126.7131944, 35.96684279999999]}, "properties": {"name": "평강교회", "address": "(54089) 전북 군산시 축동안길37(수송동) 제일상가 110-206", "members_num": 6.0}}, {"type": "Feature", "geometry": {"type": "Point", "coordinates": [126.8104975, 35.4286703]}, "properties": {"name": "사거리교회", "address": "(57201) 전남 장성군 북이면 꿀등재길34 사거리교회", "members_num": 100.0}}, {"type": "Feature", "geometry": {"type": "Point", "coordinates": [127.1169023, 35.80968]}, "properties": {"name": "효문교회", "address": "(55055) 전북 전주시 완산구 거마평로 188-8", "members_num": 30.0}}, {"type": "Feature", "geometry": {"type": "Point", "coordinates": [127.6467809, 34.7590497]}, "properties": {"name": "하늘소망교회", "address": "(59661) 전남 여수시 도원로140", "members_num": 25.0}}, {"type": "Feature", "geometry": {"type": "Point", "coordinates": [127.7125502, 34.7259679]}, "properties": {"name": "은혜의강교회", "address": "(59760) 전남 여수시 어항단지로 7-25 (59760) 전남 여수시 어항단지로 7-25", "members_num": 100.0}}, {"type": "Feature", "geometry": {"type": "Point", "coordinates": [126.9931132, 35.9609682]}, "properties": {"name": "예수사랑교회", "address": "(54598) 전북 익산시 주현8길41", "members_num": 20.0}}, {"type": "Feature", "geometry": {"type": "Point", "coordinates": [126.9927068, 35.8800463]}, "properties": {"name": "번영로제일교회", "address": "(54329) 전북 김제시 백구면 번영로 2820", "members_num": 170.0}}, {"type": "Feature", "geometry": {"type": "Point", "coordinates": [127.2476244, 36.0224339]}, "properties": {"name": "경천교회", "address": "(55302) 전북 완주군 경천면 갱금길 21-4", "members_num": 100.0}}, {"type": "Feature", "geometry": {"type": "Point", "coordinates": [127.1372006, 35.7906088]}, "properties": {"name": "새롬교회", "address": "(55124) 전북 전주시 완산구 평화13길13", "members_num": 50.0}}, {"type": "Feature", "geometry": {"type": "Point", "coordinates": [126.9310753, 35.8570941]}, "properties": {"name": "상리교회", "address": "(54322) 전북 김제시 백산면 황상로147", "members_num": 40.0}}, {"type": "Feature", "geometry": {"type": "Point", "coordinates": [126.8773279, 35.8922285]}, "properties": {"name": "송지동교회", "address": "(54319) 전북 김제시 공덕면 송지동 2길 5-38", "members_num": 180.0}}, {"type": "Feature", "geometry": {"type": "Point", "coordinates": [126.9104954, 35.8932254]}, "properties": {"name": "공덕중앙교회", "address": "(54320) 전북 김제시 공덕면 공덕 10길 22", "members_num": 80.0}}, {"type": "Feature", "geometry": {"type": "Point", "coordinates": [127.082711, 35.8622766]}, "properties": {"name": "전주유상교회", "address": "(54852) 전북 전주시 덕진구 유상로 54.", "members_num": 70.0}}, {"type": "Feature", "geometry": {"type": "Point", "coordinates": [127.0797938, 34.7658305]}, "properties": {"name": "보성우리교회", "address": "(59458) 전남 보성군 보성읍 현충로14 (2층)", "members_num": 30.0}}, {"type": "Feature", "geometry": {"type": "Point", "coordinates": [126.8810583, 35.144217]}, "properties": {"name": "한결교회", "address": "(62039) 광주 서구 염화로 157-16", "members_num": 170.0}}, {"type": "Feature", "geometry": {"type": "Point", "coordinates": [126.8841052, 35.1247218]}, "properties": {"name": "아가페교회", "address": "(62061) 광주 서구 풍암중앙로92", "members_num": 56.0}}, {"type": "Feature", "geometry": {"type": "Point", "coordinates": [126.9765723, 35.8765617]}, "properties": {"name": "학동교회", "address": "(54330) 전북 김제시 공술1길 33-10", "members_num": 80.0}}, {"type": "Feature", "geometry": {"type": "Point", "coordinates": [126.9729627, 36.0536293]}, "properties": {"name": "학선교회", "address": "(54526) 전북 익산시 함열읍 흘산로 369", "members_num": 30.0}}, {"type": "Feature", "geometry": {"type": "Point", "coordinates": [126.7105142, 35.9722554]}, "properties": {"name": "신실한교회", "address": "(54123) 전북 군산시 축동로143 1층 신실한교회", "members_num": 8.0}}, {"type": "Feature", "geometry": {"type": "Point", "coordinates": [126.8877024, 35.7965179]}, "properties": {"name": "지평선교회", "address": "(54409) 전북 김제시 전북 김제시 남북11길 11", "members_num": 20.0}}, {"type": "Feature", "geometry": {"type": "Point", "coordinates": [126.6185774, 35.6029758]}, "properties": {"name": "진서교회", "address": "(56345) 전북 부안군 진서면 베틀재로 27-9", "members_num": 30.0}}, {"type": "Feature", "geometry": {"type": "Point", "coordinates": [126.7014293, 35.9716007]}, "properties": {"name": "새로운교회", "address": "(54133) 전북 군산시 문화1길 17", "members_num": 11.0}}, {"type": "Feature", "geometry": {"type": "Point", "coordinates": [126.8840451, 35.7980928]}, "properties": {"name": "실로암교회", "address": "(54421) 전북 김제시 동서로137 3층", "members_num": 10.0}}, {"type": "Feature", "geometry": {"type": "Point", "coordinates": [126.20523, 34.9459149]}, "properties": {"name": "기점교회", "address": "(58809) 전남 신안군 증도면 기점길 8-22", "members_num": 15.0}}, {"type": "Feature", "geometry": {"type": "Point", "coordinates": [126.3245826, 34.9338836]}, "properties": {"name": "성내교회", "address": "(58539) 전남 무안군 운남면 땅앞로 43", "members_num": 26.0}}, {"type": "Feature", "geometry": {"type": "Point", "coordinates": [127.6435724, 35.8300312]}, "properties": {"name": "공진교회", "address": "(55543) 전북 무주군 안엉면 공진길 11-16", "members_num": 30.0}}, {"type": "Feature", "geometry": {"type": "Point", "coordinates": [126.3985597, 34.8164696]}, "properties": {"name": "늘기쁨교회", "address": "(58613) 전남 목포시 용당로331번길 12-2", "members_num": 56.0}}, {"type": "Feature", "geometry": {"type": "Point", "coordinates": [126.3955265, 35.0322776]}, "properties": {"name": "송정교회", "address": "(58511) 전남 무안군 현경면 현해로 349", "members_num": 46.0}}, {"type": "Feature", "geometry": {"type": "Point", "coordinates": [127.5351193, 34.9468873]}, "properties": {"name": "순천밀알교회", "address": "(57973) 전남 순천시 해룡면 지봉로372-5 신원아르시스 상가2층", "members_num": 30.0}}, {"type": "Feature", "geometry": {"type": "Point", "coordinates": [126.8422547, 35.7158676]}, "properties": {"name": "화호중앙교회", "address": "(56101) 전북 정읍시 신태인읍 화호7길 43-5 화호중앙교회", "members_num": 10.0}}, {"type": "Feature", "geometry": {"type": "Point", "coordinates": [126.9575671, 36.0857366]}, "properties": {"name": "초대교회", "address": "(54511) 전북 익산시 동지상길 12-13", "members_num": 20.0}}, {"type": "Feature", "geometry": {"type": "Point", "coordinates": [126.5365434, 35.4480444]}, "properties": {"name": "아름다운교회", "address": "(56404) 전북 고창군 해리송산길 106", "members_num": 15.0}}, {"type": "Feature", "geometry": {"type": "Point", "coordinates": [126.8343488, 35.2113978]}, "properties": {"name": "예수소망교회", "address": "(62264) 광주 광산구 월계로 16번길 77", "members_num": 80.0}}, {"type": "Feature", "geometry": {"type": "Point", "coordinates": [126.9176942, 35.1496893]}, "properties": {"name": "광주무돌교회", "address": "(61475) 광주 동구 구성로 188", "members_num": 350.0}}, {"type": "Feature", "geometry": {"type": "Point", "coordinates": [127.641685, 34.7731612]}, "properties": {"name": "임요섭", "address": "(59642) 전남 여수시 성산6길 33-5", "members_num": 15.0}}, {"type": "Feature", "geometry": {"type": "Point", "coordinates": [126.9502471, 35.9350475]}, "properties": {"name": "이리감리교회", "address": "(54603) 전북 익산시 평동로 9길 40", "members_num": 180.0}}, {"type": "Feature", "geometry": {"type": "Point", "coordinates": [126.6013879, 35.2184694]}, "properties": {"name": "월계교회", "address": "(57120) 전남 함평군 월계길 220", "members_num": 30.0}}, {"type": "Feature", "geometry": {"type": "Point", "coordinates": [127.6982157, 34.7274937]}, "properties": {"name": "여수신성교회", "address": "(59747) 전남 여수시 신월로 533", "members_num": 150.0}}, {"type": "Feature", "geometry": {"type": "Point", "coordinates": [126.7003677, 35.9906585]}, "properties": {"name": "해망동교회", "address": "(59018) 전북 군산시 해망로 364", "members_num": 70.0}}, {"type": "Feature", "geometry": {"type": "Point", "coordinates": [127.7642894, 34.6366148]}, "properties": {"name": "서덕리교회", "address": "(55080) 전남 여수시 돌산읍 승월길 31 서덕리교회", "members_num": 70.0}}, {"type": "Feature", "geometry": {"type": "Point", "coordinates": [126.3839078, 34.7441994]}, "properties": {"name": "삼호좋은교회", "address": "(58449) 전남 영암군 삼호읍 신항로 28", "members_num": 40.0}}, {"type": "Feature", "geometry": {"type": "Point", "coordinates": [126.4174546, 34.800886]}, "properties": {"name": "새빛교회", "address": "(58697) 전남 목포시 백년대로 256번길 13-1", "members_num": 30.0}}, {"type": "Feature", "geometry": {"type": "Point", "coordinates": [127.1409353, 35.7931056]}, "properties": {"name": "수정교회", "address": "(55120) 전북 전주시 완산구 덕적골 1길 55", "members_num": 35.0}}, {"type": "Feature", "geometry": {"type": "Point", "coordinates": [126.9716826, 35.9543686]}, "properties": {"name": "청안교회", "address": "(54643) 전북 익산시 고봉로18길 27", "members_num": 80.0}}, {"type": "Feature", "geometry": {"type": "Point", "coordinates": [126.9281156, 35.4788764]}, "properties": {"name": "산마루교회", "address": "(5006) 전북 순창군 복흥면추령로1792-15", "members_num": 7.0}}, {"type": "Feature", "geometry": {"type": "Point", "coordinates": [126.8880676, 35.8065584]}, "properties": {"name": "우리예장합동측", "address": "(54381) 전북 김제시 요촌중4길78", "members_num": 50.0}}, {"type": "Feature", "geometry": {"type": "Point", "coordinates": [127.1425484, 35.8803858]}, "properties": {"name": "전주향기나는교회", "address": "(548514) 전북 전주시 덕진구 봉암길60~28", "members_num": 10.0}}, {"type": "Feature", "geometry": {"type": "Point", "coordinates": [127.0618024, 35.9958031]}, "properties": {"name": "금마선한목자교회", "address": "(54572) 전북 익산시 금마면 고도길148", "members_num": 40.0}}, {"type": "Feature", "geometry": {"type": "Point", "coordinates": [127.125522, 35.8108167]}, "properties": {"name": "예천사랑교회", "address": "(560~836) 전북 전주시 완산구 따박골2길 13~7", "members_num": 10.0}}, {"type": "Feature", "geometry": {"type": "Point", "coordinates": [126.9654868, 35.95095269999999]}, "properties": {"name": "천성교회", "address": "(54624) 전북 익산시 인북로46길 45 천성교회", "members_num": 60.0}}, {"type": "Feature", "geometry": {"type": "Point", "coordinates": [126.9707326, 35.9549694]}, "properties": {"name": "성지교회", "address": "(54643) 전북 익산시 고봉로 22길23", "members_num": 30.0}}, {"type": "Feature", "geometry": {"type": "Point", "coordinates": [126.9565514, 35.9524525]}, "properties": {"name": "땅끝선교교회", "address": "(54619) 전북 익산시 동서로 14길 43-15, 2층", "members_num": 15.0}}, {"type": "Feature", "geometry": {"type": "Point", "coordinates": [126.6959456, 35.9737163]}, "properties": {"name": "군산주원교회", "address": "(54124) 전북 군산시 상신7길 20", "members_num": 60.0}}, {"type": "Feature", "geometry": {"type": "Point", "coordinates": [126.9133905, 35.1624262]}, "properties": {"name": "중흥순복음교회", "address": "(61235) 광주 북구 중흥로 173번길 24", "members_num": 50.0}}, {"type": "Feature", "geometry": {"type": "Point", "coordinates": [127.135033, 35.7971728]}, "properties": {"name": "전주섬광교회", "address": "(55106) 전북 전주시 완산구 꽃밭정로 21", "members_num": 22.0}}, {"type": "Feature", "geometry": {"type": "Point", "coordinates": [126.7095863, 35.975784]}, "properties": {"name": "승리교회", "address": "(54122) 전북 군산시 축동로187-1 2층 승리교회", "members_num": 11.0}}, {"type": "Feature", "geometry": {"type": "Point", "coordinates": [126.5793742, 35.1130333]}, "properties": {"name": "할렐루야교회", "address": "(57128) 전남 함평군 함장로 1984-12", "members_num": 60.0}}, {"type": "Feature", "geometry": {"type": "Point", "coordinates": [127.1259425, 35.8047966]}, "properties": {"name": "소망교회", "address": "(55093) 전북 전주시 완산구 용머리로158 (3층)", "members_num": 7.0}}, {"type": "Feature", "geometry": {"type": "Point", "coordinates": [127.3315961, 34.8396677]}, "properties": {"name": "새생명기도원", "address": "(59429) 전남 보성군 녹색로 5369-25", "members_num": 2.0}}, {"type": "Feature", "geometry": {"type": "Point", "coordinates": [127.7438994, 34.6411078]}, "properties": {"name": "봉양교회", "address": "(59776) 전남 여수시 돌산읍봉양길66-6", "members_num": 50.0}}, {"type": "Feature", "geometry": {"type": "Point", "coordinates": [126.9313269, 35.176763]}, "properties": {"name": "행복플러스교회", "address": "(61168) 광주 북구 동문대로168번길47", "members_num": 25.0}}, {"type": "Feature", "geometry": {"type": "Point", "coordinates": [126.4267633, 35.1237894]}, "properties": {"name": "감람교회", "address": "(57111) 전남 함평군 손불면 감남길 45", "members_num": 100.0}}, {"type": "Feature", "geometry": {"type": "Point", "coordinates": [126.8167724, 35.1679335]}, "properties": {"name": "광산제일교회", "address": "(62351) 광주 광산구 월곡로71번길6", "members_num": 44.0}}, {"type": "Feature", "geometry": {"type": "Point", "coordinates": [126.8719998, 35.2031209]}, "properties": {"name": "세대로교회", "address": "(61078) 광주 북구 양산제로 113번지", "members_num": 20.0}}, {"type": "Feature", "geometry": {"type": "Point", "coordinates": [126.899856, 35.1514237]}, "properties": {"name": "빛고을교회", "address": "(61627) 광주 남구 구성로 18", "members_num": 30.0}}, {"type": "Feature", "geometry": {"type": "Point", "coordinates": [126.7462817, 34.3241684]}, "properties": {"name": "참된교회", "address": "(59116) 전남 완도군 완도읍 해변공원로 107", "members_num": 30.0}}, {"type": "Feature", "geometry": {"type": "Point", "coordinates": [126.4004448, 34.79169]}, "properties": {"name": "예현교회", "address": "(58738) 전남 목포시 용당로47ㅡ1", "members_num": 10.0}}, {"type": "Feature", "geometry": {"type": "Point", "coordinates": [126.3685566, 34.8070043]}, "properties": {"name": "향기나는교회", "address": "(58624) 전남 목포시 고하대로 641-10 201동 1006호", "members_num": 20.0}}, {"type": "Feature", "geometry": {"type": "Point", "coordinates": [127.1534817, 35.8348178]}, "properties": {"name": "반석침례교회", "address": "(55008) 전북 전주시 덕진구 견훤로275", "members_num": 80.0}}, {"type": "Feature", "geometry": {"type": "Point", "coordinates": [126.392697, 34.8138378]}, "properties": {"name": "제자의교회", "address": "(58613) 전남 목포시 산정로282 2층", "members_num": 10.0}}, {"type": "Feature", "geometry": {"type": "Point", "coordinates": [126.9043275, 35.1918541]}, "properties": {"name": "주헌교회", "address": "(61053) 광주 북구 우치로 305-5, 1층", "members_num": 40.0}}, {"type": "Feature", "geometry": {"type": "Point", "coordinates": [126.9011232, 35.1817879]}, "properties": {"name": "사랑빛교회", "address": "(61178) 광주 북구 용주로 29 2층", "members_num": 15.0}}, {"type": "Feature", "geometry": {"type": "Point", "coordinates": [127.1673489, 34.5311361]}, "properties": {"name": "봉암중앙교회", "address": "(59553) 전남 고흥군 매동호안길24", "members_num": 14.0}}, {"type": "Feature", "geometry": {"type": "Point", "coordinates": [126.4272086, 34.8045007]}, "properties": {"name": "꽃동산교회", "address": "(58689) 전남 목포시 옥암로 51(2층)", "members_num": 40.0}}, {"type": "Feature", "geometry": {"type": "Point", "coordinates": [126.8949717, 35.1222966]}, "properties": {"name": "노엘교회", "address": "(61735) 광주 남구 금당로3길8-2", "members_num": 35.0}}, {"type": "Feature", "geometry": {"type": "Point", "coordinates": [127.3599346, 35.3676706]}, "properties": {"name": "사랑제일교회", "address": "(55790) 전북 남원시 노송로 869", "members_num": 30.0}}, {"type": "Feature", "geometry": {"type": "Point", "coordinates": [127.0939194, 35.0008631]}, "properties": {"name": "사평교회", "address": "(519-891) 전남 화순군 외남로 53-50", "members_num": 110.0}}, {"type": "Feature", "geometry": {"type": "Point", "coordinates": [126.9645364, 35.9301841]}, "properties": {"name": "사랑하는교회", "address": "(54608) 전북 익산시 서동로8길46", "members_num": 6.0}}, {"type": "Feature", "geometry": {"type": "Point", "coordinates": [126.9076852, 35.1382283]}, "properties": {"name": "광주창대교회", "address": "(61644) 광주 남구 백운로 34", "members_num": 77.0}}, {"type": "Feature", "geometry": {"type": "Point", "coordinates": [127.7436107, 34.5080884]}, "properties": {"name": "직포교회", "address": "(59786) 전남 여수시 남면 우두로203", "members_num": 25.0}}, {"type": "Feature", "geometry": {"type": "Point", "coordinates": [126.9063422, 35.1886746]}, "properties": {"name": "열방교회", "address": "(61122) 광주 북구 서하로233번길 32. 3층", "members_num": 20.0}}, {"type": "Feature", "geometry": {"type": "Point", "coordinates": [126.3899859, 35.0538654]}, "properties": {"name": "수양교회", "address": "(58510) 전남 무안군 수양촌길 96-7", "members_num": 10.0}}, {"type": "Feature", "geometry": {"type": "Point", "coordinates": [126.8705254, 35.1529978]}, "properties": {"name": "광주알곡교회", "address": "(61976) 광주 서구 상무대로1005번길 11~50", "members_num": 120.0}}, {"type": "Feature", "geometry": {"type": "Point", "coordinates": [126.9027265, 35.1137887]}, "properties": {"name": "늘사랑교회", "address": "(61712) 광주 남구 화산로53", "members_num": 150.0}}, {"type": "Feature", "geometry": {"type": "Point", "coordinates": [126.434205, 35.1293226]}, "properties": {"name": "함평대성교회", "address": "(57111) 전남 함평군 손불면석산로580", "members_num": 80.0}}, {"type": "Feature", "geometry": {"type": "Point", "coordinates": [127.1183435, 35.7962339]}, "properties": {"name": "성광교회", "address": "(55088) 전북 전주시 완산구 하거마 5길 20", "members_num": 150.0}}, {"type": "Feature", "geometry": {"type": "Point", "coordinates": [126.5101751, 34.8726019]}, "properties": {"name": "일로동부교회", "address": "(58570) 전남 무안군 일로읍 광암길 81-45", "members_num": 30.0}}, {"type": "Feature", "geometry": {"type": "Point", "coordinates": [127.0723826, 35.91369299999999]}, "properties": {"name": "경찬교회", "address": "(55091) 전북 전주시 완산구 거남남로74번지", "members_num": 12.0}}, {"type": "Feature", "geometry": {"type": "Point", "coordinates": [127.152642, 35.8360062]}, "properties": {"name": "전주새순교회", "address": "(55008) 전북 전주시 덕진구 팽나무3길6-4", "members_num": 60.0}}, {"type": "Feature", "geometry": {"type": "Point", "coordinates": [127.1268311, 35.8044229]}, "properties": {"name": "전주참된교회", "address": "(55094) 전북 전주시 완산구 효동2길 23 서부빌딩2층", "members_num": 30.0}}, {"type": "Feature", "geometry": {"type": "Point", "coordinates": [125.9373902, 34.7699393]}, "properties": {"name": "신안제일교회", "address": "(58845) 전남 신안군 비금면 수림길 83", "members_num": 50.0}}, {"type": "Feature", "geometry": {"type": "Point", "coordinates": [126.9527045, 36.0281614]}, "properties": {"name": "황등서부교회", "address": "(54531) 전북 익산시 황등면 후정1길 103 황등서부교회", "members_num": 70.0}}, {"type": "Feature", "geometry": {"type": "Point", "coordinates": [126.8869259, 35.7507328]}, "properties": {"name": "삼평교회", "address": "(56107) 전북 정읍시 감곡면 중평길 62-21", "members_num": 7.0}}, {"type": "Feature", "geometry": {"type": "Point", "coordinates": [126.9869028, 35.0581395]}, "properties": {"name": "주사랑교회", "address": "(58123) 전남 화순군 화순읍 천변좌길 11-3", "members_num": 70.0}}, {"type": "Feature", "geometry": {"type": "Point", "coordinates": [126.4322398, 34.8603265]}, "properties": {"name": "목포은광교회", "address": "(58560) 전남 무안군 수련길 40", "members_num": 40.0}}, {"type": "Feature", "geometry": {"type": "Point", "coordinates": [126.4909292, 34.8996314]}, "properties": {"name": "무안경성교회", "address": "(청용리) 전남 무안군 몽탄면 사옥길105-64", "members_num": 32.0}}, {"type": "Feature", "geometry": {"type": "Point", "coordinates": [126.3166357, 34.4999482]}, "properties": {"name": "장등성결교회", "address": "(58909) 전남 진도군 고군면 오일시2길 147-1", "members_num": 70.0}}, {"type": "Feature", "geometry": {"type": "Point", "coordinates": [126.7372248, 34.9745627]}, "properties": {"name": "남금성교회", "address": "(58271) 전남 나주시 덕치길 56", "members_num": 50.0}}, {"type": "Feature", "geometry": {"type": "Point", "coordinates": [126.4005201, 34.7953883]}, "properties": {"name": "자유로교회", "address": "(58733) 전남 목포시 자유로97번길22", "members_num": 20.0}}, {"type": "Feature", "geometry": {"type": "Point", "coordinates": [127.4439144, 35.4772808]}, "properties": {"name": "목동성결교회", "address": "(55710) 전북 남원시 산동면 요천로 2351-1", "members_num": 0.0}}, {"type": "Feature", "geometry": {"type": "Point", "coordinates": [126.4392526, 34.9901196]}, "properties": {"name": "무안서부교회", "address": "(58517) 전남 무안군 무안읍 현남길 413", "members_num": 50.0}}, {"type": "Feature", "geometry": {"type": "Point", "coordinates": [127.1411116, 35.3726083]}, "properties": {"name": "순창중앙교회", "address": "(56046) 전북 순창군 순창읍 옥천로4", "members_num": 100.0}}, {"type": "Feature", "geometry": {"type": "Point", "coordinates": [126.964959, 35.1540396]}, "properties": {"name": "무등중앙교회", "address": "(61148) 광주 북구 무등로 976번길21", "members_num": 50.0}}, {"type": "Feature", "geometry": {"type": "Point", "coordinates": [126.4314401, 34.84111499999999]}, "properties": {"name": "새중앙교회", "address": "(58-561) 전남 무안군 삼향읍 중등포길 58-70", "members_num": 60.0}}, {"type": "Feature", "geometry": {"type": "Point", "coordinates": [126.3763216, 35.2129637]}, "properties": {"name": "염산교회", "address": "(57066) 전남 영광군 염산면 향화로5길 34-30", "members_num": 150.0}}, {"type": "Feature", "geometry": {"type": "Point", "coordinates": [127.1191846, 35.4262936]}, "properties": {"name": "순창찬미교회", "address": "(56014) 전북 순창군 구림면 이암길 9-28", "members_num": 88.0}}, {"type": "Feature", "geometry": {"type": "Point", "coordinates": [126.3941551, 34.9295602]}, "properties": {"name": "구로중앙교회", "address": "(58541) 전남 무안군 청계면 구로길61", "members_num": 30.0}}, {"type": "Feature", "geometry": {"type": "Point", "coordinates": [127.1204048, 35.8265386]}, "properties": {"name": "전주반석교회", "address": "(54954) 전북 전주시 완산구 전룡5길21", "members_num": 20.0}}, {"type": "Feature", "geometry": {"type": "Point", "coordinates": [126.8117617, 35.1571189]}, "properties": {"name": "한사랑교회", "address": "(62365) 광주 광산구 우산로107번길 1-34", "members_num": 30.0}}, {"type": "Feature", "geometry": {"type": "Point", "coordinates": [126.5969918, 34.5707595]}, "properties": {"name": "에덴교회", "address": "(59035) 전남 해남군 남동천길 20", "members_num": 35.0}}, {"type": "Feature", "geometry": {"type": "Point", "coordinates": [127.2199641, 35.9908361]}, "properties": {"name": "삼기교회", "address": "(55310) 전북 완주군 고산면 고산천로831-14", "members_num": 75.0}}, {"type": "Feature", "geometry": {"type": "Point", "coordinates": [126.2481887, 35.0574086]}, "properties": {"name": "신안수정교회", "address": "(58815) 전남 신안군 지도읍 자서길 4 신안수정교회", "members_num": 25.0}}, {"type": "Feature", "geometry": {"type": "Point", "coordinates": [126.6822873, 35.9781038]}, "properties": {"name": "하울교회", "address": "(54011) 전북 군산시 설림안2길 95번지", "members_num": 30.0}}, {"type": "Feature", "geometry": {"type": "Point", "coordinates": [126.433127, 34.8224085]}, "properties": {"name": "지구촌교회", "address": "(58605) 전남 목포시 임성로55", "members_num": 100.0}}, {"type": "Feature", "geometry": {"type": "Point", "coordinates": [127.7006021, 34.7472565]}, "properties": {"name": "왕성교회", "address": "(59721) 전남 여수시 대치1길 18", "members_num": 50.0}}, {"type": "Feature", "geometry": {"type": "Point", "coordinates": [126.9358511, 35.1768441]}, "properties": {"name": "이룸교회", "address": "(61151) 광주 북구 군왕론182번길31", "members_num": 10.0}}, {"type": "Feature", "geometry": {"type": "Point", "coordinates": [127.7364661, 34.75304819999999]}, "properties": {"name": "합동", "address": "(59726) 전남 여수시 덕충6길64", "members_num": 30.0}}, {"type": "Feature", "geometry": {"type": "Point", "coordinates": [126.5829602, 35.0995701]}, "properties": {"name": "구산중앙교회", "address": "(57128) 전남 함평군 구산원선길 20-5", "members_num": 25.0}}, {"type": "Feature", "geometry": {"type": "Point", "coordinates": [126.9273473, 35.18685809999999]}, "properties": {"name": "수정교회", "address": "(61127) 광주 북구 문산로74번길 45", "members_num": 40.0}}, {"type": "Feature", "geometry": {"type": "Point", "coordinates": [127.7319872, 34.7438206]}, "properties": {"name": "꿈이있는교회", "address": "(59728) 전남 여수시 군자길 25", "members_num": 120.0}}, {"type": "Feature", "geometry": {"type": "Point", "coordinates": [126.4561211, 34.7547931]}, "properties": {"name": "기성", "address": "(58456) 전남 영암군 대불주건단지9로84", "members_num": 30.0}}, {"type": "Feature", "geometry": {"type": "Point", "coordinates": [127.2311033, 35.7225208]}, "properties": {"name": "남관교회", "address": "(55302) 전북 완주군 상관면 내아길 12", "members_num": 27.0}}, {"type": "Feature", "geometry": {"type": "Point", "coordinates": [126.2646031, 34.9848605]}, "properties": {"name": "선도교회", "address": "(58816) 전남 신안군 지도읍 선도길 124", "members_num": 50.0}}, {"type": "Feature", "geometry": {"type": "Point", "coordinates": [126.7729957, 35.01538439999999]}, "properties": {"name": "빛가람회복교회", "address": "(58217) 전남 나주시 황동 1길 52-7", "members_num": 80.0}}, {"type": "Feature", "geometry": {"type": "Point", "coordinates": [126.486073, 34.9384021]}, "properties": {"name": "몽탄중앙교회", "address": "(58546) 전남 무안군 몽탄면 몽탄로 850-36", "members_num": 40.0}}, {"type": "Feature", "geometry": {"type": "Point", "coordinates": [126.9840411, 35.3108315]}, "properties": {"name": "주찬양교회", "address": "(57347) 전남 담양군 담양읍 삼거리길 19-10", "members_num": 15.0}}, {"type": "Feature", "geometry": {"type": "Point", "coordinates": [126.9914901, 35.7278344]}, "properties": {"name": "들꽃교회", "address": "(54346) 전북 김제시 금산면 금평4길14", "members_num": 40.0}}, {"type": "Feature", "geometry": {"type": "Point", "coordinates": [126.410305, 34.8021396]}, "properties": {"name": "목포한사랑교회", "address": "(58668) 전남 목포시 삼학로 336~2", "members_num": 100.0}}, {"type": "Feature", "geometry": {"type": "Point", "coordinates": [126.7593333, 34.9242077]}, "properties": {"name": "덕림교회", "address": "(58314) 전남 나주시 봉황면 신창길 26", "members_num": 12.0}}, {"type": "Feature", "geometry": {"type": "Point", "coordinates": [126.3488734, 35.0652982]}, "properties": {"name": "신정교회", "address": "(58509) 전남 무안군 현경면 신정길 22 신정교회", "members_num": 50.0}}, {"type": "Feature", "geometry": {"type": "Point", "coordinates": [126.8759772, 35.5572987]}, "properties": {"name": "정읍명성교회", "address": "(56194) 전북 정읍시 학산로 121", "members_num": 250.0}}, {"type": "Feature", "geometry": {"type": "Point", "coordinates": [126.8130813, 35.755569]}, "properties": {"name": "김제희망교회", "address": "(54423) 전북 김제시 죽산면 죽백로 456-27", "members_num": 40.0}}, {"type": "Feature", "geometry": {"type": "Point", "coordinates": [126.2663966, 35.1339522]}, "properties": {"name": "해제제일교회", "address": "(58500) 전남 무안군 해제면 봉대로 433", "members_num": 23.0}}, {"type": "Feature", "geometry": {"type": "Point", "coordinates": [126.7796633, 34.9568202]}, "properties": {"name": "봉황교회", "address": "(58307) 전남 나주시 봉황면 봉황로 705", "members_num": 30.0}}, {"type": "Feature", "geometry": {"type": "Point", "coordinates": [126.3495522, 35.0666436]}, "properties": {"name": "무안에덴교회", "address": "(58509) 전남 무안군 현경면 현해로 1202-20", "members_num": 34.0}}, {"type": "Feature", "geometry": {"type": "Point", "coordinates": [127.1257146, 35.861025]}, "properties": {"name": "선린교회", "address": "(54835) 전북 전주시 덕진구 솔내8길 39번지 2층", "members_num": 20.0}}, {"type": "Feature", "geometry": {"type": "Point", "coordinates": [126.8904535, 35.1886868]}, "properties": {"name": "함께하는교회", "address": "(61066) 광주 북구 하백로13 용남빌딩", "members_num": 25.0}}, {"type": "Feature", "geometry": {"type": "Point", "coordinates": [126.8931331, 35.1791148]}, "properties": {"name": "행복한성도교회", "address": "(61109) 광주 북구 청계로 68번지 3층", "members_num": 25.0}}, {"type": "Feature", "geometry": {"type": "Point", "coordinates": [126.4935247, 35.1328759]}, "properties": {"name": "가덕교회", "address": "(57113) 전남 함평군 신광면 동백길23-5 가덕교회", "members_num": 50.0}}, {"type": "Feature", "geometry": {"type": "Point", "coordinates": [126.8958939, 35.1326891]}, "properties": {"name": "광주은진교회", "address": "(61718) 광주 남구 대남대로223번길 48", "members_num": 80.0}}, {"type": "Feature", "geometry": {"type": "Point", "coordinates": [126.8176053, 35.19015660000001]}, "properties": {"name": "씨앗교회", "address": "(62225) 광주 광산구 장덕동 1667 / 2층", "members_num": 50.0}}, {"type": "Feature", "geometry": {"type": "Point", "coordinates": [126.8368218, 35.2133589]}, "properties": {"name": "합동", "address": "(62266) 광주 광산구 월계로 102-1", "members_num": 15.0}}, {"type": "Feature", "geometry": {"type": "Point", "coordinates": [126.4445366, 35.3952494]}, "properties": {"name": "홍농은혜", "address": "(57004) 전남 영광군 홍농읍 상하길2길 6-5", "members_num": 35.0}}, {"type": "Feature", "geometry": {"type": "Point", "coordinates": [126.868273, 35.1565489]}, "properties": {"name": "우리교회", "address": "(61967) 광주 서구 월드컵4강로 229번길. 8-1. 2층", "members_num": 7.0}}, {"type": "Feature", "geometry": {"type": "Point", "coordinates": [126.790843, 35.1448978]}, "properties": {"name": "광주새물결교회", "address": "(65389) 광주 광산구 어등대로 665번길 3", "members_num": 40.0}}, {"type": "Feature", "geometry": {"type": "Point", "coordinates": [127.316499, 34.8395136]}, "properties": {"name": "척령교회", "address": "(59417) 전남 보성군 벌교읍 척령길 10-19", "members_num": 70.0}}, {"type": "Feature", "geometry": {"type": "Point", "coordinates": [126.8759438, 35.1224023]}, "properties": {"name": "풍암온누리교회", "address": "(62066) 광주 서구 풍암순환로 42 한신아파트상가 201호", "members_num": 20.0}}, {"type": "Feature", "geometry": {"type": "Point", "coordinates": [126.9745487, 35.2244663]}, "properties": {"name": "고서교회", "address": "(57385) 전남 담양군 고서면 원등1길 21", "members_num": 100.0}}, {"type": "Feature", "geometry": {"type": "Point", "coordinates": [126.8918545, 35.1594886]}, "properties": {"name": "중심교회", "address": "(61918) 광주 서구 천변좌로 86", "members_num": 150.0}}, {"type": "Feature", "geometry": {"type": "Point", "coordinates": [126.8970363, 35.1276298]}, "properties": {"name": "새풀교회", "address": "(61722) 광주 남구 서문대로749번길 6 3층", "members_num": 15.0}}, {"type": "Feature", "geometry": {"type": "Point", "coordinates": [127.7444777, 34.9735951]}, "properties": {"name": "광양진월교회", "address": "(57712) 전남 광양시 진월면 장재길 20", "members_num": 19.0}}, {"type": "Feature", "geometry": {"type": "Point", "coordinates": [126.562607, 34.9366383]}, "properties": {"name": "동강중앙교회", "address": "(58292) 전남 나주시 동강면 백련산로14", "members_num": 100.0}}, {"type": "Feature", "geometry": {"type": "Point", "coordinates": [126.8843616, 35.1280205]}, "properties": {"name": "풍암제일교회", "address": "(62060) 광주 서구 풍암중앙로 91", "members_num": 200.0}}, {"type": "Feature", "geometry": {"type": "Point", "coordinates": [126.785376, 35.0094708]}, "properties": {"name": "사랑의교회", "address": "(58329) 전남 나주시 그린로 230 3층", "members_num": 20.0}}, {"type": "Feature", "geometry": {"type": "Point", "coordinates": [126.8949717, 35.1222966]}, "properties": {"name": "광주평강교회", "address": "(61735) 광주 남구 금당로 71-1", "members_num": 200.0}}, {"type": "Feature", "geometry": {"type": "Point", "coordinates": [127.0345374, 34.352234]}, "properties": {"name": "금일중앙교회", "address": "(59140) 전남 완도군 금일읍 구동2길 11.", "members_num": 60.0}}, {"type": "Feature", "geometry": {"type": "Point", "coordinates": [126.7144649, 35.0300768]}, "properties": {"name": "나주중부교회", "address": "(58258) 전남 나주시 나주천 2길 64", "members_num": 50.0}}, {"type": "Feature", "geometry": {"type": "Point", "coordinates": [127.5455282, 34.9428135]}, "properties": {"name": "순천중부교회", "address": "(58005) 전남 순천시 해룡면 신대로 234", "members_num": 80.0}}, {"type": "Feature", "geometry": {"type": "Point", "coordinates": [126.7936873, 35.1276953]}, "properties": {"name": "송정예원교회", "address": "(62446) 광주 광산구 송도로 140", "members_num": 100.0}}, {"type": "Feature", "geometry": {"type": "Point", "coordinates": [127.4903113, 35.0038008]}, "properties": {"name": "죽평교회", "address": "(57905) 전남 순천시 죽평웃돔길50", "members_num": 12.0}}, {"type": "Feature", "geometry": {"type": "Point", "coordinates": [127.5712003, 34.96398370000001]}, "properties": {"name": "덕례교회", "address": "(57761) 전남 광양시 광양읍 예구 3길 9(덕례리 1690-2)", "members_num": 50.0}}, {"type": "Feature", "geometry": {"type": "Point", "coordinates": [126.4919896, 34.8498842]}, "properties": {"name": "일로제일교회", "address": "(58574) 전남 무안군 일로읍 일로중앙로20", "members_num": 300.0}}, {"type": "Feature", "geometry": {"type": "Point", "coordinates": [127.6467809, 34.7590497]}, "properties": {"name": "선한능력교회", "address": "(59661) 전남 여수시 인산5길 19-19", "members_num": 15.0}}, {"type": "Feature", "geometry": {"type": "Point", "coordinates": [126.8612219, 35.1556636]}, "properties": {"name": "쉼있는교회", "address": "(61966) 광주 서구 상무오월로 15번길 2", "members_num": 16.0}}, {"type": "Feature", "geometry": {"type": "Point", "coordinates": [127.6954287, 34.9318184]}, "properties": {"name": "맑은샘교회", "address": "(57794) 전남 광양시 길호길 41 맑은샘교회", "members_num": 120.0}}, {"type": "Feature", "geometry": {"type": "Point", "coordinates": [126.2074802, 34.6217042]}, "properties": {"name": "마진교회", "address": "(58861) 전남 신안군 장산면 마진도길 48-10", "members_num": 12.0}}, {"type": "Feature", "geometry": {"type": "Point", "coordinates": [126.7115912, 35.56636170000001]}, "properties": {"name": "하남성결교회", "address": "(56412) 전북 고창군 흥덕면 용반길 149", "members_num": 15.0}}, {"type": "Feature", "geometry": {"type": "Point", "coordinates": [127.1265008, 35.8078197]}, "properties": {"name": "새전주성결교회", "address": "(55049) 전북 전주시 완산구 따박골 4길 22", "members_num": 110.0}}, {"type": "Feature", "geometry": {"type": "Point", "coordinates": [126.6050238, 34.8297518]}, "properties": {"name": "영암도포교회", "address": "(58428) 전남 영암군 도포면 숭의길 54-20", "members_num": 28.0}}, {"type": "Feature", "geometry": {"type": "Point", "coordinates": [126.9132973, 35.9522849]}, "properties": {"name": "오산제일교회", "address": "(54670) 전북 익산시 오산면 항쟁로 236 오산제일교회", "members_num": 200.0}}, {"type": "Feature", "geometry": {"type": "Point", "coordinates": [126.421181, 34.8222501]}, "properties": {"name": "새목포제일교회", "address": "(58615) 전남 목포시 텃골로5(석현동)", "members_num": 300.0}}, {"type": "Feature", "geometry": {"type": "Point", "coordinates": [126.8828875, 35.1237989]}, "properties": {"name": "언약교회", "address": "(62068) 광주 서구 풍암신암로 36 (B1)", "members_num": 30.0}}, {"type": "Feature", "geometry": {"type": "Point", "coordinates": [127.1605936, 35.83616320000001]}, "properties": {"name": "성화교회", "address": "(54915) 전북 전주시 덕진구 안덕원로 383(3층, 성화교회)", "members_num": 10.0}}, {"type": "Feature", "geometry": {"type": "Point", "coordinates": [126.4004502, 34.8085096]}, "properties": {"name": "사랑의빛교회", "address": "(58651) 전남 목포시 송림로15번길6", "members_num": 15.0}}, {"type": "Feature", "geometry": {"type": "Point", "coordinates": [127.711735, 34.7516767]}, "properties": {"name": "여수서광교회", "address": "(59720) 전남 여수시 여서동7길15-4", "members_num": 200.0}}, {"type": "Feature", "geometry": {"type": "Point", "coordinates": [126.7237478, 35.2401695]}, "properties": {"name": "장성동화교회", "address": "(57242) 전남 장성군 동화면 영장로 2331", "members_num": 14.0}}, {"type": "Feature", "geometry": {"type": "Point", "coordinates": [126.7805413, 34.6456098]}, "properties": {"name": "강진옥토교회", "address": "(59222) 전남 강진군 강진읍 종합운동장길 59", "members_num": 70.0}}, {"type": "Feature", "geometry": {"type": "Point", "coordinates": [127.7181666, 34.9651434]}, "properties": {"name": "광영교회", "address": "(57717) 전남 광양시 영수 2길 16", "members_num": 100.0}}, {"type": "Feature", "geometry": {"type": "Point", "coordinates": [127.5612764, 35.4549668]}, "properties": {"name": "황산교회", "address": "(55717) 전북 남원시 전촌길1 황산교회", "members_num": 25.0}}, {"type": "Feature", "geometry": {"type": "Point", "coordinates": [126.450485, 35.2605511]}, "properties": {"name": "군서제일교회", "address": "(57032) 전남 영광군 삼산로1길117.", "members_num": 40.0}}, {"type": "Feature", "geometry": {"type": "Point", "coordinates": [126.8930747, 35.798375]}, "properties": {"name": "김제성결교회", "address": "(54407) 전북 김제시 화동길 100", "members_num": 10.0}}, {"type": "Feature", "geometry": {"type": "Point", "coordinates": [126.4461405, 35.3628058]}, "properties": {"name": "한마음교회", "address": "(57011) 전남 영광군 법성길 7-14", "members_num": 15.0}}, {"type": "Feature", "geometry": {"type": "Point", "coordinates": [127.1169023, 35.80968]}, "properties": {"name": "전주효문교회", "address": "(55055) 전북 전주시 완산구 거마평로188-8", "members_num": 50.0}}, {"type": "Feature", "geometry": {"type": "Point", "coordinates": [126.6873215, 35.2100212]}, "properties": {"name": "본량제일교회", "address": "(62403) 광주 광산구 본량금곡길 33", "members_num": 40.0}}, {"type": "Feature", "geometry": {"type": "Point", "coordinates": [126.5406644, 34.382323]}, "properties": {"name": "해송교회", "address": "(59062) 전남 해남군 송지면 서안길266", "members_num": 11.0}}, {"type": "Feature", "geometry": {"type": "Point", "coordinates": [127.1387687, 35.84176739999999]}, "properties": {"name": "새신자교회", "address": "(54930) 전북 전주시 덕진구 조경단로 83. 2층 새신자교회", "members_num": 10.0}}, {"type": "Feature", "geometry": {"type": "Point", "coordinates": [126.6812845, 35.9705607]}, "properties": {"name": "벧엘교회", "address": "(54013) 전북 군산시 칠성7길 124 (소룡동)", "members_num": 50.0}}, {"type": "Feature", "geometry": {"type": "Point", "coordinates": [126.9283526, 35.1782868]}, "properties": {"name": "나엘교회", "address": "(61171) 광주 북구 면앙로 139번길 40", "members_num": 110.0}}, {"type": "Feature", "geometry": {"type": "Point", "coordinates": [126.9794434, 35.792174]}, "properties": {"name": "새샘교회", "address": "(54353) 전북 김제시 황산면 용마로444", "members_num": 50.0}}, {"type": "Feature", "geometry": {"type": "Point", "coordinates": [127.1428581, 35.8316536]}, "properties": {"name": "예수생명교회", "address": "(54928) 전북 전주시 덕진구 건산1길20, 2층", "members_num": 10.0}}, {"type": "Feature", "geometry": {"type": "Point", "coordinates": [127.6080206, 34.9761609]}, "properties": {"name": "용강중앙교회", "address": "(57746) 전남 광양시 광양읍 용강2길 9-5", "members_num": 23.0}}, {"type": "Feature", "geometry": {"type": "Point", "coordinates": [127.125399, 35.9643956]}, "properties": {"name": "완주중앙교회", "address": "(55316) 전북 완주군 전북 완주군 봉동읍 둔산3로 103 202호", "members_num": 10.0}}, {"type": "Feature", "geometry": {"type": "Point", "coordinates": [127.7001475, 34.9373045]}, "properties": {"name": "중마제일교회", "address": "(57787) 전남 광양시 중마로534", "members_num": 12.0}}, {"type": "Feature", "geometry": {"type": "Point", "coordinates": [126.8926746, 35.2065652]}, "properties": {"name": "임마누엘교회ㆍ임마누엘선교회", "address": "(61039) 광주 북구 일곡동 일곡택지로53번길 26~4.3층", "members_num": 5.0}}, {"type": "Feature", "geometry": {"type": "Point", "coordinates": [126.9012833, 35.1342798]}, "properties": {"name": "은혜교회", "address": "(61656) 광주 남구 독립로 7, 3층", "members_num": 10.0}}, {"type": "Feature", "geometry": {"type": "Point", "coordinates": [126.9838982, 35.9607226]}, "properties": {"name": "안디옥교회", "address": "(54553) 전북 익산시 무왕로19길 36-1", "members_num": 58.0}}, {"type": "Feature", "geometry": {"type": "Point", "coordinates": [126.4959785, 35.2783588]}, "properties": {"name": "한국독립교회및선교연합", "address": "(570-37) 전남 영광군 영광 읍단신길46번지대한아트빌3차404호", "members_num": 12.0}}, {"type": "Feature", "geometry": {"type": "Point", "coordinates": [126.8108036, 35.1809385]}, "properties": {"name": "광주희락교회", "address": "(62224) 광주 광산구 풍영로 101번안길 3-4", "members_num": 70.0}}, {"type": "Feature", "geometry": {"type": "Point", "coordinates": [127.7224819, 34.574785]}, "properties": {"name": "월호교회", "address": "(59782) 전남 여수시 화정면 월호웃골길7-2", "members_num": 40.0}}, {"type": "Feature", "geometry": {"type": "Point", "coordinates": [126.7426395, 35.98570309999999]}, "properties": {"name": "군산구암교회", "address": "(54043) 전북 군산시 영명길22(구암동),군산구암교회", "members_num": 200.0}}, {"type": "Feature", "geometry": {"type": "Point", "coordinates": [127.444981, 35.2755969]}, "properties": {"name": "온당충신교회", "address": "(57609) 전남 구례군 광의면 난동길 3", "members_num": 45.0}}, {"type": "Feature", "geometry": {"type": "Point", "coordinates": [127.1534644, 35.8559907]}, "properties": {"name": "전주한소망교회", "address": "(54905) 전북 전주시 덕진구 호성1길 25, 301호", "members_num": 36.0}}, {"type": "Feature", "geometry": {"type": "Point", "coordinates": [126.8771611, 35.9816974]}, "properties": {"name": "서수교회", "address": "(54055) 전북 군산시 서수면 탑천로 599(서수교회 사무실)", "members_num": 120.0}}, {"type": "Feature", "geometry": {"type": "Point", "coordinates": [126.8708483, 35.20082319999999]}, "properties": {"name": "연제신안교회", "address": "(61081) 광주 북구 양산제로 70-7", "members_num": 100.0}}, {"type": "Feature", "geometry": {"type": "Point", "coordinates": [127.6088008, 34.9691381]}, "properties": {"name": "용강교회", "address": "(57747) 전남 광양시 와룡4길18 2층", "members_num": 20.0}}, {"type": "Feature", "geometry": {"type": "Point", "coordinates": [126.9182022, 35.2419257]}, "properties": {"name": "광북교회", "address": "(61044) 광주 북구 하서로 1021", "members_num": 70.0}}, {"type": "Feature", "geometry": {"type": "Point", "coordinates": [127.2907959, 35.0891648]}, "properties": {"name": "곡성신전교회", "address": "(57554) 전남 곡성군 전남곡성군목사동면신전1길81번지", "members_num": 25.0}}, {"type": "Feature", "geometry": {"type": "Point", "coordinates": [126.8760913, 35.2105328]}, "properties": {"name": "담빛교회", "address": "(61071) 광주 북구 양산택지로37번길34 2층", "members_num": 50.0}}, {"type": "Feature", "geometry": {"type": "Point", "coordinates": [126.4322422, 34.5763156]}, "properties": {"name": "시등교회", "address": "(59007) 전남 해남군 황산면 시등로 112-4", "members_num": 200.0}}, {"type": "Feature", "geometry": {"type": "Point", "coordinates": [126.8674304, 35.2090706]}, "properties": {"name": "새심교회", "address": "(61075) 광주 북구 연양로7번길 51-31", "members_num": 30.0}}, {"type": "Feature", "geometry": {"type": "Point", "coordinates": [126.8235814, 35.6289421]}, "properties": {"name": "덕천제일교회", "address": "(56149) 전북 정읍시 덕천면 동학로674", "members_num": 20.0}}, {"type": "Feature", "geometry": {"type": "Point", "coordinates": [126.8830403, 35.213795]}, "properties": {"name": "새숨교회", "address": "(61026) 광주 북구 양산택지로 94", "members_num": 50.0}}, {"type": "Feature", "geometry": {"type": "Point", "coordinates": [126.4676007, 35.335063]}, "properties": {"name": "덕흥교회", "address": "(57021) 전남 영광군 법성면 영광로3길 23", "members_num": 30.0}}, {"type": "Feature", "geometry": {"type": "Point", "coordinates": [126.4320705, 34.5758779]}, "properties": {"name": "시등교회", "address": "(59007) 전남 해남군 황산면 시등로 112ㅡ4", "members_num": 250.0}}, {"type": "Feature", "geometry": {"type": "Point", "coordinates": [126.8205659, 35.2022068]}, "properties": {"name": "수완중앙교회", "address": "(62246) 광주 광산구 왕버들로 90 3층", "members_num": 22.0}}, {"type": "Feature", "geometry": {"type": "Point", "coordinates": [126.7908022, 35.1275759]}, "properties": {"name": "맑은숲샘물교회", "address": "(62448) 광주 광산구 도산로 9번길 35 호반1차 상가동 3층", "members_num": 25.0}}, {"type": "Feature", "geometry": {"type": "Point", "coordinates": [127.1126902, 35.8483424]}, "properties": {"name": "신실한교회", "address": "(54887) 전북 전주시 덕진구 하가로 72", "members_num": 21.0}}, {"type": "Feature", "geometry": {"type": "Point", "coordinates": [127.1208589, 35.8531814]}, "properties": {"name": "전주에덴교회", "address": "(520) 전북 전주시 덕진구 송천동 솔내2길14", "members_num": 150.0}}, {"type": "Feature", "geometry": {"type": "Point", "coordinates": [126.9355158, 35.1593208]}, "properties": {"name": "광주제일노회", "address": "(61410) 광주 동구 밤실로134번지 2층생명수교회", "members_num": 8.0}}, {"type": "Feature", "geometry": {"type": "Point", "coordinates": [126.8490807, 35.5762767]}, "properties": {"name": "정읍감리교회", "address": "(56181) 전북 정읍시 선은본길 110-19", "members_num": 25.0}}, {"type": "Feature", "geometry": {"type": "Point", "coordinates": [126.7364867, 35.7158091]}, "properties": {"name": "창대교회", "address": "(56318) 전북 부안군 부안읍 옹정로 340", "members_num": 50.0}}, {"type": "Feature", "geometry": {"type": "Point", "coordinates": [126.8940998, 35.210546]}, "properties": {"name": "주님뜻이룸교회", "address": "(61034) 광주 북구 일곡마을로 183, 3층 302호", "members_num": 30.0}}, {"type": "Feature", "geometry": {"type": "Point", "coordinates": [127.0605756, 35.8371985]}, "properties": {"name": "예장통합전주노회", "address": "(54871) 전북 전주시 덕진구 기지로 86 402호", "members_num": 20.0}}, {"type": "Feature", "geometry": {"type": "Point", "coordinates": [126.9070695, 35.14951920000001]}, "properties": {"name": "광남장로교회", "address": "(62070) 광주 서구 천변좌로306번길 12", "members_num": 75.0}}, {"type": "Feature", "geometry": {"type": "Point", "coordinates": [126.905401, 35.1861264]}, "properties": {"name": "오치임마누엘교회", "address": "(61130) 광주 북구 우치로238 임광모한의원 3층", "members_num": 15.0}}, {"type": "Feature", "geometry": {"type": "Point", "coordinates": [126.9497409, 35.2945657]}, "properties": {"name": "남산교회", "address": "(57315) 전남 담양군 수북면남산길26", "members_num": 30.0}}, {"type": "Feature", "geometry": {"type": "Point", "coordinates": [126.8981269, 35.1954974]}, "properties": {"name": "광주수정교회", "address": "(61051) 광주 북구 설죽로310번길31(삼각동)", "members_num": 100.0}}, {"type": "Feature", "geometry": {"type": "Point", "coordinates": [126.9013098, 35.1974773]}, "properties": {"name": "이루리교회", "address": "(61050) 광주 북구 설죽로 436번길30, 삼각동", "members_num": 120.0}}, {"type": "Feature", "geometry": {"type": "Point", "coordinates": [126.9363253, 35.1755158]}, "properties": {"name": "광주예은교회", "address": "(61153) 광주 북구 군왕로 168번길 50", "members_num": 250.0}}, {"type": "Feature", "geometry": {"type": "Point", "coordinates": [126.8284668, 35.1994481]}, "properties": {"name": "새성안교회", "address": "(62248) 광주 광산구 수완로170 새성안건물 505호", "members_num": 200.0}}, {"type": "Feature", "geometry": {"type": "Point", "coordinates": [126.915631, 35.1659335]}, "properties": {"name": "하늘향기교회", "address": "(61214) 광주 북구 서암대로 291 안보회관 지하", "members_num": 50.0}}, {"type": "Feature", "geometry": {"type": "Point", "coordinates": [126.9215415, 35.1881795]}, "properties": {"name": "광주새동산교회", "address": "(61125) 광주 북구 대천로157번길7(문흥동)", "members_num": 40.0}}, {"type": "Feature", "geometry": {"type": "Point", "coordinates": [126.9377172, 35.1716193]}, "properties": {"name": "동천교회", "address": "(61154) 광주 북구 삼정로 106-3", "members_num": 89.0}}, {"type": "Feature", "geometry": {"type": "Point", "coordinates": [127.6694873, 36.0033829]}, "properties": {"name": "무주중앙침례교회", "address": "(55515) 전북 무주군 당산길17-14", "members_num": 42.0}}, {"type": "Feature", "geometry": {"type": "Point", "coordinates": [127.1145141, 35.8055042]}, "properties": {"name": "생명샘교회", "address": "(55080) 전북 전주시 완산구 용머리로 36 서도프라자 5층", "members_num": 25.0}}, {"type": "Feature", "geometry": {"type": "Point", "coordinates": [126.7660521, 34.6230253]}, "properties": {"name": "남포침례교회", "address": "(59241) 전남 강진군 남포2길19-7 (59241) 전남 강진군 남포2길19-7", "members_num": 12.0}}, {"type": "Feature", "geometry": {"type": "Point", "coordinates": [126.2927804, 35.1162195]}, "properties": {"name": "해제중앙교회", "address": "(58502) 전남 무안군 해제면 봉대로 37-6", "members_num": 250.0}}, {"type": "Feature", "geometry": {"type": "Point", "coordinates": [126.8328037, 36.0317054]}, "properties": {"name": "나포제일교회", "address": "(54048) 전북 군산시 군산시 나포면 교동1길5", "members_num": 30.0}}, {"type": "Feature", "geometry": {"type": "Point", "coordinates": [127.1651332, 35.99689499999999]}, "properties": {"name": "백도교회", "address": "(55307) 전북 완주군 비봉면 백도길 32-9 백도교회", "members_num": 45.0}}, {"type": "Feature", "geometry": {"type": "Point", "coordinates": [126.9236545, 36.0640533]}, "properties": {"name": "함라침례교회", "address": "(54502) 전북 익산시 함라면 함낭로 114-2", "members_num": 20.0}}, {"type": "Feature", "geometry": {"type": "Point", "coordinates": [127.4622294, 35.2367409]}, "properties": {"name": "지천교회", "address": "(57614) 전남 구례군 광의면 지하1길 44", "members_num": 20.0}}, {"type": "Feature", "geometry": {"type": "Point", "coordinates": [126.9342273, 35.1732167]}, "properties": {"name": "영광스러운교회", "address": "(61155) 광주 북구 군왕로152", "members_num": 10.0}}, {"type": "Feature", "geometry": {"type": "Point", "coordinates": [126.1869848, 34.3764314]}, "properties": {"name": "백동침례교회", "address": "(58943) 전남 진도군 임회면 백동길 66-6", "members_num": 200.0}}, {"type": "Feature", "geometry": {"type": "Point", "coordinates": [126.8875464, 35.1489335]}, "properties": {"name": "하은교회", "address": "(62047) 광주 서구 대남대로433", "members_num": 30.0}}, {"type": "Feature", "geometry": {"type": "Point", "coordinates": [126.8785326, 35.2141998]}, "properties": {"name": "광주참사랑교회", "address": "(61020) 광주 북구 본촌택지로1", "members_num": 40.0}}, {"type": "Feature", "geometry": {"type": "Point", "coordinates": [127.2129149, 35.4438992]}, "properties": {"name": "구미중앙교회", "address": "(56026) 전북 순창군 동계면 귀미1길 3", "members_num": 20.0}}, {"type": "Feature", "geometry": {"type": "Point", "coordinates": [126.8802538, 35.2119813]}, "properties": {"name": "성지교회", "address": "(60122) 광주 북구 양산동 707번지", "members_num": 90.0}}, {"type": "Feature", "geometry": {"type": "Point", "coordinates": [126.9404156, 35.2835537]}, "properties": {"name": "개동교회", "address": "(52325) 전남 담양군 수북면 개동남산길 42", "members_num": 100.0}}, {"type": "Feature", "geometry": {"type": "Point", "coordinates": [127.1040534, 35.645592]}, "properties": {"name": "백여교회", "address": "(55363) 전북 완주군 구이면 구이로 460", "members_num": 65.0}}, {"type": "Feature", "geometry": {"type": "Point", "coordinates": [127.1395586, 35.8311372]}, "properties": {"name": "반석교회", "address": "(54935) 전북 전주시 덕진구 팔달로 330-5", "members_num": 40.0}}, {"type": "Feature", "geometry": {"type": "Point", "coordinates": [126.2924328, 35.6027018]}, "properties": {"name": "진리교회", "address": "(56348) 전북 부안군 위도면 진리안길 13-13", "members_num": 30.0}}, {"type": "Feature", "geometry": {"type": "Point", "coordinates": [126.6765658, 35.9573378]}, "properties": {"name": "예장합동", "address": "(54149) 전북 군산시 칠성5길4", "members_num": 40.0}}, {"type": "Feature", "geometry": {"type": "Point", "coordinates": [126.8349079, 35.1854146]}, "properties": {"name": "새소망교회", "address": "(62298) 광주 광산구 신가삼효로 22-24 (신가동 977-8번지)", "members_num": 25.0}}, {"type": "Feature", "geometry": {"type": "Point", "coordinates": [126.8715036, 35.1448644]}, "properties": {"name": "에덴교회", "address": "(62025) 광주 서구 화정로 130, A동 202호", "members_num": 50.0}}, {"type": "Feature", "geometry": {"type": "Point", "coordinates": [127.1609232, 34.43777499999999]}, "properties": {"name": "합동", "address": "(59566) 전남 고흥군 금산면금장길15금장교회", "members_num": 12.0}}, {"type": "Feature", "geometry": {"type": "Point", "coordinates": [127.51382, 34.9548845]}, "properties": {"name": "순천동부제일교회", "address": "(57951) 전남 순천시 봉화1길 33", "members_num": 30.0}}, {"type": "Feature", "geometry": {"type": "Point", "coordinates": [127.5773425, 34.9641859]}, "properties": {"name": "송축교회", "address": "(57762) 전남 광양시 광양읍 회암길 29-19", "members_num": 26.0}}, {"type": "Feature", "geometry": {"type": "Point", "coordinates": [127.2530008, 35.0905323]}, "properties": {"name": "궁각시온침례교회", "address": "(57910) 전남 순천시 주암면 궁각길 145", "members_num": 30.0}}, {"type": "Feature", "geometry": {"type": "Point", "coordinates": [127.1234103, 35.8043397]}, "properties": {"name": "희망의교회", "address": "(55082) 전북 전주시 완산구 백제대로 127 3층", "members_num": 10.0}}, {"type": "Feature", "geometry": {"type": "Point", "coordinates": [126.6943585, 35.96841190000001]}, "properties": {"name": "군산중문침례교회", "address": "(54128) 전북 군산시 신설2길 17, 2층", "members_num": 25.0}}, {"type": "Feature", "geometry": {"type": "Point", "coordinates": [126.7255204, 35.9802802]}, "properties": {"name": "경암교회", "address": "(54037) 전북 군산시 서래내길66", "members_num": 300.0}}, {"type": "Feature", "geometry": {"type": "Point", "coordinates": [126.6646684, 35.4128209]}, "properties": {"name": "예장통합", "address": "(56445) 전북 고창군 고수면 남산우평길2", "members_num": 25.0}}, {"type": "Feature", "geometry": {"type": "Point", "coordinates": [126.6583601, 35.5364971]}, "properties": {"name": "수동교회", "address": "(56417) 전북 고창군 부안면 기동길 9 수동교회", "members_num": 35.0}}, {"type": "Feature", "geometry": {"type": "Point", "coordinates": [126.8933751, 35.1463552]}, "properties": {"name": "동행교회", "address": "(62042) 광주 남구 대남대로372번안길 16-1", "members_num": 15.0}}, {"type": "Feature", "geometry": {"type": "Point", "coordinates": [127.1587411, 35.4128315]}, "properties": {"name": "순창인계중앙교회", "address": "(560818) 전북 순창군 인계면 인성로 162-26", "members_num": 14.0}}, {"type": "Feature", "geometry": {"type": "Point", "coordinates": [126.9115197, 35.161264]}, "properties": {"name": "물댄동산교회", "address": "(우) 61235) 광주 북구 광주 북구 경양로183번길 31", "members_num": 20.0}}, {"type": "Feature", "geometry": {"type": "Point", "coordinates": [127.076729, 34.76867790000001]}, "properties": {"name": "복된교회", "address": "(59456) 전남 보성군 보성읍 송재로114-1", "members_num": 70.0}}, {"type": "Feature", "geometry": {"type": "Point", "coordinates": [127.7750011, 34.7152554]}, "properties": {"name": "우두교회", "address": "(59770) 전남 여수시 돌산읍 상하동길 153", "members_num": 25.0}}, {"type": "Feature", "geometry": {"type": "Point", "coordinates": [126.3141673, 34.7726627]}, "properties": {"name": "달리그리스도의교회", "address": "(58761) 전남 목포시 전남 목포시 달리길157번길 11", "members_num": 20.0}}, {"type": "Feature", "geometry": {"type": "Point", "coordinates": [126.8317318, 35.1881267]}, "properties": {"name": "하늘문열매교회", "address": "(62305) 광주 광산구 수완로10번길 65", "members_num": 30.0}}, {"type": "Feature", "geometry": {"type": "Point", "coordinates": [126.896694, 35.185438]}, "properties": {"name": "합동", "address": "(61063) 광주 북구 설죽로 279번길 19", "members_num": 15.0}}, {"type": "Feature", "geometry": {"type": "Point", "coordinates": [126.9192773, 35.1581063]}, "properties": {"name": "혜성교회", "address": "(61422) 광주 동구 경양로247번길22", "members_num": 500.0}}, {"type": "Feature", "geometry": {"type": "Point", "coordinates": [126.9819947, 35.2982711]}, "properties": {"name": "남문교회", "address": "(57363) 전남 담양군 죽향대로1034", "members_num": 30.0}}, {"type": "Feature", "geometry": {"type": "Point", "coordinates": [127.0990761, 35.1931153]}, "properties": {"name": "갈전교회", "address": "(57382) 전남 담양군 대덕면 하갈길 3-18", "members_num": 15.0}}, {"type": "Feature", "geometry": {"type": "Point", "coordinates": [127.4852142, 34.9839927]}, "properties": {"name": "사랑나눔교회", "address": "(57924) 전남 순천시 고지5길20~8", "members_num": 100.0}}, {"type": "Feature", "geometry": {"type": "Point", "coordinates": [126.9172967, 35.1783808]}, "properties": {"name": "온빛교회", "address": "(61188) 광주 북구 호동로75번길9", "members_num": 88.0}}, {"type": "Feature", "geometry": {"type": "Point", "coordinates": [127.0760164, 35.8476044]}, "properties": {"name": "전주태평양교회", "address": "(54860) 전북 전주시 덕진구 만성북4길 26", "members_num": 70.0}}, {"type": "Feature", "geometry": {"type": "Point", "coordinates": [127.3029182, 35.1024159]}, "properties": {"name": "목사동교회", "address": "(57574) 전남 곡성군 목사동면 용봉길6", "members_num": 60.0}}, {"type": "Feature", "geometry": {"type": "Point", "coordinates": [126.4919896, 34.8498842]}, "properties": {"name": "일로제일교회", "address": "(58574) 전남 무안군 일로읍 일로중앙로 20", "members_num": 400.0}}, {"type": "Feature", "geometry": {"type": "Point", "coordinates": [126.1268762, 34.8434217]}, "properties": {"name": "암태제일교회", "address": "(58834) 전남 신안군 송곡길 69-18", "members_num": 45.0}}, {"type": "Feature", "geometry": {"type": "Point", "coordinates": [126.9819947, 35.2982711]}, "properties": {"name": "담양남문교회", "address": "(57363) 전남 담양군 담양읍 죽향대로 1034", "members_num": 20.0}}, {"type": "Feature", "geometry": {"type": "Point", "coordinates": [127.4415307, 34.8546327]}, "properties": {"name": "별량교회", "address": "(58033) 전남 순천시 별랑장길10", "members_num": 50.0}}, {"type": "Feature", "geometry": {"type": "Point", "coordinates": [126.874677, 35.1248917]}, "properties": {"name": "매일은혜교회", "address": "(62056) 광주 서구 풍암순환로20(풍암동 호반아파트상가3층)", "members_num": 70.0}}, {"type": "Feature", "geometry": {"type": "Point", "coordinates": [126.9261382, 35.1718444]}, "properties": {"name": "예수소망교회", "address": "(61199) 광주 북구 동문대로 100번길 29(2층)", "members_num": 25.0}}, {"type": "Feature", "geometry": {"type": "Point", "coordinates": [126.8936189, 35.12894989999999]}, "properties": {"name": "광주도성교회", "address": "(61731) 광주 남구 회재로1186번길45", "members_num": 100.0}}, {"type": "Feature", "geometry": {"type": "Point", "coordinates": [126.8385633, 35.1849747]}, "properties": {"name": "광주온교회", "address": "(62295) 광주 광산구 수등로 272 2층 (62295) 광주 광산구 수등로 272 2층", "members_num": 20.0}}, {"type": "Feature", "geometry": {"type": "Point", "coordinates": [126.0100168, 34.3129455]}, "properties": {"name": "나배도교회", "address": "(58956) 전남 진도군 조도면 나배도길 42-11", "members_num": 12.0}}, {"type": "Feature", "geometry": {"type": "Point", "coordinates": [126.2533943, 34.4493237]}, "properties": {"name": "칠전교회", "address": "(58933) 전남 진도군 의신면 칠전길 22-50", "members_num": 50.0}}, {"type": "Feature", "geometry": {"type": "Point", "coordinates": [126.258535, 34.58381]}, "properties": {"name": "진도신기교회", "address": "(58900) 전남 진도군 군내면 서부해안로 1730 진도신기교회", "members_num": 35.0}}, {"type": "Feature", "geometry": {"type": "Point", "coordinates": [126.1235973, 34.4134804]}, "properties": {"name": "종성교회", "address": "(58952) 전남 진도군 지산면 하심동길 41", "members_num": 7.0}}, {"type": "Feature", "geometry": {"type": "Point", "coordinates": [126.2772076, 34.5389476]}, "properties": {"name": "진도용인교회", "address": "(58901) 전남 진도군 군내면 용인길 15-9", "members_num": 20.0}}, {"type": "Feature", "geometry": {"type": "Point", "coordinates": [127.154572, 35.843674]}, "properties": {"name": "기쁨의교회", "address": "(54913) 전북 전주시 덕진구 안골6길5", "members_num": 15.0}}, {"type": "Feature", "geometry": {"type": "Point", "coordinates": [127.1666311, 35.8248539]}, "properties": {"name": "열린교회", "address": "(55030) 전북 전주시 덕진구 한배미로 16", "members_num": 50.0}}, {"type": "Feature", "geometry": {"type": "Point", "coordinates": [126.9509517, 35.8932592]}, "properties": {"name": "가전교회", "address": "(54328) 전북 김제시 백구면 백구4길 3 가전교회", "members_num": 20.0}}, {"type": "Feature", "geometry": {"type": "Point", "coordinates": [126.9449324, 35.9768333]}, "properties": {"name": "익산계문교회", "address": "(54535) 전북 익산시 계문1길 107", "members_num": 200.0}}, {"type": "Feature", "geometry": {"type": "Point", "coordinates": [127.0920538, 35.8113448]}, "properties": {"name": "전주대학교대학교회", "address": "(55069) 전북 전주시 덕진구 천잠로 303 대학교회", "members_num": 90.0}}, {"type": "Feature", "geometry": {"type": "Point", "coordinates": [126.9280482, 35.1615937]}, "properties": {"name": "광주영천교회", "address": "(61404) 광주 동구 참판로 25-1", "members_num": 200.0}}, {"type": "Feature", "geometry": {"type": "Point", "coordinates": [126.7996678, 35.7667109]}, "properties": {"name": "서포교회", "address": "(54422) 전북 김제시 죽산면 서포2길66-14", "members_num": 60.0}}, {"type": "Feature", "geometry": {"type": "Point", "coordinates": [126.9642675, 35.9441958]}, "properties": {"name": "새순교회", "address": "(54626) 전북 익산시 선화1로 37", "members_num": 80.0}}, {"type": "Feature", "geometry": {"type": "Point", "coordinates": [126.7281719, 35.7248944]}, "properties": {"name": "동행교회", "address": "(56311) 전북 부안군 번영로 106", "members_num": 15.0}}, {"type": "Feature", "geometry": {"type": "Point", "coordinates": [127.6078488, 34.6876483]}, "properties": {"name": "나진교회", "address": "(59779) 전남 여수시 24", "members_num": 130.0}}, {"type": "Feature", "geometry": {"type": "Point", "coordinates": [126.6053023, 34.5728892]}, "properties": {"name": "김승희", "address": "(59026) 전남 해남군 해남읍동초길15 102-804", "members_num": 60.0}}, {"type": "Feature", "geometry": {"type": "Point", "coordinates": [126.8922165, 35.7985319]}, "properties": {"name": "행복한교회", "address": "(54408) 전북 김제시 화동길 84 2층", "members_num": 13.0}}, {"type": "Feature", "geometry": {"type": "Point", "coordinates": [127.0557527, 35.9935484]}, "properties": {"name": "금마복음교회", "address": "(54572) 전북 익산시 금마면 고도길 79", "members_num": 50.0}}, {"type": "Feature", "geometry": {"type": "Point", "coordinates": [127.3936136, 35.4130496]}, "properties": {"name": "남원신생교회", "address": "(55758) 전북 남원시 대교2길14", "members_num": 5.0}}, {"type": "Feature", "geometry": {"type": "Point", "coordinates": [126.6741136, 35.9009023]}, "properties": {"name": "어은교회", "address": "(54597) 전북 군시 옥구읍 어은동로 252", "members_num": 12.0}}, {"type": "Feature", "geometry": {"type": "Point", "coordinates": [126.707271, 35.0275335]}, "properties": {"name": "나주안디옥교회", "address": "(58263) 전남 나주시 영산로 5232", "members_num": 50.0}}, {"type": "Feature", "geometry": {"type": "Point", "coordinates": [127.5924816, 35.4774812]}, "properties": {"name": "인풍성은교회", "address": "(55713) 전북 남원시 아영면 인월장터로217", "members_num": 30.0}}, {"type": "Feature", "geometry": {"type": "Point", "coordinates": [126.9797278, 35.0573097]}, "properties": {"name": "주찬양교회", "address": "(58121) 전남 화순군 화순읍 칠충로 83-3 2층", "members_num": 17.0}}, {"type": "Feature", "geometry": {"type": "Point", "coordinates": [127.2841083, 35.613772]}, "properties": {"name": "임실반석교회", "address": "(55928) 전북 임실군 임실읍 운수로 38", "members_num": 50.0}}, {"type": "Feature", "geometry": {"type": "Point", "coordinates": [126.7121997, 34.9995368]}, "properties": {"name": "영산포교회", "address": "(58267) 전남 나주시 오포길 43", "members_num": 150.0}}, {"type": "Feature", "geometry": {"type": "Point", "coordinates": [127.119216, 35.8564326]}, "properties": {"name": "꿈이있는교회", "address": "(54838) 전북 전주시 덕진구 송천1길 9-6", "members_num": 20.0}}, {"type": "Feature", "geometry": {"type": "Point", "coordinates": [126.7334479, 35.0724704]}, "properties": {"name": "노안중앙교회", "address": "(58209) 전남 나주시 노안면 노안로 372 노안중앙교회", "members_num": 150.0}}, {"type": "Feature", "geometry": {"type": "Point", "coordinates": [126.4694744, 34.8312895]}, "properties": {"name": "삼향삼성교회", "address": "(58562) 전남 무안군 삼향읍 오룡산로81-13", "members_num": 30.0}}, {"type": "Feature", "geometry": {"type": "Point", "coordinates": [127.6686795, 36.0023541]}, "properties": {"name": "무주아름다운감리교회", "address": "(55515) 전북 무주군 무주읍 당산길 30-5", "members_num": 40.0}}, {"type": "Feature", "geometry": {"type": "Point", "coordinates": [126.7676848, 34.6375727]}, "properties": {"name": "순복음좋은교회", "address": "(59234) 전남 강진군 강진읍 평동2길 27 순복음좋은교회", "members_num": 30.0}}, {"type": "Feature", "geometry": {"type": "Point", "coordinates": [126.9534402, 35.9468995]}, "properties": {"name": "예장합동", "address": "(54618) 전북 익산시 선화로 33길11", "members_num": 16.0}}, {"type": "Feature", "geometry": {"type": "Point", "coordinates": [127.105229, 36.0445271]}, "properties": {"name": "여산남부교회", "address": "(54519) 전북 익산시 여산면 호산길 48", "members_num": 100.0}}, {"type": "Feature", "geometry": {"type": "Point", "coordinates": [127.1194189, 35.79918869999999]}, "properties": {"name": "화평교회", "address": "(55084) 전북 전주시 완산구 송정1길 4", "members_num": 20.0}}, {"type": "Feature", "geometry": {"type": "Point", "coordinates": [126.7864532, 35.5639538]}, "properties": {"name": "기독교대한성결교회", "address": "(56213) 전북 정읍시 소성면 부안2길18-1", "members_num": 10.0}}, {"type": "Feature", "geometry": {"type": "Point", "coordinates": [127.0681946, 36.0626061]}, "properties": {"name": "광명교회", "address": "(54520) 전북 익산시 여산면 북성길 57", "members_num": 40.0}}, {"type": "Feature", "geometry": {"type": "Point", "coordinates": [126.7141309, 35.028422]}, "properties": {"name": "사랑의언약교회", "address": "(58258) 전남 나주시 남고문로 29", "members_num": 100.0}}, {"type": "Feature", "geometry": {"type": "Point", "coordinates": [126.7858026, 35.023758]}, "properties": {"name": "주향한교회", "address": "(58217) 전남 나주시 우정로 56 토담리치타워 A동 403호", "members_num": 25.0}}, {"type": "Feature", "geometry": {"type": "Point", "coordinates": [126.7878329, 34.8940511]}, "properties": {"name": "덕곡교회", "address": "(58314) 전남 나주시 봉황면 덕룡로 465-3", "members_num": 10.0}}, {"type": "Feature", "geometry": {"type": "Point", "coordinates": [126.7738467, 35.015278]}, "properties": {"name": "빛가람신안교회", "address": "(58327) 전남 나주시 황동1길. 52-16", "members_num": 30.0}}, {"type": "Feature", "geometry": {"type": "Point", "coordinates": [126.7050474, 34.9248112]}, "properties": {"name": "예수생명교회", "address": "(54200) 전남 영암군 신북면 신북공단로17", "members_num": 20.0}}, {"type": "Feature", "geometry": {"type": "Point", "coordinates": [126.7850476, 35.0188651]}, "properties": {"name": "아름드리교회", "address": "(58325) 전남 나주시 문화로 226, 키움해피라움2차 5층 504호", "members_num": 20.0}}, {"type": "Feature", "geometry": {"type": "Point", "coordinates": [127.6723216, 34.7590986]}, "properties": {"name": "시전제일교회", "address": "(59685) 전남 여수시 시전4길27", "members_num": 20.0}}, {"type": "Feature", "geometry": {"type": "Point", "coordinates": [126.7032335, 35.074083]}, "properties": {"name": "금성교회", "address": "(58210) 전남 나주시 노안면 금안1길 19~18", "members_num": 30.0}}, {"type": "Feature", "geometry": {"type": "Point", "coordinates": [126.7172824, 34.9930642]}, "properties": {"name": "반석위에세운교회", "address": "(58272) 전남 나주시 용승길4-6", "members_num": 30.0}}, {"type": "Feature", "geometry": {"type": "Point", "coordinates": [126.5641456, 34.9151792]}, "properties": {"name": "순복음대서교회", "address": "(58295) 전남 나주시 동강면 대서길 25", "members_num": 50.0}}, {"type": "Feature", "geometry": {"type": "Point", "coordinates": [126.636339, 35.0137396]}, "properties": {"name": "다시제일교회", "address": "(58287) 전남 나주시 다시면 월곡길 45-31", "members_num": 30.0}}, {"type": "Feature", "geometry": {"type": "Point", "coordinates": [126.7848567, 35.0163342]}, "properties": {"name": "효천교회", "address": "(58325) 전남 나주시 중야2길 14. 201호 효천교회", "members_num": 15.0}}, {"type": "Feature", "geometry": {"type": "Point", "coordinates": [126.8128067, 35.0707925]}, "properties": {"name": "월성교회", "address": "(61762) 광주 남구 포충로 283-1", "members_num": 45.0}}, {"type": "Feature", "geometry": {"type": "Point", "coordinates": [126.7903709, 35.0229241]}, "properties": {"name": "세빛제일교회", "address": "(58217) 전남 나주시 상야 3길 8(중흥메가티움 2차 상가 201호)", "members_num": 50.0}}, {"type": "Feature", "geometry": {"type": "Point", "coordinates": [126.9163754, 35.1359628]}, "properties": {"name": "나주월산교회", "address": "(61663) 광주 남구 정율성로 7 202동 404호", "members_num": 30.0}}, {"type": "Feature", "geometry": {"type": "Point", "coordinates": [126.4189354, 34.8022062]}, "properties": {"name": "통합측하예성교회", "address": "(58696) 전남 목포시 입암로36", "members_num": 10.0}}, {"type": "Feature", "geometry": {"type": "Point", "coordinates": [127.3391118, 35.2990955]}, "properties": {"name": "고달교회", "address": "(57545) 전남 곡성군 고달면 대서로34", "members_num": 15.0}}, {"type": "Feature", "geometry": {"type": "Point", "coordinates": [126.8924928, 35.1511471]}, "properties": {"name": "선한열매교회", "address": "(61930) 광주 서구 경열로 59 선한열매교회", "members_num": 140.0}}, {"type": "Feature", "geometry": {"type": "Point", "coordinates": [127.1565434, 35.6441246]}, "properties": {"name": "운암제일교회", "address": "(55904) 전북 임실군 운암면 임운로 1859", "members_num": 30.0}}, {"type": "Feature", "geometry": {"type": "Point", "coordinates": [127.040246, 36.042639]}, "properties": {"name": "장암교회", "address": "(54522) 전북 익산시 낭산면 장암길 17~4", "members_num": 30.0}}, {"type": "Feature", "geometry": {"type": "Point", "coordinates": [127.1541018, 35.51207730000001]}, "properties": {"name": "덕치교회", "address": "(55941) 전북 임실군 덕치면 회문2길 62-2", "members_num": 20.0}}, {"type": "Feature", "geometry": {"type": "Point", "coordinates": [127.5095375, 34.9515904]}, "properties": {"name": "순천우리교회", "address": "(57988) 전남 순천시 이수로 226", "members_num": 50.0}}, {"type": "Feature", "geometry": {"type": "Point", "coordinates": [127.5426865, 35.4523711]}, "properties": {"name": "신기동부교회", "address": "(55716) 전북 남원시 운봉읍운봉신기길 101", "members_num": 6.0}}, {"type": "Feature", "geometry": {"type": "Point", "coordinates": [126.8481963, 35.8041072]}, "properties": {"name": "대촌교회", "address": "(54370) 전북 김제시 복죽5길29 대촌교회", "members_num": 40.0}}, {"type": "Feature", "geometry": {"type": "Point", "coordinates": [127.1338459, 35.813722]}, "properties": {"name": "샬롬교회", "address": "(55046) 전북 전주시 완산구 강당4길 1", "members_num": 12.0}}, {"type": "Feature", "geometry": {"type": "Point", "coordinates": [127.3645085, 35.4920256]}, "properties": {"name": "한국기독교회", "address": "(55702) 전북 남원시 사매면 용북길 89", "members_num": 30.0}}, {"type": "Feature", "geometry": {"type": "Point", "coordinates": [126.9003408, 35.1024165]}, "properties": {"name": "광주대광교회", "address": "(61744) 광주 남구 효우로130번길32", "members_num": 50.0}}, {"type": "Feature", "geometry": {"type": "Point", "coordinates": [127.1574887, 35.7635955]}, "properties": {"name": "보광교회", "address": "(55361) 전북 완주군 구이면 원평촌길 34", "members_num": 70.0}}, {"type": "Feature", "geometry": {"type": "Point", "coordinates": [127.4291268, 35.5067829]}, "properties": {"name": "쉬어가는교회", "address": "(55706) 전북 남원시 보절면 진기금다길 292-10", "members_num": 5.0}}, {"type": "Feature", "geometry": {"type": "Point", "coordinates": [126.3818766, 34.8039688]}, "properties": {"name": "목포창조교회", "address": "(58635) 전남 목포시 양을로79번길 24 창조교회", "members_num": 250.0}}, {"type": "Feature", "geometry": {"type": "Point", "coordinates": [127.3334601, 35.5360546]}, "properties": {"name": "오수제일교회", "address": "(55955) 전북특별자치도 임실군 오수면 금암2길7", "members_num": 11.0}}, {"type": "Feature", "geometry": {"type": "Point", "coordinates": [126.6996036, 35.4931154]}, "properties": {"name": "신림교회", "address": "(56424) 전라북도 고창군 신림면 법지길 16", "members_num": 77.0}}, {"type": "Feature", "geometry": {"type": "Point", "coordinates": [127.5515678, 35.8258631]}, "properties": {"name": "성산교회", "address": "(55445) 전라북도 진안군 동향면 하향길 10-10", "members_num": 25.0}}, {"type": "Feature", "geometry": {"type": "Point", "coordinates": [127.3444346, 34.8456562]}, "properties": {"name": "벌교대광교회", "address": "(59425) 전라남도 보성군 벌교읍 시장1길 5-17", "members_num": 200.0}}, {"type": "Feature", "geometry": {"type": "Point", "coordinates": [126.8634988, 35.5624475]}, "properties": {"name": "열방교회", "address": "(56188) 전북특별자치도 정읍시 입석남길 21 열방교회 사택", "members_num": 40.0}}, {"type": "Feature", "geometry": {"type": "Point", "coordinates": [126.7023598, 35.9669968]}, "properties": {"name": "찬양문화교회", "address": "(54138) 전라북도 군산시 수송로49 103동305호", "members_num": 5.0}}, {"type": "Feature", "geometry": {"type": "Point", "coordinates": [126.8456465, 35.1473599]}, "properties": {"name": "광주하나교회", "address": "(61959) 광주광역시 서구 치평동 1174-3 라인동산상가 3층 301호", "members_num": 15.0}}, {"type": "Feature", "geometry": {"type": "Point", "coordinates": [126.8173165, 35.189887]}, "properties": {"name": "참빛희망교회", "address": "(62225) 광주 광산구 장덕동 풍영로 200번길59한도빌딩 604호 참빛희망교회", "members_num": 100.0}}, {"type": "Feature", "geometry": {"type": "Point", "coordinates": [127.1359686, 35.8108182]}, "properties": {"name": "전주서부교회", "address": "(55047) 전라북도 전주시 완산구 용머리로 229-6", "members_num": 100.0}}, {"type": "Feature", "geometry": {"type": "Point", "coordinates": [126.9777877, 35.8614114]}, "properties": {"name": "영광교회", "address": "(43233) 전라북도 김제시 용지면 장신1길 277", "members_num": 42.0}}, {"type": "Feature", "geometry": {"type": "Point", "coordinates": [126.8524196, 35.2203483]}, "properties": {"name": "하나숲교회", "address": "(62278) 광주광역시 광산구 첨단중앙로 182번길 76 상가동 217호(중해마루힐2차)", "members_num": 50.0}}, {"type": "Feature", "geometry": {"type": "Point", "coordinates": [126.9326952, 35.1754345]}, "properties": {"name": "빛고을회복교회", "address": "(광주광역시) 북구 면앙로193, 2층 빛고을회복교회", "members_num": 10.0}}, {"type": "Feature", "geometry": {"type": "Point", "coordinates": [126.8579988, 35.1912372]}, "properties": {"name": "우리은광교회", "address": "(62273) 광주광역시 광산구 풍영정길 275-9", "members_num": 100.0}}, {"type": "Feature", "geometry": {"type": "Point", "coordinates": [126.7419375, 34.3203097]}, "properties": {"name": "완도장로교회", "address": "(59115) 전남 완도군 완도읍 개포로135번길22 완도장로교회", "members_num": 10.0}}, {"type": "Feature", "geometry": {"type": "Point", "coordinates": [126.7346138, 35.2820357]}, "properties": {"name": "장성동화교회", "address": "(57241) 전라남도 장성군 동화면 삼동로 680", "members_num": 50.0}}, {"type": "Feature", "geometry": {"type": "Point", "coordinates": [126.8231368, 35.222499]}, "properties": {"name": "참사랑벧엘교회", "address": "(62238) 광주광역시 광산구 비아로12번길 48", "members_num": 80.0}}, {"type": "Feature", "geometry": {"type": "Point", "coordinates": [127.0216062, 35.8377614]}, "properties": {"name": "이서신광교회", "address": "(55364) 전라북도 완주군 이서면 반교리 정농홍개길 7", "members_num": 60.0}}, {"type": "Feature", "geometry": {"type": "Point", "coordinates": [126.5580819, 34.5476362]}, "properties": {"name": "온인교회", "address": "(59046) 전라남도 해남군 해남읍 내사길191-7 .", "members_num": 30.0}}, {"type": "Feature", "geometry": {"type": "Point", "coordinates": [127.1178478, 35.8076873]}, "properties": {"name": "서현교회", "address": "(55054) 전라북도 전주시 완산구 오두정1길 18-3", "members_num": 80.0}}, {"type": "Feature", "geometry": {"type": "Point", "coordinates": [127.6997614, 34.7518122]}, "properties": {"name": "백합교회", "address": "(59703) 전라남도 여수시 문수5길 12", "members_num": 35.0}}, {"type": "Feature", "geometry": {"type": "Point", "coordinates": [127.0548891, 35.990728]}, "properties": {"name": "금마교회", "address": "(54572) 전북 익산시 금마면 금마2길 25", "members_num": 100.0}}, {"type": "Feature", "geometry": {"type": "Point", "coordinates": [126.6469366, 34.1367097]}, "properties": {"name": "소안진산교회", "address": "(59166) 전라남도 완도군 소안면 소안로 806", "members_num": 15.0}}, {"type": "Feature", "geometry": {"type": "Point", "coordinates": [126.6985569, 35.9694819]}, "properties": {"name": "새벽별교회", "address": "(54132) 전북 군산시 하신2길 8-5 새벽별교회", "members_num": 100.0}}, {"type": "Feature", "geometry": {"type": "Point", "coordinates": [127.5876326, 34.9728382]}, "properties": {"name": "광양신광교회", "address": "(57752) 전라남도 광양시 읍성길 74", "members_num": 70.0}}, {"type": "Feature", "geometry": {"type": "Point", "coordinates": [127.4592513, 35.0198684]}, "properties": {"name": "영광교회", "address": "(57905) 전라남도 순천시 서면 둔대길3 영광교회", "members_num": 50.0}}, {"type": "Feature", "geometry": {"type": "Point", "coordinates": [127.1638446, 35.936164]}, "properties": {"name": "큰사랑교회", "address": "(55326) 전북특별자치도 완주군 봉동읍 낙평장기로 48", "members_num": 33.0}}, {"type": "Feature", "geometry": {"type": "Point", "coordinates": [126.4423446, 35.4460704]}, "properties": {"name": "순복음구시포교회", "address": "(56408) 전라북도 고창군 상하면 구시포해변길140-13", "members_num": 88.0}}, {"type": "Feature", "geometry": {"type": "Point", "coordinates": [127.1383851, 35.8363162]}, "properties": {"name": "희망찬교회", "address": "(54923) 전북 전주시 덕진구 조경단로 42-2", "members_num": 10.0}}, {"type": "Feature", "geometry": {"type": "Point", "coordinates": [127.5106508, 34.9521774]}, "properties": {"name": "순천생명나무교회", "address": "(57952) 전라남도 순천시 이수로 237, 2층 2호", "members_num": 15.0}}, {"type": "Feature", "geometry": {"type": "Point", "coordinates": [126.9142966, 35.3920532]}, "properties": {"name": "성암교회", "address": "(57207) 전라남도 장성군 북하면 북하성암길63", "members_num": 25.0}}, {"type": "Feature", "geometry": {"type": "Point", "coordinates": [127.5664447, 34.8674466]}, "properties": {"name": "청산화평교회", "address": "(59601) 전라남도 여수시 율촌면 청대길 142-21", "members_num": 30.0}}, {"type": "Feature", "geometry": {"type": "Point", "coordinates": [126.8946854, 35.183472]}, "properties": {"name": "향기교회", "address": "(61105) 광주광역시 북구 비엔날레로141", "members_num": 350.0}}, {"type": "Feature", "geometry": {"type": "Point", "coordinates": [126.9309165, 35.1611548]}, "properties": {"name": "한뜻교회", "address": "(61164) 광주광역시 북구 군왕로 8번길 26", "members_num": 120.0}}, {"type": "Feature", "geometry": {"type": "Point", "coordinates": [126.873364, 35.1018077]}, "properties": {"name": "예장합동", "address": "(61754) 광주광역시 남구 효천2로 26. 501호", "members_num": 18.0}}, {"type": "Feature", "geometry": {"type": "Point", "coordinates": [126.8669604, 35.1566848]}, "properties": {"name": "샤론교회", "address": "(61967) 광주광역시 서구 내방로 240번길10 현대아파트 102ㅡ1501", "members_num": 100.0}}, {"type": "Feature", "geometry": {"type": "Point", "coordinates": [126.6626154, 34.1416566]}, "properties": {"name": "소안미라교회", "address": "(59166) 전남 완도군 소안면 미라리 소안로563", "members_num": 22.0}}, {"type": "Feature", "geometry": {"type": "Point", "coordinates": [126.6469366, 34.1367097]}, "properties": {"name": "합동", "address": "(59166) 전라남도 완도군 소안면 소안로 806", "members_num": 15.0}}, {"type": "Feature", "geometry": {"type": "Point", "coordinates": [126.8560553, 36.0471495]}, "properties": {"name": "나포교회", "address": "(54048) 전라북도 군산시 나포면 혜곡길 19-3 나포교회", "members_num": 60.0}}, {"type": "Feature", "geometry": {"type": "Point", "coordinates": [127.7083642, 34.76532]}, "properties": {"name": "여수선목교회", "address": "(59730) 전라남도 여수시 미평1길 13", "members_num": 35.0}}, {"type": "Feature", "geometry": {"type": "Point", "coordinates": [126.6555543, 34.1203873]}, "properties": {"name": "소안소진교회", "address": "(59166) 전라남도 완도군 소안면 소진길 29-10", "members_num": 12.0}}, {"type": "Feature", "geometry": {"type": "Point", "coordinates": [126.7115965, 35.9670947]}, "properties": {"name": "풍산교회", "address": "(54089) 전북 군산시 축동안2길 31 풍산교회 사무실", "members_num": 150.0}}, {"type": "Feature", "geometry": {"type": "Point", "coordinates": [126.6489626, 35.9107021]}, "properties": {"name": "성남교회", "address": "(54170) 전북특별자치도 군산시 옥서면 양포로 116 성남교회", "members_num": 95.0}}, {"type": "Feature", "geometry": {"type": "Point", "coordinates": [126.6797701, 35.9808695]}, "properties": {"name": "풍원교회", "address": "(54010) 전북 군산시 풍전2길 25(소룡동)", "members_num": 200.0}}, {"type": "Feature", "geometry": {"type": "Point", "coordinates": [126.7099047, 35.9703281]}, "properties": {"name": "군산광성교회", "address": "(54123) 전라북도 군산시 축동로 123-7 1층", "members_num": 40.0}}, {"type": "Feature", "geometry": {"type": "Point", "coordinates": [126.9789503, 35.9565708]}, "properties": {"name": "예문교회", "address": "(54639) 전라북도 익산시 동서로 55길 7", "members_num": 38.0}}, {"type": "Feature", "geometry": {"type": "Point", "coordinates": [127.0255941, 34.3601396]}, "properties": {"name": "금일소망교회", "address": "(591138) 전남 완도군 금일읍 척치길4", "members_num": 45.0}}, {"type": "Feature", "geometry": {"type": "Point", "coordinates": [126.7189308, 34.3648766]}, "properties": {"name": "완도소망교회", "address": "(59104) 전라남도 완도군 완도읍 장좌길31", "members_num": 23.0}}, {"type": "Feature", "geometry": {"type": "Point", "coordinates": [125.9914975, 34.6941127]}, "properties": {"name": "이곡교회", "address": "(58850) 전라남도 신안군 도초면 이곡길 9", "members_num": 60.0}}, {"type": "Feature", "geometry": {"type": "Point", "coordinates": [126.9547889, 35.9535326]}, "properties": {"name": "제일장로교회", "address": "(54619) 전라북도 익산시 동서로 14길 14", "members_num": 50.0}}, {"type": "Feature", "geometry": {"type": "Point", "coordinates": [127.3823527, 35.3967427]}, "properties": {"name": "빛과소금교회", "address": "(전북 남원시 쑥고개로71)", "members_num": 60.0}}, {"type": "Feature", "geometry": {"type": "Point", "coordinates": [127.0606302, 35.99193810000001]}, "properties": {"name": "금마중앙교회", "address": "(54572) 전라북도 익산시 금마면52~2", "members_num": 23.0}}, {"type": "Feature", "geometry": {"type": "Point", "coordinates": [126.8858962, 36.1029647]}, "properties": {"name": "서산동교회", "address": "(54021) 전라북도 익산시 웅포면 서산동길 11-6", "members_num": 25.0}}, {"type": "Feature", "geometry": {"type": "Point", "coordinates": [126.9584022, 35.9533852]}, "properties": {"name": "예닮교회", "address": "(54619) 전북특별자치도 익산시 동서로 222. 2층", "members_num": 30.0}}, {"type": "Feature", "geometry": {"type": "Point", "coordinates": [126.4649061, 34.7436494]}, "properties": {"name": "삼호벧엘교회", "address": "(58459) 전라남도 영암군 삼호읍 삼호중앙로 122 삼호벧엘교회", "members_num": 300.0}}, {"type": "Feature", "geometry": {"type": "Point", "coordinates": [127.406837, 35.842584]}, "properties": {"name": "두남교회", "address": "(55415) 전라북도 진안군 부귀면 두봉길 11", "members_num": 30.0}}, {"type": "Feature", "geometry": {"type": "Point", "coordinates": [126.7382211, 35.9836907]}, "properties": {"name": "구세군동군산교회", "address": "(54043) 전북 군산시 조촌로 214 904동 1704호", "members_num": 50.0}}, {"type": "Feature", "geometry": {"type": "Point", "coordinates": [126.8728916, 35.1967967]}, "properties": {"name": "광주샛별교회", "address": "(61091) 광주광역시 북구 양일로 76-2", "members_num": 120.0}}, {"type": "Feature", "geometry": {"type": "Point", "coordinates": [126.8890761, 35.1792323]}, "properties": {"name": "중앙장로교회", "address": "(61108) 광주 북구 용봉택지로25, 301동 1205호", "members_num": 1000.0}}, {"type": "Feature", "geometry": {"type": "Point", "coordinates": [126.8396693, 35.9086256]}, "properties": {"name": "신창교회", "address": "(54309) 전라북도 김제시 청하면만경로1494,신창교회", "members_num": 200.0}}, {"type": "Feature", "geometry": {"type": "Point", "coordinates": [126.8347181, 35.0834775]}, "properties": {"name": "대촌중앙교회", "address": "(61751) 광주광역시 남구 하지석길21-5", "members_num": 150.0}}, {"type": "Feature", "geometry": {"type": "Point", "coordinates": [126.9310722, 35.9994462]}, "properties": {"name": "신기교회", "address": "(54534) 전라북도 익산시 황등면탑천로199,신기교회", "members_num": 200.0}}, {"type": "Feature", "geometry": {"type": "Point", "coordinates": [126.6051335, 35.1023426]}, "properties": {"name": "함평 신촌교회", "address": "(57132) 전남 함평군 전남 함평군 나산면 백인동길 33", "members_num": 100.0}}, {"type": "Feature", "geometry": {"type": "Point", "coordinates": [127.1244681, 35.8649998]}, "properties": {"name": "주비전교회", "address": "(54829) 전라북도 전주시 덕진구붓내2길30,주비전교회(송천동2가)", "members_num": 100.0}}, {"type": "Feature", "geometry": {"type": "Point", "coordinates": [127.5627771, 34.9672283]}, "properties": {"name": "광양주성교회", "address": "(55760) 전라남도 광양시 광양읍 덕산3길 13 광양주성교회", "members_num": 30.0}}, {"type": "Feature", "geometry": {"type": "Point", "coordinates": [126.4302305, 34.9114568]}, "properties": {"name": "청계제일교회", "address": "(58553) 전라남도 무안군 청계면 도림길 53 청계제일교회 사택 3층", "members_num": 200.0}}, {"type": "Feature", "geometry": {"type": "Point", "coordinates": [126.966223, 34.4649366]}, "properties": {"name": "가학교회", "address": "(59359) 전남 장흥군 회진면 노력도1길 215 노력항다기능대합실(가학교회)", "members_num": 40.0}}, {"type": "Feature", "geometry": {"type": "Point", "coordinates": [127.4513813, 35.2447023]}, "properties": {"name": "대산중앙교회", "address": "(57614) 전라남도 구례군 은행정2길 4", "members_num": 30.0}}, {"type": "Feature", "geometry": {"type": "Point", "coordinates": [126.8565246, 35.5715914]}, "properties": {"name": "포도나무교회", "address": "(전북) 전북 정읍시 성황산길 24-5 포도나무교회 포도나무교회", "members_num": 80.0}}, {"type": "Feature", "geometry": {"type": "Point", "coordinates": [127.1616388, 35.9570238]}, "properties": {"name": "봉동시민교회", "address": "(55324) 전라북도 완주군 봉동읍 봉동로420", "members_num": 10.0}}, {"type": "Feature", "geometry": {"type": "Point", "coordinates": [126.9504746, 35.9186597]}, "properties": {"name": "이리남부교회", "address": "(54678) 전북특별자치도 익산시 신천길 25-4", "members_num": 78.0}}, {"type": "Feature", "geometry": {"type": "Point", "coordinates": [127.5117581, 34.9459321]}, "properties": {"name": "순천침례교회", "address": "(57991) 전남 순천시 충효로 75", "members_num": 209.0}}, {"type": "Feature", "geometry": {"type": "Point", "coordinates": [127.5759845, 34.963919]}, "properties": {"name": "빛된교회", "address": "(57762) 전라남도 광양시 광양읍 회암길 15-12", "members_num": 40.0}}, {"type": "Feature", "geometry": {"type": "Point", "coordinates": [127.1127918, 35.8313809]}, "properties": {"name": "전주서린교회", "address": "(54951) 전북 전주시 완산구 서신천변 15길 11-6", "members_num": 100.0}}, {"type": "Feature", "geometry": {"type": "Point", "coordinates": [127.3454235, 34.8484518]}, "properties": {"name": "벌교중앙교회", "address": "(59423) 전남 보성군 벌교읍 조정래길 54-1 벌교중앙교회", "members_num": 80.0}}, {"type": "Feature", "geometry": {"type": "Point", "coordinates": [127.710535, 34.8760678]}, "properties": {"name": "묘창교회", "address": "(59617) 전라남도 여수시 묘도6길 2~8", "members_num": 30.0}}, {"type": "Feature", "geometry": {"type": "Point", "coordinates": [126.7634456, 35.0469282]}, "properties": {"name": "빛가람중앙교회", "address": "(58211) 전남 나주시 금천면 신가로164", "members_num": 30.0}}, {"type": "Feature", "geometry": {"type": "Point", "coordinates": [127.2809011, 35.6490505]}, "properties": {"name": "용산교회", "address": "(55914) 전북자치도 임실군 관촌면 창인로 23-6", "members_num": 10.0}}, {"type": "Feature", "geometry": {"type": "Point", "coordinates": [127.1218318, 35.8131747]}, "properties": {"name": "전주중동교회", "address": "(54980) 전북특별자치도 전주시 완산구 산월1길 10-5", "members_num": 200.0}}, {"type": "Feature", "geometry": {"type": "Point", "coordinates": [127.1427748, 35.822581]}, "properties": {"name": "기독교한국침례회", "address": "(전북전주시 완산구 태평3길6 3층) 전주산돌침례교회", "members_num": 20.0}}, {"type": "Feature", "geometry": {"type": "Point", "coordinates": [126.5528301, 35.3555467]}, "properties": {"name": "주님의교회", "address": "(56462) 전북 고창군 공음면 공음대산로 448-8", "members_num": 20.0}}, {"type": "Feature", "geometry": {"type": "Point", "coordinates": [127.1146765, 35.8207673]}, "properties": {"name": "열린교회", "address": "(54974) 전북특별자치도 전주시 완산구 화산 천변3길 16-4", "members_num": 60.0}}, {"type": "Feature", "geometry": {"type": "Point", "coordinates": [127.4605648, 35.2142336]}, "properties": {"name": "생명의빛교회", "address": "(57648) 전라남도 구례군 구례읍 동편제길 39-5", "members_num": 100.0}}, {"type": "Feature", "geometry": {"type": "Point", "coordinates": [126.4210948, 34.8133572]}, "properties": {"name": "한울교회", "address": "(58658) 전라남도 목포시 섶나루길 158 한울교회", "members_num": 50.0}}, {"type": "Feature", "geometry": {"type": "Point", "coordinates": [127.1243062, 35.9593476]}, "properties": {"name": "나눔교회", "address": "(55319) 전라북도 완주군 봉동읍 원둔산3길 8-4", "members_num": 30.0}}, {"type": "Feature", "geometry": {"type": "Point", "coordinates": [126.9894673, 35.9513275]}, "properties": {"name": "이리어양교회", "address": "(54567) 전라북도 익산시 선화로 575-13", "members_num": 200.0}}, {"type": "Feature", "geometry": {"type": "Point", "coordinates": [126.8903372, 35.8055633]}, "properties": {"name": "세계로교회", "address": "(54381) 전라북도 김제시 요촌중4길 136(요촌동) 세계로교회 전라북도", "members_num": 20.0}}, {"type": "Feature", "geometry": {"type": "Point", "coordinates": [126.4285081, 34.8884922]}, "properties": {"name": "무안광림교회", "address": "(58556) 전라남도 무안군 청계면 학유정길 16-5", "members_num": 11.0}}, {"type": "Feature", "geometry": {"type": "Point", "coordinates": [126.8593138, 35.7062953]}, "properties": {"name": "서현교회", "address": "(56102) 전라북도 정읍시 신태인읍 대신 1길 14", "members_num": 50.0}}, {"type": "Feature", "geometry": {"type": "Point", "coordinates": [126.8835626, 35.7251139]}, "properties": {"name": "용곽시온교회", "address": "(56108) 전북특별자치도 정읍시 감곡면 용곽길 48", "members_num": 25.0}}, {"type": "Feature", "geometry": {"type": "Point", "coordinates": [126.8422347, 35.7158307]}, "properties": {"name": "화호중앙교회", "address": "(56101) 전북특별자치도 정읍시 신태인읍 화호7길43-5", "members_num": 10.0}}, {"type": "Feature", "geometry": {"type": "Point", "coordinates": [126.9461128, 35.6955933]}, "properties": {"name": "진흥교회", "address": "(56110) 전라북도 정읍시 감곡면 백산감산로 474", "members_num": 30.0}}, {"type": "Feature", "geometry": {"type": "Point", "coordinates": [126.8868588, 35.6865726]}, "properties": {"name": "백광교회", "address": "(전북특별자치도) 정읍시 신태인읍 백산감산리 143", "members_num": 60.0}}, {"type": "Feature", "geometry": {"type": "Point", "coordinates": [126.8653175, 35.6235243]}, "properties": {"name": "대산교회", "address": "(56143) 전라북도 정읍시 정우면 대산1길 84 대산교회", "members_num": 0.0}}, {"type": "Feature", "geometry": {"type": "Point", "coordinates": [127.1156607, 35.8402348]}, "properties": {"name": "주되심교회", "address": "(54889) 전북특별자치도 전주시덕진구 사평로9번지 2층", "members_num": 30.0}}, {"type": "Feature", "geometry": {"type": "Point", "coordinates": [126.7944617, 34.7454239]}, "properties": {"name": "옴천중앙교회", "address": "(59208) 전라남도 강진군 옴천면 개산중앙길 26-5", "members_num": 20.0}}, {"type": "Feature", "geometry": {"type": "Point", "coordinates": [127.7165307, 34.73232850000001]}, "properties": {"name": "한빛교회", "address": "(59757) 전라남도 여수시 국동5길 28", "members_num": 30.0}}, {"type": "Feature", "geometry": {"type": "Point", "coordinates": [127.6673738, 34.7622489]}, "properties": {"name": "여광교회", "address": "(59676) 전라남도 여수시 흥국로 46-3 3층 여광교회", "members_num": 15.0}}, {"type": "Feature", "geometry": {"type": "Point", "coordinates": [127.688929, 34.78392729999999]}, "properties": {"name": "여수새힘교회", "address": "(59632) 전남 여수시 봉계대곡길35", "members_num": 45.0}}, {"type": "Feature", "geometry": {"type": "Point", "coordinates": [127.7581433, 34.5089712]}, "properties": {"name": "원학교회", "address": "(59786) 전라남도 여수시 남면 우두로 57 원학교회", "members_num": 35.0}}, {"type": "Feature", "geometry": {"type": "Point", "coordinates": [127.4937576, 34.7645505]}, "properties": {"name": "여자대동교회", "address": "(59650) 전남 여수시 화정면 여자대동길 45", "members_num": 30.0}}, {"type": "Feature", "geometry": {"type": "Point", "coordinates": [127.6631245, 34.5716872]}, "properties": {"name": "개도중앙교회", "address": "(59783) 전남 여수시 화정면 개도화산길 25", "members_num": 100.0}}, {"type": "Feature", "geometry": {"type": "Point", "coordinates": [127.7040061, 34.7562703]}, "properties": {"name": "동명교회", "address": "(전남) 여수시 문수2길 3-12", "members_num": 0.0}}, {"type": "Feature", "geometry": {"type": "Point", "coordinates": [127.1177247, 35.8601051]}, "properties": {"name": "송천성은교회", "address": "(54834) 전북 전주시 덕진구 송천3길33 타임빌 3동303호", "members_num": 30.0}}, {"type": "Feature", "geometry": {"type": "Point", "coordinates": [126.8757207, 35.14499070000001]}, "properties": {"name": "사랑의빛된교회", "address": "(62037) 광주광역시 서구 화정로180번길 2.", "members_num": 30.0}}, {"type": "Feature", "geometry": {"type": "Point", "coordinates": [126.4957138, 34.1838649]}, "properties": {"name": "방축교회", "address": "(59159) 전라남도 완도군 노화읍 방축길 86", "members_num": 22.0}}, {"type": "Feature", "geometry": {"type": "Point", "coordinates": [127.1497375, 35.3713987]}, "properties": {"name": "순창은혜교회", "address": "(56032) 전북특별자치도 순창군 순창읍 유등로4", "members_num": 10.0}}, {"type": "Feature", "geometry": {"type": "Point", "coordinates": [126.8732071, 35.1364777]}, "properties": {"name": "빌라델비아교회", "address": "(62040) 전라남도 광주광역시 서구 염화로20 102-1704 (화정동, 화정엘리체퍼스티지)", "members_num": 50.0}}, {"type": "Feature", "geometry": {"type": "Point", "coordinates": [126.801113, 34.3972202]}, "properties": {"name": "늘푸른교회", "address": "(59130) 전남 완도군 고금동로 17-38", "members_num": 15.0}}, {"type": "Feature", "geometry": {"type": "Point", "coordinates": [127.1569016, 35.8301674]}, "properties": {"name": "꿈꾸는교회", "address": "(55009) 전북특별자치도 전주시 덕진구인후5길21-4(인후동1가)", "members_num": 50.0}}, {"type": "Feature", "geometry": {"type": "Point", "coordinates": [127.3008439, 35.2796862]}, "properties": {"name": "곡성교회", "address": "(57544) 전라남도 곡성군 오곡면기차마을로295-25,곡성교회", "members_num": 200.0}}, {"type": "Feature", "geometry": {"type": "Point", "coordinates": [126.5538189, 34.458297]}, "properties": {"name": "현산중앙교회", "address": "(59058) 전남 해남군 현산면 탑동리길 1", "members_num": 100.0}}, {"type": "Feature", "geometry": {"type": "Point", "coordinates": [126.9766278, 36.0177158]}, "properties": {"name": "삼기교회", "address": "(54527) 전북특별자치도 익산시 삼기면원서두1길10-9,임마누엘관2층사택", "members_num": 200.0}}, {"type": "Feature", "geometry": {"type": "Point", "coordinates": [127.0111166, 36.0326788]}, "properties": {"name": "연동교회", "address": "(54528) 전북특별자치도 익산시 삼기면진북로322,연동교회", "members_num": 200.0}}, {"type": "Feature", "geometry": {"type": "Point", "coordinates": [127.1223887, 35.796846]}, "properties": {"name": "행복한교회", "address": "(55089) 전라북도 전주시 완산구용리로116,116(삼천동1가)", "members_num": 200.0}}, {"type": "Feature", "geometry": {"type": "Point", "coordinates": [127.3638941, 34.717948]}, "properties": {"name": "거야교회", "address": "(59509) 전남 고흥군 남양면 송정안길47 거야교회", "members_num": 200.0}}, {"type": "Feature", "geometry": {"type": "Point", "coordinates": [126.8098277, 35.1450742]}, "properties": {"name": "신촌중앙교회", "address": "(62376) 광주 광산구 사암로24번길60-7,304호(신촌동,정석그린아파트)", "members_num": 200.0}}, {"type": "Feature", "geometry": {"type": "Point", "coordinates": [127.0797938, 34.7658305]}, "properties": {"name": "빛교회", "address": "(59458) 전남 보성군 전남 보성군 보성읍 현충로 92~1", "members_num": 10.0}}, {"type": "Feature", "geometry": {"type": "Point", "coordinates": [127.7377599, 34.7515076]}, "properties": {"name": "좋은우리교회", "address": "(59726) 전라남도 여수시 종고산길16,좋은우리교회(덕충동)", "members_num": 100.0}}, {"type": "Feature", "geometry": {"type": "Point", "coordinates": [126.8087569, 35.1572474]}, "properties": {"name": "이레교회", "address": "(62366) 광주 광산구 우산로73번길10-20,이레교회(우산동)", "members_num": 200.0}}, {"type": "Feature", "geometry": {"type": "Point", "coordinates": [126.4261565, 34.9065635]}, "properties": {"name": "에코디교회", "address": "(58556) 전라남도 무안군 청계면백련동1길17-4,건물1층", "members_num": 200.0}}, {"type": "Feature", "geometry": {"type": "Point", "coordinates": [127.523298, 34.9490801]}, "properties": {"name": "순천명성교회", "address": "(57982) 전라남도 순천시 상대석1길 33-13", "members_num": 200.0}}, {"type": "Feature", "geometry": {"type": "Point", "coordinates": [126.7220743, 35.9847427]}, "properties": {"name": "성복음교회", "address": "(54030) 전라북도 군산시 신금길49,2층성복음교회(중동)", "members_num": 100.0}}, {"type": "Feature", "geometry": {"type": "Point", "coordinates": [127.6117147, 35.5096834]}, "properties": {"name": "아영중앙교회", "address": "(55712) 전라북도 남원시 아영면 흥부로 16 아영중앙교회 1층 사택", "members_num": 35.0}}, {"type": "Feature", "geometry": {"type": "Point", "coordinates": [127.6030376, 35.2033321]}, "properties": {"name": "외곡교회", "address": "(57623) 전라남도 구례군 토지면피아골로36-1,외곡교회", "members_num": 40.0}}, {"type": "Feature", "geometry": {"type": "Point", "coordinates": [126.8360824, 35.1868227]}, "properties": {"name": "세빛교회", "address": "(62298) 광주 광산구 신가삼효로30-1,세빛교회(신가동)", "members_num": 200.0}}, {"type": "Feature", "geometry": {"type": "Point", "coordinates": [126.4654846, 34.8112387]}, "properties": {"name": "남악우리교회", "address": "(58567) 전라남도 무안군 삼향읍 대죽동로16번길22, 403호", "members_num": 40.0}}, {"type": "Feature", "geometry": {"type": "Point", "coordinates": [127.1221798, 35.86573]}, "properties": {"name": "선한마음교회", "address": "(54829) 전라북도 전주시 덕진구송천중앙로214,3층선한마음교회(송천동2가)", "members_num": 100.0}}, {"type": "Feature", "geometry": {"type": "Point", "coordinates": [126.7864193, 35.7027577]}, "properties": {"name": "백산중앙교회", "address": "(56323) 전라북도 부안군 백산면백산로319,백산중앙교회", "members_num": 120.0}}, {"type": "Feature", "geometry": {"type": "Point", "coordinates": [127.283885, 35.4091888]}, "properties": {"name": "감동교회", "address": "(55780) 전라북도 남원시 대산면감동1길31,번지", "members_num": 50.0}}, {"type": "Feature", "geometry": {"type": "Point", "coordinates": [127.1154293, 35.8127655]}, "properties": {"name": "처음사랑교회", "address": "(55051) 전라북도 전주시 완산구서원로192,(2층)처음사랑교회(효자동1가)", "members_num": 50.0}}, {"type": "Feature", "geometry": {"type": "Point", "coordinates": [127.7039578, 34.7499519]}, "properties": {"name": "예수촌교회", "address": "(59710) 전라남도 여수시 여문2로191,상가2층예수촌교회(여서동,현대산업아파트)", "members_num": 50.0}}, {"type": "Feature", "geometry": {"type": "Point", "coordinates": [126.4085557, 35.2588659]}, "properties": {"name": "월흥교회", "address": "(57063) 전라남도 영광군 군남면 월죽로 94 월흥교화", "members_num": 25.0}}, {"type": "Feature", "geometry": {"type": "Point", "coordinates": [126.1783806, 35.0764639]}, "properties": {"name": "본향교회", "address": "(58812) 전라남도 신안군 지도읍 해제지도로 1437-22", "members_num": 30.0}}, {"type": "Feature", "geometry": {"type": "Point", "coordinates": [126.9679212, 35.9472428]}, "properties": {"name": "진리의빛교회", "address": "(54628) 전라북도 익산시 선화로57길 14", "members_num": 30.0}}, {"type": "Feature", "geometry": {"type": "Point", "coordinates": [127.0406306, 36.0913754]}, "properties": {"name": "은혜교회", "address": "(54517) 전라북도 익산시 망성면 망성로 219-12", "members_num": 30.0}}, {"type": "Feature", "geometry": {"type": "Point", "coordinates": [127.6005427, 34.7970915]}, "properties": {"name": "봉두교회", "address": "(59608) 전라남도 여수시 소라면 당촌길 57", "members_num": 55.0}}, {"type": "Feature", "geometry": {"type": "Point", "coordinates": [127.6098692, 34.8426719]}, "properties": {"name": "성암교회", "address": "(56905) 전남 여수시 율촌면 봉산길 8", "members_num": 135.0}}, {"type": "Feature", "geometry": {"type": "Point", "coordinates": [127.5198262, 34.9717765]}, "properties": {"name": "전남동부교회", "address": "(57933) 전남 순천시 비봉길 6 서해골드빌 상가동 2층", "members_num": 20.0}}, {"type": "Feature", "geometry": {"type": "Point", "coordinates": [127.1235843, 35.8642499]}, "properties": {"name": "아름다운교회", "address": "(54829) 전라북도 전주시 덕진구 붓내1길 18", "members_num": 50.0}}, {"type": "Feature", "geometry": {"type": "Point", "coordinates": [126.954266, 36.0131992]}, "properties": {"name": "율촌교회", "address": "(54531) 전라북도 익산시 황등면율동길55", "members_num": 100.0}}, {"type": "Feature", "geometry": {"type": "Point", "coordinates": [126.9528565, 35.9397835]}, "properties": {"name": "이리침례교회", "address": "(54594) 전라북도 익산시 익산대로16길 51", "members_num": 220.0}}, {"type": "Feature", "geometry": {"type": "Point", "coordinates": [126.8715813, 35.2054236]}, "properties": {"name": "주빛교회", "address": "(61077) 광주 북구 연양로 40번길 18-3", "members_num": 30.0}}, {"type": "Feature", "geometry": {"type": "Point", "coordinates": [127.6938283, 34.7549199]}, "properties": {"name": "여수나눔교회", "address": "(59703) 전라나모 여수시 여문 2로 77-8", "members_num": 22.0}}]}