{"type": "FeatureCollection", "features": [{"type": "Feature", "geometry": {"type": "Point", "coordinates": [127.0470557, 37.6826561]}, "properties": {"name": "꿈이있는교회", "address": "(01320) 서울 도봉구 도봉로 180길20", "members_num": 4.0}}, {"type": "Feature", "geometry": {"type": "Point", "coordinates": [126.9452283, 37.4834748]}, "properties": {"name": "순복음예푸른교회", "address": "(08752) 서울 관악구 양녕로1길 19 지하 1층", "members_num": 40.0}}, {"type": "Feature", "geometry": {"type": "Point", "coordinates": [127.1076979, 37.6043319]}, "properties": {"name": "북부병원교회", "address": "(02062) 서울 중랑구 양원역로 38", "members_num": 20.0}}, {"type": "Feature", "geometry": {"type": "Point", "coordinates": [127.036718, 37.6449228]}, "properties": {"name": "새영광교회", "address": "(01458) 서울 도봉구 도봉로 110라길 9 (2층)", "members_num": 20.0}}, {"type": "Feature", "geometry": {"type": "Point", "coordinates": [126.912825, 37.4881179]}, "properties": {"name": "반석교회", "address": "(07067) 서울 동작구 신대방 2가길 1", "members_num": 7.0}}, {"type": "Feature", "geometry": {"type": "Point", "coordinates": [127.0473535, 37.47544450000001]}, "properties": {"name": "사랑샘교회", "address": "(06312) 서울 강남구 개포동1228-4 2층", "members_num": 10.0}}, {"type": "Feature", "geometry": {"type": "Point", "coordinates": [126.9307548, 37.5010548]}, "properties": {"name": "대은교회", "address": "(06952) 서울 동작구 상도로 13다길 6", "members_num": 200.0}}, {"type": "Feature", "geometry": {"type": "Point", "coordinates": [127.0946021, 37.6092678]}, "properties": {"name": "언약과빛교회", "address": "(02043) 서울 중랑구 신내로115 상가동1층108호", "members_num": 7.0}}, {"type": "Feature", "geometry": {"type": "Point", "coordinates": [126.8908313, 37.4546252]}, "properties": {"name": "성민교회", "address": "(08599) 서울 금천구 금하로1길70", "members_num": 150.0}}, {"type": "Feature", "geometry": {"type": "Point", "coordinates": [126.9464255, 37.5668489]}, "properties": {"name": "대신교회", "address": "(03721) 서울 서대문구 성산로567 2층", "members_num": 400.0}}, {"type": "Feature", "geometry": {"type": "Point", "coordinates": [126.9126875, 37.5813431]}, "properties": {"name": "애신교회", "address": "(03682) 서울 서대문구 응암로 98, 3층", "members_num": 40.0}}, {"type": "Feature", "geometry": {"type": "Point", "coordinates": [126.90283, 37.4396101]}, "properties": {"name": "예수사랑교회", "address": "(08565) 서울 금천구 시흥대로61한양화학4층 예수사랑교회", "members_num": 23.0}}, {"type": "Feature", "geometry": {"type": "Point", "coordinates": [127.0803084, 37.5988932]}, "properties": {"name": "대로순복음교회", "address": "(02094) 서울 중랑구 동일로766 세화빌딩4층", "members_num": 40.0}}, {"type": "Feature", "geometry": {"type": "Point", "coordinates": [126.9213842, 37.4685545]}, "properties": {"name": "김재효", "address": "(08856) 서울 관악구 난곡로 24길 43", "members_num": 12.0}}, {"type": "Feature", "geometry": {"type": "Point", "coordinates": [127.0181195, 37.5428604]}, "properties": {"name": "남강교회", "address": "(04739) 서울 성동구 옥수동 독서당길 40길 31", "members_num": 60.0}}, {"type": "Feature", "geometry": {"type": "Point", "coordinates": [126.9031807, 37.4973394]}, "properties": {"name": "하늘문교회", "address": "(07409) 서울 영등포구 도림로59길 4", "members_num": 25.0}}, {"type": "Feature", "geometry": {"type": "Point", "coordinates": [126.8435986, 37.5479541]}, "properties": {"name": "좋은감리교회", "address": "(07690) 서울 강서구 우현로32", "members_num": 300.0}}, {"type": "Feature", "geometry": {"type": "Point", "coordinates": [127.0786288, 37.6159587]}, "properties": {"name": "우리교회", "address": "(02032) 서울 중랑구 묵동162-4", "members_num": 5.0}}, {"type": "Feature", "geometry": {"type": "Point", "coordinates": [126.9238649, 37.607122]}, "properties": {"name": "십자가순복음교회", "address": "(03378) 서울 은평구 진흥로120-1 3층", "members_num": 8.0}}, {"type": "Feature", "geometry": {"type": "Point", "coordinates": [126.8455941, 37.5474514]}, "properties": {"name": "민들레순복음교회", "address": "(07689) 서울 강서구 화곡로 43길28 유니스빌딩2층", "members_num": 3.0}}, {"type": "Feature", "geometry": {"type": "Point", "coordinates": [127.0755125, 37.5574495]}, "properties": {"name": "드보라선교교회", "address": "(04994) 서울 광진구 서울시 광진구 천호대로104길23", "members_num": 11.0}}, {"type": "Feature", "geometry": {"type": "Point", "coordinates": [126.9543353, 37.4847944]}, "properties": {"name": "남서울우리교회", "address": "(남서울우리교회) 서울 관악구 관악로25길", "members_num": 120.0}}, {"type": "Feature", "geometry": {"type": "Point", "coordinates": [126.8185967, 37.5670441]}, "properties": {"name": "순복음평강교회", "address": "(07599) 서울 강서구 서울시 강서구 마곡중앙5로 81 에스비타운 1108호", "members_num": 40.0}}, {"type": "Feature", "geometry": {"type": "Point", "coordinates": [126.8828503, 37.5204078]}, "properties": {"name": "두드림교회", "address": "(07283) 서울 영등포구 문래로 4길 6 현대2차아파트 상가3층", "members_num": 15.0}}, {"type": "Feature", "geometry": {"type": "Point", "coordinates": [126.9234585, 37.554398]}, "properties": {"name": "은혜로사는교회", "address": "(04055) 서울 마포구 와우산로23길 35 1층 103호", "members_num": 8.0}}, {"type": "Feature", "geometry": {"type": "Point", "coordinates": [126.8474433, 37.5165217]}, "properties": {"name": "우리교회", "address": "(08070) 서울 양천구 중앙로29길55 신안약수아파트 103-809", "members_num": 9.0}}, {"type": "Feature", "geometry": {"type": "Point", "coordinates": [126.9155328, 37.4850041]}, "properties": {"name": "그리스도생명교회", "address": "(08762) 서울 관악구 조원로118,2층", "members_num": 10.0}}, {"type": "Feature", "geometry": {"type": "Point", "coordinates": [126.9165419, 37.5102932]}, "properties": {"name": "신일교회", "address": "(07349) 서울 영등포구 신길동137-34", "members_num": 12.0}}, {"type": "Feature", "geometry": {"type": "Point", "coordinates": [126.8363345, 37.5356214]}, "properties": {"name": "영광의복음", "address": "(07761) 서울 강서구 월정로 30길 27", "members_num": 30.0}}, {"type": "Feature", "geometry": {"type": "Point", "coordinates": [127.078589, 37.616201]}, "properties": {"name": "우리교회", "address": "(02032) 서울 중랑구 묵동162-4 2층우리교회", "members_num": 5.0}}, {"type": "Feature", "geometry": {"type": "Point", "coordinates": [127.0745157, 37.6630427]}, "properties": {"name": "노원은목교회", "address": "(01661) 서울 노원구 상계로 193-14 상계대림아파트 상가 202호", "members_num": 5.0}}, {"type": "Feature", "geometry": {"type": "Point", "coordinates": [126.9307548, 37.5010548]}, "properties": {"name": "대은교회", "address": "(152-810) 서울 동작구 상도로 13다길 6", "members_num": 220.0}}, {"type": "Feature", "geometry": {"type": "Point", "coordinates": [126.9124435, 37.4830196]}, "properties": {"name": "디딤교회", "address": "(08767) 서울 관악구 신림동 540-11", "members_num": 10.0}}, {"type": "Feature", "geometry": {"type": "Point", "coordinates": [126.9730744, 37.5760486]}, "properties": {"name": "광주안디옥경복궁지성전", "address": "(03044) 서울 종로구 사직로 127-14 다자연빌딩 지하1층", "members_num": 20.0}}, {"type": "Feature", "geometry": {"type": "Point", "coordinates": [127.0513771, 37.6332224]}, "properties": {"name": "새꿈교회", "address": "(01868) 서울 노원구 초안산로5길 22 월계대우아파트 상가동", "members_num": 15.0}}, {"type": "Feature", "geometry": {"type": "Point", "coordinates": [126.9921272, 37.4850411]}, "properties": {"name": "현대교회", "address": "(06680) 서울 서초구 방배로19길50 현대교", "members_num": 200.0}}, {"type": "Feature", "geometry": {"type": "Point", "coordinates": [126.9320973, 37.6058436]}, "properties": {"name": "꿈이있는교회", "address": "(03382) 서울 은평구 녹번로 6길 7-1", "members_num": 50.0}}, {"type": "Feature", "geometry": {"type": "Point", "coordinates": [126.8924043, 37.4889293]}, "properties": {"name": "평강교회", "address": "(08371) 서울 구로구 디지털로 31길 90 삼성래미안상가 3층 평강교회", "members_num": 100.0}}, {"type": "Feature", "geometry": {"type": "Point", "coordinates": [127.0867181, 37.5468327]}, "properties": {"name": "예수사랑소망교회", "address": "(04993) 서울 광진구 자양로35길7-5번지 2층", "members_num": 2.0}}, {"type": "Feature", "geometry": {"type": "Point", "coordinates": [127.0350683, 37.6612605]}, "properties": {"name": "행복한교회", "address": "(01389) 서울 도봉구 도당로 36 4층", "members_num": 35.0}}, {"type": "Feature", "geometry": {"type": "Point", "coordinates": [126.8217543, 37.4972806]}, "properties": {"name": "축복교회", "address": "(08259) 서울 구로구 부일로9길 137", "members_num": 15.0}}, {"type": "Feature", "geometry": {"type": "Point", "coordinates": [127.067143, 37.4544967]}, "properties": {"name": "내곡교회", "address": "(06801) 서울 서초구 능안말길 16-5", "members_num": 200.0}}, {"type": "Feature", "geometry": {"type": "Point", "coordinates": [126.9115363, 37.5633389]}, "properties": {"name": "하늘과땅이만나는교회", "address": "(03966) 서울 마포구 성산로 158", "members_num": 200.0}}, {"type": "Feature", "geometry": {"type": "Point", "coordinates": [126.8622574, 37.521342]}, "properties": {"name": "산정교회", "address": "(08087) 서울 양천구 은행정로 4길 23", "members_num": 26.0}}, {"type": "Feature", "geometry": {"type": "Point", "coordinates": [127.1429511, 37.4981841]}, "properties": {"name": "새비전교회", "address": "(05736) 서울 송파구 거마로 7길 44", "members_num": 50.0}}, {"type": "Feature", "geometry": {"type": "Point", "coordinates": [126.9988344, 37.4885585]}, "properties": {"name": "형통교회", "address": "(06661) 서울 서초구 방배동 883~15 1층", "members_num": 17.0}}, {"type": "Feature", "geometry": {"type": "Point", "coordinates": [127.1362602, 37.5297168]}, "properties": {"name": "능력교회", "address": "(05376) 서울 강동구 풍성로57길16 B1", "members_num": 12.0}}, {"type": "Feature", "geometry": {"type": "Point", "coordinates": [127.1177434, 37.4984787]}, "properties": {"name": "가락동교회", "address": "(05711) 서울 송파구 송이로 14길 15-4", "members_num": 300.0}}, {"type": "Feature", "geometry": {"type": "Point", "coordinates": [126.9575389, 37.4857263]}, "properties": {"name": "하늘꿈의교회", "address": "(08735) 서울 관악구 관악로24길 70 2층", "members_num": 20.0}}, {"type": "Feature", "geometry": {"type": "Point", "coordinates": [126.9364994, 37.4849614]}, "properties": {"name": "오직예수교회", "address": "(08756) 서울 관악구 봉천로348", "members_num": 6.0}}, {"type": "Feature", "geometry": {"type": "Point", "coordinates": [126.9155998, 37.5902541]}, "properties": {"name": "시온교회", "address": "(03484) 서울 은평구 가좌로9길12-8", "members_num": 5.0}}, {"type": "Feature", "geometry": {"type": "Point", "coordinates": [126.9365259, 37.5451883]}, "properties": {"name": "하늘가족교회", "address": "(04122) 서울 마포구 독막로 28길 46", "members_num": 800.0}}, {"type": "Feature", "geometry": {"type": "Point", "coordinates": [126.9395669, 37.5440823]}, "properties": {"name": "마포밀알선교단", "address": "(04150) 서울 마포구 대흥로8길15 (2층)", "members_num": 70.0}}, {"type": "Feature", "geometry": {"type": "Point", "coordinates": [127.0437127, 37.5448781]}, "properties": {"name": "서울엘림교회", "address": "(04769) 서울 성동구 성수동1가 685-696", "members_num": 15.0}}, {"type": "Feature", "geometry": {"type": "Point", "coordinates": [127.1164634, 37.5120004]}, "properties": {"name": "순복음베데스다교회", "address": "(05632) 서울 송파구 위위례성대로6길 40 두레빌딩 3층 301호", "members_num": 20.0}}, {"type": "Feature", "geometry": {"type": "Point", "coordinates": [126.8328286, 37.5222681]}, "properties": {"name": "산소망교회", "address": "(08037) 서울 양천구 지양로9길2 2층", "members_num": 20.0}}, {"type": "Feature", "geometry": {"type": "Point", "coordinates": [126.8499879, 37.5038711]}, "properties": {"name": "강서교회", "address": "(08246) 서울 구로구 고척로 33길 7", "members_num": 150.0}}, {"type": "Feature", "geometry": {"type": "Point", "coordinates": [126.9122362, 37.5790684]}, "properties": {"name": "예수등대교회", "address": "(03683) 서울 서대문구 응암로 80 (2층)", "members_num": 25.0}}, {"type": "Feature", "geometry": {"type": "Point", "coordinates": [127.1310238, 37.4782022]}, "properties": {"name": "회복교회", "address": "(05813) 서울 송파구 송파대로 8길 20 파인타운아파트 1008동 306호", "members_num": 30.0}}, {"type": "Feature", "geometry": {"type": "Point", "coordinates": [127.0947268, 37.6119852]}, "properties": {"name": "영안장로교회", "address": "(신내아파트 908-703) 서울 중랑구 신내로 127", "members_num": 0.0}}, {"type": "Feature", "geometry": {"type": "Point", "coordinates": [126.9203098, 37.6080781]}, "properties": {"name": "우리가교회", "address": "(03404) 서울 은평구 역말로 100, 1층", "members_num": 10.0}}, {"type": "Feature", "geometry": {"type": "Point", "coordinates": [126.9080031, 37.5517443]}, "properties": {"name": "성산성결교회", "address": "(04021) 서울 마포구 포은로 30", "members_num": 150.0}}, {"type": "Feature", "geometry": {"type": "Point", "coordinates": [127.1011914, 37.4657816]}, "properties": {"name": "강남선한목자교회", "address": "(06376) 서울 강남구 헌릉로 569 강남리더스프라자 8층", "members_num": 300.0}}, {"type": "Feature", "geometry": {"type": "Point", "coordinates": [127.0166858, 37.6424984]}, "properties": {"name": "TPH교회", "address": "(01041) 서울 강북구 삼양로 438 한일빌딩 5층", "members_num": 30.0}}, {"type": "Feature", "geometry": {"type": "Point", "coordinates": [126.9521198, 37.47511]}, "properties": {"name": "사랑교회", "address": "(08833) 서울 관악구 관악로 5길42 101동102호 갑을@", "members_num": 16.0}}, {"type": "Feature", "geometry": {"type": "Point", "coordinates": [127.0352634, 37.6665117]}, "properties": {"name": "영신교회", "address": "(01355) 서울 도봉구 도당로 83", "members_num": 50.0}}, {"type": "Feature", "geometry": {"type": "Point", "coordinates": [127.006433, 37.5877074]}, "properties": {"name": "혜화성결교회", "address": "(02866) 서울 성북구 삼선교로 2길 7-7", "members_num": 70.0}}, {"type": "Feature", "geometry": {"type": "Point", "coordinates": [127.0169798, 37.6278686]}, "properties": {"name": "은혜교회", "address": "(01104) 서울 강북구 삼양로69길 9", "members_num": 200.0}}, {"type": "Feature", "geometry": {"type": "Point", "coordinates": [126.8108148, 37.5724296]}, "properties": {"name": "본처치", "address": "(07603) 서울 강서구 서울 강서구 양천로14길 9", "members_num": 3.0}}, {"type": "Feature", "geometry": {"type": "Point", "coordinates": [126.9209027, 37.57426830000001]}, "properties": {"name": "모래내교회", "address": "(03710) 서울 서대문구 거북골로 105", "members_num": 200.0}}, {"type": "Feature", "geometry": {"type": "Point", "coordinates": [126.8417038, 37.5385582]}, "properties": {"name": "크로스러브처치", "address": "(07720) 서울 강서구 화곡동 400-41,2층", "members_num": 5.0}}, {"type": "Feature", "geometry": {"type": "Point", "coordinates": [126.9043125, 37.4496892]}, "properties": {"name": "한우리침례교회", "address": "(08631) 서울 금천구 독산로 13", "members_num": 20.0}}, {"type": "Feature", "geometry": {"type": "Point", "coordinates": [127.1083517, 37.6076531]}, "properties": {"name": "밸런스교회", "address": "(02057) 서울 중랑구 양원역로10길47 중랑숲시티프라디움 204동 1503호", "members_num": 12.0}}, {"type": "Feature", "geometry": {"type": "Point", "coordinates": [127.0317101, 37.6612909]}, "properties": {"name": "동성교회", "address": "(01383) 서울 도봉구 방학로 187, 3층", "members_num": 70.0}}, {"type": "Feature", "geometry": {"type": "Point", "coordinates": [126.9457079, 37.4791842]}, "properties": {"name": "생명샘교회", "address": "(ㆍ) 서울 관악구 청룡동쑥고개로84 생명샘교회", "members_num": 300.0}}, {"type": "Feature", "geometry": {"type": "Point", "coordinates": [126.8301631, 37.5324873]}, "properties": {"name": "이음교회", "address": "(07915) 서울 양천구 남부순환로 390 3층", "members_num": 30.0}}, {"type": "Feature", "geometry": {"type": "Point", "coordinates": [127.0597664, 37.6111139]}, "properties": {"name": "에덴축복교회", "address": "(02783) 서울 성북구 석관동 화랑로 38길 21", "members_num": 25.0}}, {"type": "Feature", "geometry": {"type": "Point", "coordinates": [127.0137778, 37.579137]}, "properties": {"name": "남부교회", "address": "(03094) 서울 종로구 지봉로101-5", "members_num": 570.0}}, {"type": "Feature", "geometry": {"type": "Point", "coordinates": [126.8319475, 37.5229833]}, "properties": {"name": "열방교회", "address": "(08037) 서울 양천구 지양로 91 2층 201호", "members_num": 2.0}}, {"type": "Feature", "geometry": {"type": "Point", "coordinates": [126.908597, 37.5704393]}, "properties": {"name": "소명교회", "address": "(03944) 서울 마포구 성암로79 현대상가2층", "members_num": 44.0}}, {"type": "Feature", "geometry": {"type": "Point", "coordinates": [126.8595819, 37.5543371]}, "properties": {"name": "은혜숲교회", "address": "(07570) 서울 강서구 공항대로53가길 6, 정훈빌딩 2층", "members_num": 10.0}}, {"type": "Feature", "geometry": {"type": "Point", "coordinates": [126.9344389, 37.4973777]}, "properties": {"name": "예닮교회", "address": "(07044) 서울 동작구 성대로10가길5", "members_num": 150.0}}, {"type": "Feature", "geometry": {"type": "Point", "coordinates": [127.0033238, 37.4763206]}, "properties": {"name": "새로운교회", "address": "(1) 서울 서초구 방배로2길24-5", "members_num": 5000.0}}, {"type": "Feature", "geometry": {"type": "Point", "coordinates": [127.0959885, 37.6053179]}, "properties": {"name": "시온열방교회", "address": "(02069) 서울 중랑구 신내로12길11 3층", "members_num": 30.0}}, {"type": "Feature", "geometry": {"type": "Point", "coordinates": [127.0658716, 37.5917587]}, "properties": {"name": "사랑의교회", "address": "(02436) 서울 동대문구 망우로23길9", "members_num": 0.0}}, {"type": "Feature", "geometry": {"type": "Point", "coordinates": [127.0314792, 37.5984094]}, "properties": {"name": "예수기쁨교회", "address": "(02804) 서울 성북구 종암로19가길 34 노블레스타운 102동 B01호", "members_num": 10.0}}, {"type": "Feature", "geometry": {"type": "Point", "coordinates": [127.1477829, 37.5014873]}, "properties": {"name": "주님의교회", "address": "(05732) 서울 송파구 성내천로 179, 2층", "members_num": 29.0}}, {"type": "Feature", "geometry": {"type": "Point", "coordinates": [126.9111851, 37.4992969]}, "properties": {"name": "예수님처럼예닮교회", "address": "(07430) 서울 영등포구 대방천로 181-1 4층", "members_num": 30.0}}, {"type": "Feature", "geometry": {"type": "Point", "coordinates": [126.9186524, 37.5748132]}, "properties": {"name": "향산교회", "address": "(03710) 서울 서대문구 가재울로 75 -42 (남가좌동)", "members_num": 300.0}}, {"type": "Feature", "geometry": {"type": "Point", "coordinates": [126.8359294, 37.5199868]}, "properties": {"name": "물댄동산교회", "address": "(08040) 서울 양천구 남부순환로 72길 20", "members_num": 20.0}}, {"type": "Feature", "geometry": {"type": "Point", "coordinates": [127.1054435, 37.49949489999999]}, "properties": {"name": "한길교회", "address": "(05695) 서울 송파구 송파대로37길70,202", "members_num": 30.0}}, {"type": "Feature", "geometry": {"type": "Point", "coordinates": [126.9289346, 37.4628966]}, "properties": {"name": "주영광교회", "address": "(08848) 서울 관악구 호암로467", "members_num": 200.0}}, {"type": "Feature", "geometry": {"type": "Point", "coordinates": [126.8352563, 37.5442256]}, "properties": {"name": "영광새교회", "address": "(07709) 서울 강서구 강서로 39길42 2층", "members_num": 7.0}}, {"type": "Feature", "geometry": {"type": "Point", "coordinates": [126.925974, 37.63204899999999]}, "properties": {"name": "산소망교회", "address": "(03331) 서울 은평구 진관1로55 301-1002", "members_num": 10.0}}, {"type": "Feature", "geometry": {"type": "Point", "coordinates": [126.9037593, 37.4483591]}, "properties": {"name": "새동산교회", "address": "(08649) 서울 금천구 독산로2길6", "members_num": 100.0}}, {"type": "Feature", "geometry": {"type": "Point", "coordinates": [126.9621795, 37.5399479]}, "properties": {"name": "겨자나무교회", "address": "(04317) 서울 용산구 서울특별시 용산구 효창원로62길 7-6(효창동)", "members_num": 20.0}}, {"type": "Feature", "geometry": {"type": "Point", "coordinates": [126.9589418, 37.60664]}, "properties": {"name": "구기동교회", "address": "(03013) 서울 종로구 세검정로9길93", "members_num": 15.0}}, {"type": "Feature", "geometry": {"type": "Point", "coordinates": [127.0576112, 37.672232]}, "properties": {"name": "상계경신", "address": "(01629) 서울 노원구 동일로230가길 16", "members_num": 200.0}}, {"type": "Feature", "geometry": {"type": "Point", "coordinates": [127.1466977, 37.5390979]}, "properties": {"name": "동서울광염교회", "address": "(05345) 서울 강동구 서울 강동구 명일로 230 삼보프리빌 3층 동서울광염교회", "members_num": 30.0}}, {"type": "Feature", "geometry": {"type": "Point", "coordinates": [127.0137778, 37.579137]}, "properties": {"name": "남부교회", "address": "(03094) 서울 종로구 지봉로 101-5", "members_num": 400.0}}, {"type": "Feature", "geometry": {"type": "Point", "coordinates": [127.0615912, 37.6519813]}, "properties": {"name": "첫걸음교회", "address": "(01751) 서울 노원구 동일로 1382 올림피아빌딩 4층", "members_num": 20.0}}, {"type": "Feature", "geometry": {"type": "Point", "coordinates": [126.9140574, 37.5092637]}, "properties": {"name": "재건영등포교회", "address": "(07348) 서울 영등포구 도신로48길 19-4", "members_num": 116.0}}, {"type": "Feature", "geometry": {"type": "Point", "coordinates": [126.9129748, 37.5158303]}, "properties": {"name": "재건남서울교회", "address": "(07310) 서울 영등포구 신길로 62길 3-1", "members_num": 60.0}}, {"type": "Feature", "geometry": {"type": "Point", "coordinates": [126.8357403, 37.5199365]}, "properties": {"name": "강서나눔교회", "address": "(08040) 서울 양천구 지양로 42 3층", "members_num": 15.0}}, {"type": "Feature", "geometry": {"type": "Point", "coordinates": [126.9741272, 37.4816444]}, "properties": {"name": "방배교회", "address": "(07011) 서울 동작구 사당로16길 27 1층", "members_num": 20.0}}, {"type": "Feature", "geometry": {"type": "Point", "coordinates": [126.9730417, 37.48636430000001]}, "properties": {"name": "광선교회", "address": "(07005) 서울 동작구 사당로17길8 대림프라자상가3층", "members_num": 30.0}}, {"type": "Feature", "geometry": {"type": "Point", "coordinates": [126.9663949, 37.4872087]}, "properties": {"name": "더주님교회", "address": "(07030) 서울 동작구 사당로 741 3층 301호", "members_num": 20.0}}, {"type": "Feature", "geometry": {"type": "Point", "coordinates": [126.978869, 37.4777951]}, "properties": {"name": "사당평강교회", "address": "(07025) 서울 동작구 동작대로7길71,2층", "members_num": 40.0}}, {"type": "Feature", "geometry": {"type": "Point", "coordinates": [126.9203288, 37.4740166]}, "properties": {"name": "서울평강교회", "address": "(08852) 서울 관악구 법원단지길 52", "members_num": 30.0}}, {"type": "Feature", "geometry": {"type": "Point", "coordinates": [127.0163708, 37.6461282]}, "properties": {"name": "성령이불타는교회", "address": "(01038) 서울 강북구 삼양로 482", "members_num": 200.0}}, {"type": "Feature", "geometry": {"type": "Point", "coordinates": [126.9557322, 37.4792837]}, "properties": {"name": "하임교회", "address": "(08789) 서울 관악구 봉천로 522 2층", "members_num": 20.0}}, {"type": "Feature", "geometry": {"type": "Point", "coordinates": [127.0432346, 37.67535489999999]}, "properties": {"name": "창대교회", "address": "(01308) 서울 도봉구 도봉로169나길 97", "members_num": 4.0}}, {"type": "Feature", "geometry": {"type": "Point", "coordinates": [127.1350968, 37.493784]}, "properties": {"name": "가락로고스", "address": "(05782) 서울 송파구 동남로18길41 3츰", "members_num": 10.0}}, {"type": "Feature", "geometry": {"type": "Point", "coordinates": [127.1121343, 37.4969143]}, "properties": {"name": "푸르내교회", "address": "(05854) 서울 송파구 송파대로 201 테라타워2 A동 215호 푸르내교회", "members_num": 20.0}}, {"type": "Feature", "geometry": {"type": "Point", "coordinates": [126.8369948, 37.5192264]}, "properties": {"name": "생수교회", "address": "(08041) 서울 양천구 지양로2길29 2층", "members_num": 10.0}}, {"type": "Feature", "geometry": {"type": "Point", "coordinates": [127.0267959, 37.504036]}, "properties": {"name": "시온의교회", "address": "(06123) 서울 강남구 봉은사로6길 16 대동빌딩 B1", "members_num": 45.0}}, {"type": "Feature", "geometry": {"type": "Point", "coordinates": [127.0352699, 37.5115025]}, "properties": {"name": "강남성결교회", "address": "(06107) 서울 강남구 언주로121길5", "members_num": 170.0}}, {"type": "Feature", "geometry": {"type": "Point", "coordinates": [126.9031132, 37.4593156]}, "properties": {"name": "금천침례교회", "address": "(08622) 서울 금천구 독산로 35가길 8(시흥동)", "members_num": 200.0}}, {"type": "Feature", "geometry": {"type": "Point", "coordinates": [126.9744231, 37.5205875]}, "properties": {"name": "이촌동교회", "address": "(04423) 서울 용산구 이촌로75길 16, 3층 이촌동교회", "members_num": 30.0}}, {"type": "Feature", "geometry": {"type": "Point", "coordinates": [126.8193505, 37.5595407]}, "properties": {"name": "TDC(초문화제자들교회)", "address": "(07629) 서울 강서구 마곡중앙1로 72, 1011-302", "members_num": 5.0}}, {"type": "Feature", "geometry": {"type": "Point", "coordinates": [127.0354265, 37.6129941]}, "properties": {"name": "샘교회", "address": "(01237) 서울 강북구 오패산로30길 16", "members_num": 100.0}}, {"type": "Feature", "geometry": {"type": "Point", "coordinates": [127.0520467, 37.629566]}, "properties": {"name": "충은교회", "address": "(01882) 서울 노원구 초안산로3길 41 충은교회", "members_num": 150.0}}, {"type": "Feature", "geometry": {"type": "Point", "coordinates": [126.9263983, 37.5817217]}, "properties": {"name": "기독교대한감리회 열린교회", "address": "(03675) 서울 서대문구 가좌로 101, 2층", "members_num": 18.0}}, {"type": "Feature", "geometry": {"type": "Point", "coordinates": [127.0684744, 37.546473]}, "properties": {"name": "세빛교회", "address": "(05008) 서울 광진구 동일로 28길31", "members_num": 50.0}}, {"type": "Feature", "geometry": {"type": "Point", "coordinates": [127.0641086, 37.642026]}, "properties": {"name": "서울하나로교회", "address": "(서울하나로교회) 서울 노원구 동일로 1279번지", "members_num": 30.0}}, {"type": "Feature", "geometry": {"type": "Point", "coordinates": [126.8884827, 37.4857367]}, "properties": {"name": "우리성소교회", "address": "(08374) 서울 구로구 도림로 10길 22-2. 401호", "members_num": 15.0}}, {"type": "Feature", "geometry": {"type": "Point", "coordinates": [126.8511103, 37.5618815]}, "properties": {"name": "등촌순복음교회", "address": "(07576) 서울 강서구 등촌동707-1 등촌8단지상가201호", "members_num": 15.0}}, {"type": "Feature", "geometry": {"type": "Point", "coordinates": [127.1141941, 37.5030648]}, "properties": {"name": "하늘소망교회", "address": "(05675) 서울 송파구 서울 송파구 가락로 148, B1", "members_num": 20.0}}, {"type": "Feature", "geometry": {"type": "Point", "coordinates": [126.9179182, 37.5800385]}, "properties": {"name": "목양교회", "address": "(03670) 서울 서대문구 증가로200", "members_num": 25.0}}, {"type": "Feature", "geometry": {"type": "Point", "coordinates": [126.8997898, 37.557637]}, "properties": {"name": "열방교회", "address": "(03957) 서울 마포구 망원로1길 28 2층", "members_num": 24.0}}, {"type": "Feature", "geometry": {"type": "Point", "coordinates": [126.957838, 37.5752565]}, "properties": {"name": "독립문감리교회", "address": "(03030) 서울 종로구 통일로 266", "members_num": 50.0}}, {"type": "Feature", "geometry": {"type": "Point", "coordinates": [126.8548293, 37.53075949999999]}, "properties": {"name": "에바다교회", "address": "(07782) 서울 강서구 곰달래로 38길 10", "members_num": 20.0}}, {"type": "Feature", "geometry": {"type": "Point", "coordinates": [127.0071427, 37.5673175]}, "properties": {"name": "국립중앙의료원교회", "address": "(04564) 서울 중구 을지로 245", "members_num": 40.0}}, {"type": "Feature", "geometry": {"type": "Point", "coordinates": [127.0349063, 37.4622565]}, "properties": {"name": "좋은씨앗교회", "address": "(06772) 서울 서초구 매헌로23 2층", "members_num": 100.0}}, {"type": "Feature", "geometry": {"type": "Point", "coordinates": [126.9002788, 37.4819793]}, "properties": {"name": "한사랑", "address": "(08392) 서울 구로구 시흥대로545-1 2층", "members_num": 15.0}}, {"type": "Feature", "geometry": {"type": "Point", "coordinates": [126.9388983, 37.4839282]}, "properties": {"name": "더함교회", "address": "(08756) 서울 관악구 남부순환로 1695 3층", "members_num": 14.0}}, {"type": "Feature", "geometry": {"type": "Point", "coordinates": [126.8458006, 37.5602256]}, "properties": {"name": "작은예수교회", "address": "(07586) 서울 강서구 공항대로 41길51 세신그린코아 902호", "members_num": 30.0}}, {"type": "Feature", "geometry": {"type": "Point", "coordinates": [127.0061471, 37.5069447]}, "properties": {"name": "하닮교회", "address": "(65012) 서울 서초구 신반포로 205. 반포쇼핑센터 6동 416호", "members_num": 30.0}}, {"type": "Feature", "geometry": {"type": "Point", "coordinates": [126.8365362, 37.515746]}, "properties": {"name": "임마누엘교회", "address": "(08047) 서울 양천구 남부순환로80길 28", "members_num": 100.0}}, {"type": "Feature", "geometry": {"type": "Point", "coordinates": [126.8929962, 37.4728961]}, "properties": {"name": "로뎀교회", "address": "(15361) 서울 금천구 두산로9길 56", "members_num": 31.0}}, {"type": "Feature", "geometry": {"type": "Point", "coordinates": [127.0805507, 37.6156075]}, "properties": {"name": "해성교회", "address": "(02031) 서울 중랑구 공릉로 50-1", "members_num": 500.0}}, {"type": "Feature", "geometry": {"type": "Point", "coordinates": [126.9043709, 37.506751]}, "properties": {"name": "새소망교회", "address": "(07382) 서울 영등포구 가마산로 61길 19 지하", "members_num": 15.0}}, {"type": "Feature", "geometry": {"type": "Point", "coordinates": [126.9212194, 37.5700523]}, "properties": {"name": "은광교회", "address": "(03705) 서울 서대문구 홍제천로 54-150", "members_num": 30.0}}, {"type": "Feature", "geometry": {"type": "Point", "coordinates": [127.0750632, 37.6156021]}, "properties": {"name": "세계선교교회", "address": "(02001) 서울 중랑구 중랑역로 247-1 지하", "members_num": 12.0}}, {"type": "Feature", "geometry": {"type": "Point", "coordinates": [127.0635807, 37.61642150000001]}, "properties": {"name": "새영교회", "address": "(01902) 서울 노원구 석계로9길25", "members_num": 12.0}}, {"type": "Feature", "geometry": {"type": "Point", "coordinates": [126.8325513, 37.5226736]}, "properties": {"name": "우림교회", "address": "(08037) 서울 양천구 지양로 85 401호", "members_num": 7.0}}, {"type": "Feature", "geometry": {"type": "Point", "coordinates": [126.9022072, 37.4711058]}, "properties": {"name": "서울생수의강교회", "address": "(08546) 서울 금천구 가산로8, 지하1층", "members_num": 100.0}}, {"type": "Feature", "geometry": {"type": "Point", "coordinates": [127.0802925, 37.5319677]}, "properties": {"name": "새샘교회", "address": "(05060) 서울 광진구 뚝섬로 635 (2층)", "members_num": 10.0}}, {"type": "Feature", "geometry": {"type": "Point", "coordinates": [126.8772356, 37.5203883]}, "properties": {"name": "목동평강교회", "address": "(08008) 서울 양천구 목동동로12길 60 목동현대아파트 상가3층", "members_num": 50.0}}, {"type": "Feature", "geometry": {"type": "Point", "coordinates": [126.9194187, 37.4628666]}, "properties": {"name": "큰믿음유신교회", "address": "(151-884) 서울 관악구 난곡로 84", "members_num": 500.0}}, {"type": "Feature", "geometry": {"type": "Point", "coordinates": [126.9734447, 37.5438274]}, "properties": {"name": "용산우리교회", "address": "(04352) 서울 용산구 한강대로 84길 11-4", "members_num": 150.0}}, {"type": "Feature", "geometry": {"type": "Point", "coordinates": [126.8599357, 37.5261585]}, "properties": {"name": "서울비전교회", "address": "(16351) 서울특별시 양천 은행정로18길 10-1", "members_num": 20.0}}, {"type": "Feature", "geometry": {"type": "Point", "coordinates": [127.0740403, 37.5326082]}, "properties": {"name": "대서울교회", "address": "(05092) 서울 광진구 자양번영로 27", "members_num": 200.0}}, {"type": "Feature", "geometry": {"type": "Point", "coordinates": [126.8308025, 37.5125185]}, "properties": {"name": "한성세움교회", "address": "(08050) 서울 양천구 신정이펜1로50 신정이펜하우스321동502호", "members_num": 10.0}}, {"type": "Feature", "geometry": {"type": "Point", "coordinates": [126.8999404, 37.5211486]}, "properties": {"name": "주님의교회", "address": "(3층) 서울 영등포구 영신로 37길 9", "members_num": 4.0}}, {"type": "Feature", "geometry": {"type": "Point", "coordinates": [126.8929468, 37.4720367]}, "properties": {"name": "세계를품은교회", "address": "(08585) 서울 금천구 가산로3길 45 세교예지안8차 514", "members_num": 30.0}}, {"type": "Feature", "geometry": {"type": "Point", "coordinates": [127.1254547, 37.4962965]}, "properties": {"name": "엠마오교회", "address": "(05820) 서울 송파구 중대로 16길 6 이레건물", "members_num": 18.0}}, {"type": "Feature", "geometry": {"type": "Point", "coordinates": [127.0491489, 37.6770228]}, "properties": {"name": "대한예수교장로회(합동)", "address": "(0323) 서울 도봉구 마들로 754-6 1층", "members_num": 8.0}}, {"type": "Feature", "geometry": {"type": "Point", "coordinates": [127.0381848, 37.6400178]}, "properties": {"name": "신창교회", "address": "(01470) 서울 도봉구 덕릉로 247", "members_num": 250.0}}, {"type": "Feature", "geometry": {"type": "Point", "coordinates": [127.0497836, 37.6176941]}, "properties": {"name": "꿈의숲교회", "address": "(02762) 서울 성북구 장월로 29길 9", "members_num": 600.0}}, {"type": "Feature", "geometry": {"type": "Point", "coordinates": [126.9122039, 37.5064838]}, "properties": {"name": "동천교회", "address": "(07362) 서울 영등포구 신길로 40길 10", "members_num": 800.0}}, {"type": "Feature", "geometry": {"type": "Point", "coordinates": [127.0148422, 37.6082599]}, "properties": {"name": "충현교회", "address": "(02718) 서울 성북구 서경로 9길 11", "members_num": 4000.0}}, {"type": "Feature", "geometry": {"type": "Point", "coordinates": [126.8358596, 37.5184203]}, "properties": {"name": "새영은혜교회", "address": "(08042) 서울 양천구 신월동 986-5 4층 새영은혜교회", "members_num": 9.0}}, {"type": "Feature", "geometry": {"type": "Point", "coordinates": [127.0894794, 37.5049926]}, "properties": {"name": "서울성은교회", "address": "(05606) 서울 송파구 백제고분로21길 19", "members_num": 50.0}}, {"type": "Feature", "geometry": {"type": "Point", "coordinates": [127.0424788, 37.5457822]}, "properties": {"name": "서가교회", "address": "(04769) 서울 성동구 서울숲2길 32-14 B3 328-1호", "members_num": 14.0}}, {"type": "Feature", "geometry": {"type": "Point", "coordinates": [127.0051334, 37.53752790000001]}, "properties": {"name": "트리니티처치", "address": "(140-894) 서울 용산구 한남동", "members_num": 20.0}}, {"type": "Feature", "geometry": {"type": "Point", "coordinates": [127.0947229, 37.50567119999999]}, "properties": {"name": "강남중앙교회", "address": "(05601) 서울 송파구 석촌호수로 162", "members_num": 700.0}}, {"type": "Feature", "geometry": {"type": "Point", "coordinates": [126.8456432, 37.5556057]}, "properties": {"name": "하늘빛교회", "address": "(07600) 서울 강서구 공항대로103", "members_num": 7.0}}, {"type": "Feature", "geometry": {"type": "Point", "coordinates": [126.9164568, 37.6010477]}, "properties": {"name": "반석교회", "address": "(03457) 서울 은평구 연서로22 1층", "members_num": 50.0}}, {"type": "Feature", "geometry": {"type": "Point", "coordinates": [126.9663661, 37.47239039999999]}, "properties": {"name": "충만교회", "address": "(08797) 서울 관악구 인헌길 68 낙성현대B상가 202호", "members_num": 7.0}}, {"type": "Feature", "geometry": {"type": "Point", "coordinates": [126.864287, 37.5392861]}, "properties": {"name": "성은교회", "address": "(07957) 서울 양천구 서울 양천구 목동중앙남로11길 30 (목동, 성은교회)", "members_num": 80.0}}, {"type": "Feature", "geometry": {"type": "Point", "coordinates": [126.9914423, 37.5716455]}, "properties": {"name": "갇힌자풀린자선교회", "address": "(04792) 서울 성동구 성수일12가길10,202호", "members_num": 8.0}}, {"type": "Feature", "geometry": {"type": "Point", "coordinates": [126.8513659, 37.5638868]}, "properties": {"name": "뉴코리아교회", "address": "(07527) 서울 강서구 양천로57길 9-14 2층", "members_num": 50.0}}, {"type": "Feature", "geometry": {"type": "Point", "coordinates": [126.9269313, 37.6074094]}, "properties": {"name": "은평안디옥교회", "address": "(03377) 서울 은평구 진흥로 12길 15(녹번동 2층)", "members_num": 10.0}}, {"type": "Feature", "geometry": {"type": "Point", "coordinates": [127.0350414, 37.58826090000001]}, "properties": {"name": "영화로운", "address": "(02826) 서울 성북구 성북구 북악산로 742-12 상가 영화로운교회", "members_num": 40.0}}, {"type": "Feature", "geometry": {"type": "Point", "coordinates": [127.0495796, 37.4778873]}, "properties": {"name": "영동감리교회", "address": "(06308) 서울 강남구 개포로 26길 19", "members_num": 25.0}}, {"type": "Feature", "geometry": {"type": "Point", "coordinates": [127.020916, 37.6409385]}, "properties": {"name": "큰빛교회", "address": "(01076) 서울 강북구 삼각산로30길 12", "members_num": 5.0}}, {"type": "Feature", "geometry": {"type": "Point", "coordinates": [127.0329351, 37.6155886]}, "properties": {"name": "광은교회", "address": "(01217) 서울 강북구 오패산로155-9", "members_num": 100.0}}, {"type": "Feature", "geometry": {"type": "Point", "coordinates": [127.0383623, 37.6439484]}, "properties": {"name": "길", "address": "(01463) 서울 도봉구 도봉로110아길57-13", "members_num": 5.0}}, {"type": "Feature", "geometry": {"type": "Point", "coordinates": [127.1425383, 37.4893978]}, "properties": {"name": "브니엘", "address": "(05771) 서울 송파구 양산로1", "members_num": 500.0}}, {"type": "Feature", "geometry": {"type": "Point", "coordinates": [127.0943672, 37.5894177]}, "properties": {"name": "동명교회", "address": "(02200) 서울 중랑구 용마산로 93길 42", "members_num": 220.0}}, {"type": "Feature", "geometry": {"type": "Point", "coordinates": [127.0951376, 37.613632]}, "properties": {"name": "성일교회", "address": "(02025) 서울 중랑구 신내로 155", "members_num": 120.0}}, {"type": "Feature", "geometry": {"type": "Point", "coordinates": [127.0862547, 37.5950666]}, "properties": {"name": "동흥교회", "address": "(02148) 서울 중랑구 면목로 94길 6-2", "members_num": 90.0}}, {"type": "Feature", "geometry": {"type": "Point", "coordinates": [127.1328481, 37.5389727]}, "properties": {"name": "강동성결교회", "address": "(05337) 서울 강동구 진황도로 27길 8", "members_num": 200.0}}, {"type": "Feature", "geometry": {"type": "Point", "coordinates": [127.1293467, 37.5325475]}, "properties": {"name": "좋은땅교회", "address": "(05388) 서울 강동구 풍성로37가길 58", "members_num": 10.0}}, {"type": "Feature", "geometry": {"type": "Point", "coordinates": [127.0823789, 37.646446]}, "properties": {"name": "노원성진교회", "address": "(01726) 서울 노원구 중계로8길13", "members_num": 70.0}}, {"type": "Feature", "geometry": {"type": "Point", "coordinates": [127.0271186, 37.5579013]}, "properties": {"name": "예본교회", "address": "(04713) 서울 성동구 행당로 9길 43 국화상가 B1", "members_num": 30.0}}, {"type": "Feature", "geometry": {"type": "Point", "coordinates": [127.0216109, 37.4654373]}, "properties": {"name": "임마누엘선교교회", "address": "(06765) 서울 서초구 우면동65-1", "members_num": 50.0}}, {"type": "Feature", "geometry": {"type": "Point", "coordinates": [127.0147271, 37.6410201]}, "properties": {"name": "우일교회", "address": "(302호) 서울 강북구 삼각산로17 길11-5 도현주택다동", "members_num": 10.0}}, {"type": "Feature", "geometry": {"type": "Point", "coordinates": [127.0360911, 37.5998994]}, "properties": {"name": "예함교회", "address": "(02797) 서울 성북구 월곡로7길76", "members_num": 20.0}}, {"type": "Feature", "geometry": {"type": "Point", "coordinates": [127.0383108, 37.6056722]}, "properties": {"name": "영광교회", "address": "(02750) 서울 성북구 오패산로10길 27", "members_num": 600.0}}, {"type": "Feature", "geometry": {"type": "Point", "coordinates": [126.8487617, 37.5019848]}, "properties": {"name": "기독교대한하나님의성회", "address": "(08100) 서울 구로구 서울 구로구 고척로 30길3 삼형빌딩 2층", "members_num": 25.0}}, {"type": "Feature", "geometry": {"type": "Point", "coordinates": [127.1726083, 37.5485582]}, "properties": {"name": "함께가는교회", "address": "(05283) 서울 강동구 천호대로221길37", "members_num": 8.0}}, {"type": "Feature", "geometry": {"type": "Point", "coordinates": [126.9039646, 37.4566876]}, "properties": {"name": "늘은혜교회", "address": "(08625) 서울 금천구 독산로119 B1", "members_num": 15.0}}, {"type": "Feature", "geometry": {"type": "Point", "coordinates": [126.8467899, 37.4940691]}, "properties": {"name": "열방세움교회", "address": "(08340) 서울 구로구 서해안로2368 우림필유상가", "members_num": 8.0}}, {"type": "Feature", "geometry": {"type": "Point", "coordinates": [126.9722548, 37.5528355]}, "properties": {"name": "창대교회", "address": "(04320) 서울 용산구 한강대로385.지1층", "members_num": 10.0}}, {"type": "Feature", "geometry": {"type": "Point", "coordinates": [126.8923439, 37.4729313]}, "properties": {"name": "더드림교회", "address": "(08521) 서울 금천구 두산로9길56", "members_num": 25.0}}, {"type": "Feature", "geometry": {"type": "Point", "coordinates": [126.813033, 37.5764988]}, "properties": {"name": "비전교회", "address": "(07511) 서울 강서구 방화대로47가길7, 821호", "members_num": 4.0}}, {"type": "Feature", "geometry": {"type": "Point", "coordinates": [127.071309, 37.5690672]}, "properties": {"name": "함께걷는교회", "address": "(02639) 서울 동대문구 장안동 장한로26다길 36 2층", "members_num": 11.0}}, {"type": "Feature", "geometry": {"type": "Point", "coordinates": [126.9388983, 37.4839282]}, "properties": {"name": "더함교회", "address": "(08756) 서울 관악구 남부순환로 1695번지 3층", "members_num": 15.0}}, {"type": "Feature", "geometry": {"type": "Point", "coordinates": [126.9747559, 37.5552574]}, "properties": {"name": "남대문교회", "address": "(04637) 서울 중구 퇴계로 6", "members_num": 25000.0}}, {"type": "Feature", "geometry": {"type": "Point", "coordinates": [127.0077798, 37.5525314]}, "properties": {"name": "나눔의교회", "address": "(04599) 서울 중구 동호로11길 111", "members_num": 500.0}}, {"type": "Feature", "geometry": {"type": "Point", "coordinates": [127.0349441, 37.614036]}, "properties": {"name": "예수나무교회", "address": "(01237) 서울 강북구 오패산로30길 22 2층 스터디클럽, 예수나무교회", "members_num": 13.0}}, {"type": "Feature", "geometry": {"type": "Point", "coordinates": [127.0077798, 37.5525314]}, "properties": {"name": "나눔의교회", "address": "(04599) 서울 중구 동호로 11길 111", "members_num": 500.0}}, {"type": "Feature", "geometry": {"type": "Point", "coordinates": [127.1332088, 37.5431333]}, "properties": {"name": "순복음누림교회", "address": "(05330) 서울 강동구 구천면로 252", "members_num": 100.0}}, {"type": "Feature", "geometry": {"type": "Point", "coordinates": [126.9296536, 37.4795941]}, "properties": {"name": "은혜교회", "address": "(08775) 서울 관악구 신원로 4길 46", "members_num": 70.0}}, {"type": "Feature", "geometry": {"type": "Point", "coordinates": [126.8667209, 37.50787440000001]}, "properties": {"name": "새터교회", "address": "(08104) 서울 양천구 목동남로 4길 6-23 4층 B동", "members_num": 30.0}}, {"type": "Feature", "geometry": {"type": "Point", "coordinates": [127.0175747, 37.6309701]}, "properties": {"name": "강북반석교회", "address": "(01099) 서울 강북구 삼양로 309 미성빌딩 4층", "members_num": 100.0}}, {"type": "Feature", "geometry": {"type": "Point", "coordinates": [126.9106467, 37.5564761]}, "properties": {"name": "전인교회", "address": "(03996) 서울 마포구 성미산로2길 47", "members_num": 70.0}}, {"type": "Feature", "geometry": {"type": "Point", "coordinates": [-118.242643, 34.0549076]}, "properties": {"name": "LA성일교회", "address": "(90006) 서울 강남구 2666 West Pico LA CA", "members_num": 30.0}}, {"type": "Feature", "geometry": {"type": "Point", "coordinates": [127.0817906, 37.5722171]}, "properties": {"name": "세계중보기도센터", "address": "(02244) 서울 중랑구 면목로 21길. 33-8 3층", "members_num": 1000.0}}, {"type": "Feature", "geometry": {"type": "Point", "coordinates": [126.9049129, 37.5513434]}, "properties": {"name": "반석교회", "address": "(2층 교육관) 서울 마포구 동교로16(합정동449-2)", "members_num": 30.0}}, {"type": "Feature", "geometry": {"type": "Point", "coordinates": [127.1399346, 37.4988875]}, "properties": {"name": "푸른목장교회", "address": "(05742) 서울 송파구 동남로26길 32", "members_num": 30.0}}, {"type": "Feature", "geometry": {"type": "Point", "coordinates": [127.023293, 37.6062823]}, "properties": {"name": "성북성결교회", "address": "(02725) 서울 성북구 길음로 14-1", "members_num": 300.0}}, {"type": "Feature", "geometry": {"type": "Point", "coordinates": [126.8933083, 37.5752977]}, "properties": {"name": "하예성비전", "address": "(03913) 서울 마포구 상암동 상암월드컵@ 1단지 102-508", "members_num": 20.0}}, {"type": "Feature", "geometry": {"type": "Point", "coordinates": [127.0418442, 37.6407406]}, "properties": {"name": "주사랑교회", "address": "(01487) 서울 도봉구 덕릉로62길 13, 102동 1608호", "members_num": 50.0}}, {"type": "Feature", "geometry": {"type": "Point", "coordinates": [126.827068, 37.5519892]}, "properties": {"name": "주찬양장로교회", "address": "(07635) 서울 강서구 수명로2길105, 506동602호", "members_num": 30.0}}, {"type": "Feature", "geometry": {"type": "Point", "coordinates": [127.0928761, 37.4991287]}, "properties": {"name": "새빛교회", "address": "(05597) 서울 송파구 백제고분로32길38", "members_num": 20.0}}, {"type": "Feature", "geometry": {"type": "Point", "coordinates": [126.8580579, 37.5333718]}, "properties": {"name": "화곡제일교회", "address": "(07738) 서울 강서구 등촌로5길 79 3층", "members_num": 35.0}}, {"type": "Feature", "geometry": {"type": "Point", "coordinates": [126.9804189, 37.4830869]}, "properties": {"name": "주님의기쁨선교교회", "address": "(07013) 서울 동작구 1007-11. B01", "members_num": 1.0}}, {"type": "Feature", "geometry": {"type": "Point", "coordinates": [127.0111685, 37.5605491]}, "properties": {"name": "I.C.C", "address": "(04609) 서울 중구 청구로19길 9-13", "members_num": 30.0}}, {"type": "Feature", "geometry": {"type": "Point", "coordinates": [126.8854806, 37.5121762]}, "properties": {"name": "우리드림교회", "address": "(08201) 서울 구로구 신도림로 105, 우성2차상가 3층", "members_num": 10.0}}, {"type": "Feature", "geometry": {"type": "Point", "coordinates": [127.1143812, 37.47425399999999]}, "properties": {"name": "라이프미션교회", "address": "(06370) 서울 강남구 밤고개로21길 73 우건프라자 4층", "members_num": 40.0}}, {"type": "Feature", "geometry": {"type": "Point", "coordinates": [127.0757465, 37.6130068]}, "properties": {"name": "참포도나무교회", "address": "(01318) 서울 중랑구 중랑역로220", "members_num": 7.0}}, {"type": "Feature", "geometry": {"type": "Point", "coordinates": [126.9666258, 37.5266412]}, "properties": {"name": "신용산교회", "address": "(04387) 서울 용산구 서빙고로 17", "members_num": 1000.0}}, {"type": "Feature", "geometry": {"type": "Point", "coordinates": [126.8750255, 37.5205223]}, "properties": {"name": "목자교회", "address": "(08009) 서울 양천구 신목로 12길 15(지하1층)", "members_num": 25.0}}, {"type": "Feature", "geometry": {"type": "Point", "coordinates": [126.907696, 37.6009315]}, "properties": {"name": "은평빛의숲교회", "address": "(03432) 서울 은평구 신사동 12-7 3층", "members_num": 60.0}}, {"type": "Feature", "geometry": {"type": "Point", "coordinates": [126.8369948, 37.5192264]}, "properties": {"name": "생수교회", "address": "(08051) 서울 양천구 지양로2길29 생수교회", "members_num": 30.0}}, {"type": "Feature", "geometry": {"type": "Point", "coordinates": [127.1397223, 37.4983888]}, "properties": {"name": "푸른목장교회", "address": "(05742) 서울 송파구 오금동157번지", "members_num": 30.0}}, {"type": "Feature", "geometry": {"type": "Point", "coordinates": [126.920576, 37.6158912]}, "properties": {"name": "방주교회", "address": "(03386) 서울 은평구 연서로26길 16 (대조동)", "members_num": 20.0}}, {"type": "Feature", "geometry": {"type": "Point", "coordinates": [126.9091136, 37.5125086]}, "properties": {"name": "시온성교회", "address": "(07367) 서울 영등포구 영신로 9-1 시온성교회", "members_num": 30.0}}, {"type": "Feature", "geometry": {"type": "Point", "coordinates": [127.0763959, 37.6591283]}, "properties": {"name": "중계장로교회", "address": "(01715) 서울 노원구 한글비석로14길37 (201-1006)", "members_num": 50.0}}, {"type": "Feature", "geometry": {"type": "Point", "coordinates": [127.1009161, 37.595987]}, "properties": {"name": "주임재교회", "address": "(02181) 서울 중랑구 망우동 403-48, 지층", "members_num": 10.0}}, {"type": "Feature", "geometry": {"type": "Point", "coordinates": [126.9477796, 37.5966653]}, "properties": {"name": "우리들의교회", "address": "(03619) 서울 서대문구 간호대로 25-3 지층", "members_num": 17.0}}, {"type": "Feature", "geometry": {"type": "Point", "coordinates": [126.9243289, 37.5993448]}, "properties": {"name": "예본교회", "address": "(03462) 서울 은평구 은평로10길 17-5(응암동)", "members_num": 15.0}}, {"type": "Feature", "geometry": {"type": "Point", "coordinates": [127.0395816, 37.5808036]}, "properties": {"name": "영광교회", "address": "(02571) 서울 동대문구 제기동 992_30", "members_num": 0.0}}, {"type": "Feature", "geometry": {"type": "Point", "coordinates": [127.1318715, 37.5554834]}, "properties": {"name": "열린문교회", "address": "(05238) 서울 강동구 암사동 442ㅡ1 한강현대아파트 101동 703호", "members_num": 55.0}}, {"type": "Feature", "geometry": {"type": "Point", "coordinates": [126.8498466, 37.5468218]}, "properties": {"name": "명상교회", "address": "(07675) 서울 강서구 까치산로 18나길 7", "members_num": 25.0}}, {"type": "Feature", "geometry": {"type": "Point", "coordinates": [126.9244215, 37.483794]}, "properties": {"name": "창일교회", "address": "(창일교회 4층) 서울 관악구 남부순환로1565", "members_num": 50.0}}, {"type": "Feature", "geometry": {"type": "Point", "coordinates": [126.9122995, 37.5887095]}, "properties": {"name": "순복음성령교회", "address": "(03495) 서울 은평구 증산서길159 3층 순복음성령교회", "members_num": 12.0}}, {"type": "Feature", "geometry": {"type": "Point", "coordinates": [126.9849912, 37.4916149]}, "properties": {"name": "지구촌비전교회", "address": "(06560) 서울 서초구 동작대로 164", "members_num": 50.0}}, {"type": "Feature", "geometry": {"type": "Point", "coordinates": [126.8539191, 37.524899]}, "properties": {"name": "성신교회", "address": "(07943) 서울 양천구 오목로 149 3층", "members_num": 15.0}}, {"type": "Feature", "geometry": {"type": "Point", "coordinates": [126.8555397, 37.5132372]}, "properties": {"name": "목동사랑교회", "address": "(08106) 서울 양천구 신정로 312 505호", "members_num": 50.0}}, {"type": "Feature", "geometry": {"type": "Point", "coordinates": [126.8685767, 37.5331903]}, "properties": {"name": "신목교회", "address": "(07964) 서울 양천구 목동중앙서로 41-1 2층", "members_num": 25.0}}, {"type": "Feature", "geometry": {"type": "Point", "coordinates": [126.9193501, 37.6025533]}, "properties": {"name": "꿈꾸는교회", "address": "(03351) 서울 은평구 통일로818.3층", "members_num": 30.0}}, {"type": "Feature", "geometry": {"type": "Point", "coordinates": [126.9065698, 37.4552063]}, "properties": {"name": "금천시온교회", "address": "(08570) 서울 금천구 독산로24길11. 401호", "members_num": 10.0}}, {"type": "Feature", "geometry": {"type": "Point", "coordinates": [127.0771411, 37.6367968]}, "properties": {"name": "드림교회", "address": "(01808) 서울 노원구 공릉로 58바길10-6 2층", "members_num": 50.0}}, {"type": "Feature", "geometry": {"type": "Point", "coordinates": [126.9363012, 37.4844196]}, "properties": {"name": "서울은총교회", "address": "(08780) 서울 관악구 남부순환로 1672, 4층", "members_num": 30.0}}, {"type": "Feature", "geometry": {"type": "Point", "coordinates": [126.9127605, 37.5676784]}, "properties": {"name": "온유와겸손교회", "address": "(03949) 서울 마포구 모래내로9길 15", "members_num": 36.0}}, {"type": "Feature", "geometry": {"type": "Point", "coordinates": [127.1205608, 37.4943135]}, "properties": {"name": "철선교회", "address": "(05718) 서울 송파구 송파대로28길24, 1401호", "members_num": 30.0}}, {"type": "Feature", "geometry": {"type": "Point", "coordinates": [126.9740713, 37.53263]}, "properties": {"name": "물댄동산교회", "address": "(04382) 서울 용산구 한강로1가216-11 센츄럴파크402호", "members_num": 10.0}}, {"type": "Feature", "geometry": {"type": "Point", "coordinates": [127.0860598, 37.6414599]}, "properties": {"name": "사랑의축복교회", "address": "(01731) 서울 노원구 중계로4나길 51-28", "members_num": 10.0}}, {"type": "Feature", "geometry": {"type": "Point", "coordinates": [127.018037, 37.6410462]}, "properties": {"name": "헤세드교회", "address": "(01041) 서울 강북구 삼각산로123-1 헤세드교회3층", "members_num": 20.0}}, {"type": "Feature", "geometry": {"type": "Point", "coordinates": [127.0911221, 37.6152957]}, "properties": {"name": "세빛교회", "address": "(02054) 서울 중랑구 신내로126 동성1,2차 아파트상가3층", "members_num": 30.0}}, {"type": "Feature", "geometry": {"type": "Point", "coordinates": [126.8469562, 37.4930538]}, "properties": {"name": "응곡교회", "address": "(08340) 서울 구로구 오류로8길 126-7", "members_num": 40.0}}, {"type": "Feature", "geometry": {"type": "Point", "coordinates": [126.8117836, 37.5648974]}, "properties": {"name": "회복교회", "address": "(07668) 서울 강서구 방화동로 50-1입니다", "members_num": 7.0}}, {"type": "Feature", "geometry": {"type": "Point", "coordinates": [127.0120083, 37.6510894]}, "properties": {"name": "드림교회", "address": "(01009) 서울 강북구 삼양로139가길 43 지하 드림교회", "members_num": 12.0}}, {"type": "Feature", "geometry": {"type": "Point", "coordinates": [126.9522319, 37.5337938]}, "properties": {"name": "시온선교회", "address": "(04360) 서울 용산구 원효로9길21", "members_num": 20.0}}, {"type": "Feature", "geometry": {"type": "Point", "coordinates": [127.0268025, 37.5699241]}, "properties": {"name": "청계열린교회", "address": "(04702) 서울 성동구 난계로 24길 34", "members_num": 250.0}}, {"type": "Feature", "geometry": {"type": "Point", "coordinates": [126.9624491, 37.5258943]}, "properties": {"name": "지구촌사랑교회", "address": "(04379) 서울 용산구 한강대로15길31-13, 2층", "members_num": 30.0}}, {"type": "Feature", "geometry": {"type": "Point", "coordinates": [126.885848, 37.5048124]}, "properties": {"name": "하나교회", "address": "(08291) 서울 구로구 새말로9길45 3층 하나교회", "members_num": 100.0}}, {"type": "Feature", "geometry": {"type": "Point", "coordinates": [127.0371487, 37.6056348]}, "properties": {"name": "주은혜교회", "address": "(02751) 서울 성북구 오패산로 40 3층 주은혜교회", "members_num": 60.0}}, {"type": "Feature", "geometry": {"type": "Point", "coordinates": [127.0380083, 37.6475281]}, "properties": {"name": "예나교회", "address": "(01456) 서울 도봉구 노해로62길 102, 101호", "members_num": 50.0}}, {"type": "Feature", "geometry": {"type": "Point", "coordinates": [127.0629798, 37.5040155]}, "properties": {"name": "서울기쁨의교회", "address": "(06187) 서울 강남구 역삼로92길 7", "members_num": 50.0}}, {"type": "Feature", "geometry": {"type": "Point", "coordinates": [127.0884672, 37.5034708]}, "properties": {"name": "행복한교회", "address": "(05581) 서울 송파구 백제고분로22길 8 지하", "members_num": 30.0}}, {"type": "Feature", "geometry": {"type": "Point", "coordinates": [126.9335685, 37.4832734]}, "properties": {"name": "은천교회", "address": "(08779) 서울 관악구 남부순환로 1654", "members_num": 400.0}}, {"type": "Feature", "geometry": {"type": "Point", "coordinates": [127.0805961, 37.5634759]}, "properties": {"name": "대은성결교회", "address": "(04910) 서울 광진구 능동로47길37-5.1층", "members_num": 200.0}}, {"type": "Feature", "geometry": {"type": "Point", "coordinates": [126.9228063, 37.4968092]}, "properties": {"name": "대남교회", "address": "(07058) 서울 동작구 여의대방로 22길 44-8", "members_num": 200.0}}, {"type": "Feature", "geometry": {"type": "Point", "coordinates": [126.9994479, 37.5017006]}, "properties": {"name": "샘솟는교회", "address": "(06547) 서울 서초구 반포대로275. 106동701호", "members_num": 60.0}}, {"type": "Feature", "geometry": {"type": "Point", "coordinates": [126.9052515, 37.4636775]}, "properties": {"name": "참사랑교회", "address": "(08562) 서울 금천구 독산로56길 33호", "members_num": 10.0}}, {"type": "Feature", "geometry": {"type": "Point", "coordinates": [126.881857, 37.503955]}, "properties": {"name": "대만대복교회", "address": "(08213) 서울 구로구 신도림동412-3번지텔레티움102동1001호", "members_num": 200.0}}, {"type": "Feature", "geometry": {"type": "Point", "coordinates": [126.8554086, 37.5643457]}, "properties": {"name": "세광교회", "address": "(07525) 서울 강서구 허준로139 강변아파트 상가3층 세광교회", "members_num": 50.0}}, {"type": "Feature", "geometry": {"type": "Point", "coordinates": [127.0299843, 37.6672604]}, "properties": {"name": "푸른숲교회", "address": "(01315) 서울 도봉구 시루봉로13가길 23-20", "members_num": 70.0}}, {"type": "Feature", "geometry": {"type": "Point", "coordinates": [127.1434177, 37.5533988]}, "properties": {"name": "명일성결교회", "address": "(05257) 서울 강동구 양재대로 1657-11 (4층)", "members_num": 30.0}}, {"type": "Feature", "geometry": {"type": "Point", "coordinates": [126.9117723, 37.514121]}, "properties": {"name": "H.프뉴마교회", "address": "(07312) 서울 영등포구 신길로252영보빌딩301호 (07312) 서울 영등포구 신길로252영보빌딩301호", "members_num": 30.0}}, {"type": "Feature", "geometry": {"type": "Point", "coordinates": [127.1354254, 37.5075718]}, "properties": {"name": "리버티교회", "address": "(05720) 서울 송파구 성내천로6 상가동 102호", "members_num": 25.0}}, {"type": "Feature", "geometry": {"type": "Point", "coordinates": [127.1305523, 37.5094274]}, "properties": {"name": "새소망교회", "address": "(05653) 서울 송파구 양재대로72길29", "members_num": 60.0}}, {"type": "Feature", "geometry": {"type": "Point", "coordinates": [126.9300667, 37.6144031]}, "properties": {"name": "참빛교회", "address": "(03355) 서울 은평구 통일로 770", "members_num": 40.0}}, {"type": "Feature", "geometry": {"type": "Point", "coordinates": [127.0179996, 37.64247659999999]}, "properties": {"name": "안창교회", "address": "(01041) 서울 강북구 삼각산로 131", "members_num": 50.0}}, {"type": "Feature", "geometry": {"type": "Point", "coordinates": [127.0846131, 37.5780848]}, "properties": {"name": "동일교회", "address": "(02240) 서울 중랑구 면목동 35길21 동일교회", "members_num": 1500.0}}, {"type": "Feature", "geometry": {"type": "Point", "coordinates": [127.0825445, 37.5547872]}, "properties": {"name": "햇빛교회", "address": "(04986) 서울 광진구 능동로36길 68 1층", "members_num": 40.0}}, {"type": "Feature", "geometry": {"type": "Point", "coordinates": [127.0961701, 37.5022332]}, "properties": {"name": "브니엘교회", "address": "(05585) 서울 송파구 백제고분로 32길 5. 지하", "members_num": 22.0}}, {"type": "Feature", "geometry": {"type": "Point", "coordinates": [127.0789075, 37.5951448]}, "properties": {"name": "가나안교회", "address": "(02117) 서울 중랑구 중화동 207-9호", "members_num": 300.0}}, {"type": "Feature", "geometry": {"type": "Point", "coordinates": [126.9651346, 37.4767289]}, "properties": {"name": "우쿨가족교회", "address": "(08801) 서울 관악구 서울 관악구 남부순환로 1943 3층", "members_num": 15.0}}, {"type": "Feature", "geometry": {"type": "Point", "coordinates": [126.9103745, 37.5566183]}, "properties": {"name": "전인교회", "address": "(03996) 서울 마포구 성미산로2길 47 수양빌딩 전인교회", "members_num": 70.0}}, {"type": "Feature", "geometry": {"type": "Point", "coordinates": [127.1716461, 37.55325670000001]}, "properties": {"name": "순복음다사랑섬김교회", "address": "(05275) 서울 강동구 서울시 강동구 상일로55 고덕자이 105동 702호", "members_num": 20.0}}, {"type": "Feature", "geometry": {"type": "Point", "coordinates": [126.8484367, 37.5061683]}, "properties": {"name": "새날교회", "address": "(08244) 서울 구로구 고척로27다길 72", "members_num": 15.0}}, {"type": "Feature", "geometry": {"type": "Point", "coordinates": [127.0216049, 37.5465776]}, "properties": {"name": "찾아가는교회", "address": "(04738) 서울 성동구 독서당로272", "members_num": 5.0}}, {"type": "Feature", "geometry": {"type": "Point", "coordinates": [126.8655291, 37.5394421]}, "properties": {"name": "목동순복음교회", "address": "(07957) 서울 양천구 목동 중앙남로 11길 8", "members_num": 50.0}}, {"type": "Feature", "geometry": {"type": "Point", "coordinates": [126.8337739, 37.4937681]}, "properties": {"name": "호산나교회", "address": "(08256) 서울 구로구 부일로15길 13번지 호산나교회 2층", "members_num": 17.0}}, {"type": "Feature", "geometry": {"type": "Point", "coordinates": [126.8993615, 37.5856351]}, "properties": {"name": "생명샘교회", "address": "(03490) 서울 은평구 은평터널로 51", "members_num": 100.0}}, {"type": "Feature", "geometry": {"type": "Point", "coordinates": [126.857665, 37.488765]}, "properties": {"name": "주옥교회", "address": "(08333) 서울 구로구 개봉로14길 13", "members_num": 0.0}}, {"type": "Feature", "geometry": {"type": "Point", "coordinates": [126.8388762, 37.49227460000001]}, "properties": {"name": "한빛교회", "address": "(08357) 서울 구로구 경인로 8길 75 삼천리 아파트 상가 한빛교회", "members_num": 40.0}}, {"type": "Feature", "geometry": {"type": "Point", "coordinates": [126.9360289, 37.5046484]}, "properties": {"name": "예수생명교회", "address": "(06949) 서울 동작구 상도로 15길 120 5층", "members_num": 30.0}}, {"type": "Feature", "geometry": {"type": "Point", "coordinates": [126.9278224, 37.6270073]}, "properties": {"name": "들꽃순복음교회", "address": "(03338) 서울 은평구 연서로 41길 4 2층", "members_num": 15.0}}, {"type": "Feature", "geometry": {"type": "Point", "coordinates": [126.9123375, 37.611941]}, "properties": {"name": "다윗감리교회", "address": "(03410) 서울 은평구", "members_num": 40.0}}, {"type": "Feature", "geometry": {"type": "Point", "coordinates": [126.9119534, 37.5081995]}, "properties": {"name": "신흥교회", "address": "(07632) 서울 영등포구 신길로42길 7-1", "members_num": 34.0}}, {"type": "Feature", "geometry": {"type": "Point", "coordinates": [127.070257, 37.566999]}, "properties": {"name": "선한목자성결교회", "address": "(02640) 서울 동대문구 장한로 18길 22. 3층", "members_num": 28.0}}, {"type": "Feature", "geometry": {"type": "Point", "coordinates": [127.0785858, 37.62244889999999]}, "properties": {"name": "다드림교회", "address": "(01837) 서울 노원구 공릉로 147 3층", "members_num": 300.0}}, {"type": "Feature", "geometry": {"type": "Point", "coordinates": [127.1227175, 37.52836]}, "properties": {"name": "한마음교회", "address": "(05238) 서울 강동구 성내동 456 번지 3층", "members_num": 200.0}}, {"type": "Feature", "geometry": {"type": "Point", "coordinates": [126.9577701, 37.4946261]}, "properties": {"name": "바라봄교회", "address": "(07027) 서울 동작구 상도로61길 54, 2층", "members_num": 15.0}}, {"type": "Feature", "geometry": {"type": "Point", "coordinates": [126.848768, 37.5261754]}, "properties": {"name": "시온성교회", "address": "(07933) 서울 양천구 중앙로51길8-1", "members_num": 20.0}}, {"type": "Feature", "geometry": {"type": "Point", "coordinates": [127.1281435, 37.4915677]}, "properties": {"name": "문정제일교회", "address": "(05795) 서울 송파구 송이로 199", "members_num": 200.0}}, {"type": "Feature", "geometry": {"type": "Point", "coordinates": [126.9489334, 37.4777715]}, "properties": {"name": "The Church", "address": "(08832) 서울 관악구 쑥고개로 122", "members_num": 52.0}}, {"type": "Feature", "geometry": {"type": "Point", "coordinates": [126.9735141, 37.4797278]}, "properties": {"name": "열방선교교회", "address": "(07017) 서울 동작구 사당동 442-13", "members_num": 10.0}}, {"type": "Feature", "geometry": {"type": "Point", "coordinates": [127.0806356, 37.4571474]}, "properties": {"name": "내곡초원교회", "address": "(06796) 서울 서초구 신흥말길 40", "members_num": 30.0}}, {"type": "Feature", "geometry": {"type": "Point", "coordinates": [126.9352573, 37.5730068]}, "properties": {"name": "서울한빚교회", "address": "(03697) 서울 서대문구 연희로 177 401호", "members_num": 15.0}}, {"type": "Feature", "geometry": {"type": "Point", "coordinates": [127.1002787, 37.491035]}, "properties": {"name": "행복나눔교회", "address": "(06347) 서울 강남구 광평로 51길 49 수서주공아파트 수서종합상가 205호", "members_num": 50.0}}, {"type": "Feature", "geometry": {"type": "Point", "coordinates": [126.9158296, 37.5631847]}, "properties": {"name": "예수뿐인교회", "address": "(03973) 서울 마포구 월드컵북로 16길 27 2층", "members_num": 200.0}}, {"type": "Feature", "geometry": {"type": "Point", "coordinates": [127.0354448, 37.5581317]}, "properties": {"name": "온마음교회", "address": "(04745) 서울 성동구 고산자로6길 40 레몬프라자 3층", "members_num": 170.0}}, {"type": "Feature", "geometry": {"type": "Point", "coordinates": [127.0082941, 37.6074972]}, "properties": {"name": "반석군인교회", "address": "(02710) 서울 성북구 서울시 성북구 정릉로21길 40-6, B 101호", "members_num": 50.0}}, {"type": "Feature", "geometry": {"type": "Point", "coordinates": [126.8458006, 37.5602256]}, "properties": {"name": "작은예수교회", "address": "(07586) 서울 강서구 공항대로41길51 세신그린코아 902호", "members_num": 40.0}}, {"type": "Feature", "geometry": {"type": "Point", "coordinates": [127.0831875, 37.6234994]}, "properties": {"name": "예꿈교회", "address": "(01820) 서울 노원구 공릉로 34길 62", "members_num": 15.0}}, {"type": "Feature", "geometry": {"type": "Point", "coordinates": [126.8302355, 37.5226397]}, "properties": {"name": "영광교회", "address": "(08037) 서울 양천구 지양로15길 17 (신월동)", "members_num": 150.0}}, {"type": "Feature", "geometry": {"type": "Point", "coordinates": [126.8904112, 37.5414757]}, "properties": {"name": "삼광교회", "address": "(07202) 서울 영등포구 양평로28다길7", "members_num": 100.0}}, {"type": "Feature", "geometry": {"type": "Point", "coordinates": [127.0597001, 37.4936059]}, "properties": {"name": "세우는교회", "address": "(06280) 서울 강남구 남부순환로 2921 그랑프리엔상가 B1 세우는 교회", "members_num": 35.0}}, {"type": "Feature", "geometry": {"type": "Point", "coordinates": [127.0731227, 37.6359507]}, "properties": {"name": "살구나무교회", "address": "(01809) 서울 노원구 공릉로58가길 10-6 2층 살구나무교회", "members_num": 15.0}}, {"type": "Feature", "geometry": {"type": "Point", "coordinates": [126.9300564, 37.549489]}, "properties": {"name": "거룩한세마포교회", "address": "(04065) 서울 마포구 서강로3길 32 상가동 거룩한세마포교회", "members_num": 110.0}}, {"type": "Feature", "geometry": {"type": "Point", "coordinates": [126.91057, 37.5977383]}, "properties": {"name": "광민교회", "address": "(03450) 서울 은평구 은평로22 3층", "members_num": 70.0}}, {"type": "Feature", "geometry": {"type": "Point", "coordinates": [127.0138928, 37.5923629]}, "properties": {"name": "본어게인교회", "address": "(02830) 서울 성북구 동소문로15길1", "members_num": 22.0}}, {"type": "Feature", "geometry": {"type": "Point", "coordinates": [127.0576425, 37.6735885]}, "properties": {"name": "주은혜교회", "address": "(01629) 서울 노원구 동일로234길35 2동502호 (상계동,드림타운)", "members_num": 50.0}}, {"type": "Feature", "geometry": {"type": "Point", "coordinates": [127.0090002, 37.6018109]}, "properties": {"name": "지구촌교회", "address": "(02813) 서울 강북구 아리랑로 19길 86, 2층", "members_num": 35.0}}, {"type": "Feature", "geometry": {"type": "Point", "coordinates": [127.0668118, 37.6659258]}, "properties": {"name": "은혜의빛큰숲교회", "address": "(01654) 서울 노원구 한글비석로46가길 36-5", "members_num": 150.0}}, {"type": "Feature", "geometry": {"type": "Point", "coordinates": [126.7324284, 37.529501]}, "properties": {"name": "예인교회", "address": "(21117) 인천 계양구 봉오대로744번길 3 뉴서울1차아파트 상가동 301호", "members_num": 18.0}}, {"type": "Feature", "geometry": {"type": "Point", "coordinates": [127.0792957, 37.5452124]}, "properties": {"name": "미션리바이벌교회", "address": "(05022) 서울 광진구 광나루로 450 302호", "members_num": 40.0}}, {"type": "Feature", "geometry": {"type": "Point", "coordinates": [127.1478276, 37.54047389999999]}, "properties": {"name": "현대인의교회", "address": "(05345) 서울 강동구 천중로 250 맘모스상가 3층 305호", "members_num": 35.0}}, {"type": "Feature", "geometry": {"type": "Point", "coordinates": [127.077705, 37.6592124]}, "properties": {"name": "통합", "address": "(한신월드빌라 가동402호) 서울 노원구 중계동 168-11", "members_num": 30.0}}, {"type": "Feature", "geometry": {"type": "Point", "coordinates": [127.089977, 37.5574521]}, "properties": {"name": "하늘씨앗교회", "address": "(04945) 서울 광진구 영화사로23, 2층", "members_num": 30.0}}, {"type": "Feature", "geometry": {"type": "Point", "coordinates": [126.9272496, 37.4953904]}, "properties": {"name": "선린교회", "address": "(07061) 서울 동작구 보라매로 67 3층", "members_num": 20.0}}, {"type": "Feature", "geometry": {"type": "Point", "coordinates": [127.1249964, 37.4776483]}, "properties": {"name": "그루터기교회", "address": "(05838) 서울 송파구 충민로 66, 테크노관 T-6111호", "members_num": 14.0}}, {"type": "Feature", "geometry": {"type": "Point", "coordinates": [127.0207763, 37.5525819]}, "properties": {"name": "사랑교회", "address": "(04728) 서울 성동구 무수막길 76(3층)", "members_num": 20.0}}, {"type": "Feature", "geometry": {"type": "Point", "coordinates": [126.8535651, 37.5226009]}, "properties": {"name": "광천교회", "address": "(08026) 서울 양천구 중앙로 46길 15-2", "members_num": 200.0}}, {"type": "Feature", "geometry": {"type": "Point", "coordinates": [127.0208868, 37.564673]}, "properties": {"name": "산돌교회", "address": "(04578) 서울 중구 다산로 42길 95", "members_num": 120.0}}, {"type": "Feature", "geometry": {"type": "Point", "coordinates": [127.0270449, 37.5730826]}, "properties": {"name": "신설동교회", "address": "(02586) 서울 동대문구 하정로24", "members_num": 100.0}}, {"type": "Feature", "geometry": {"type": "Point", "coordinates": [127.0299159, 37.6412871]}, "properties": {"name": "예향교회", "address": "(01056) 서울 강북구 한천로 132길 57(3층)", "members_num": 25.0}}, {"type": "Feature", "geometry": {"type": "Point", "coordinates": [127.0428356, 37.5063881]}, "properties": {"name": "대한예수교장로회", "address": "(06146) 서울 강남구 역삼동691-3 303호", "members_num": 11.0}}, {"type": "Feature", "geometry": {"type": "Point", "coordinates": [126.9054381, 37.5912984]}, "properties": {"name": "성은교회", "address": "(03446) 서울 은평구 은평터널로 135. 성은교회", "members_num": 150.0}}, {"type": "Feature", "geometry": {"type": "Point", "coordinates": [127.0558934, 37.5372397]}, "properties": {"name": "종소리교회", "address": "(04476) 서울 성동구 성덕정19길 6 2층", "members_num": 20.0}}, {"type": "Feature", "geometry": {"type": "Point", "coordinates": [126.913152, 37.5941357]}, "properties": {"name": "신사동교회", "address": "(03452) 서울 은평구 신사1동 37-1", "members_num": 120.0}}, {"type": "Feature", "geometry": {"type": "Point", "coordinates": [126.9666258, 37.5266412]}, "properties": {"name": "신용산교회청년부", "address": "(04387) 서울 용산구 서빙고로 17", "members_num": 155.0}}, {"type": "Feature", "geometry": {"type": "Point", "coordinates": [126.9668862, 37.5261321]}, "properties": {"name": "신용산교회", "address": "(04387) 서울 용산구 서빙고로 17 신용산 교회", "members_num": 1000.0}}, {"type": "Feature", "geometry": {"type": "Point", "coordinates": [126.9825768, 37.4744078]}, "properties": {"name": "수정교회", "address": "(060-760) 서울 서초구 과천대로946 우성상가 4층1호", "members_num": 11.0}}, {"type": "Feature", "geometry": {"type": "Point", "coordinates": [126.9668862, 37.5261321]}, "properties": {"name": "신용산교회", "address": "(04387) 서울 용산구 서빙고로 17 신용산교회", "members_num": 800.0}}, {"type": "Feature", "geometry": {"type": "Point", "coordinates": [127.0483764, 37.6137719]}, "properties": {"name": "부흥교회", "address": "(02756) 서울 성북구 장위로105 2층", "members_num": 20.0}}, {"type": "Feature", "geometry": {"type": "Point", "coordinates": [126.8567553, 37.5260107]}, "properties": {"name": "목동중앙교회", "address": "(07944) 서울 양천구 오목로175", "members_num": 50.0}}, {"type": "Feature", "geometry": {"type": "Point", "coordinates": [126.8316912, 37.5408502]}, "properties": {"name": "사랑샘교회", "address": "(07903) 서울 양천구 월정로256 101호", "members_num": 22.0}}, {"type": "Feature", "geometry": {"type": "Point", "coordinates": [127.0415051, 37.6650488]}, "properties": {"name": "예향교회응답기도원", "address": "(01340) 서울 도봉구 도봉로 147길19", "members_num": 0.0}}, {"type": "Feature", "geometry": {"type": "Point", "coordinates": [126.9651329, 37.572168]}, "properties": {"name": "구세군영천교회", "address": "(03178) 서울 종로구 송월1길 44-9", "members_num": 110.0}}, {"type": "Feature", "geometry": {"type": "Point", "coordinates": [126.9271277, 37.6239911]}, "properties": {"name": "은일교회", "address": "(03343) 서울 은평구 불광동 연서로 337", "members_num": 10.0}}, {"type": "Feature", "geometry": {"type": "Point", "coordinates": [126.9641838, 37.567223]}, "properties": {"name": "새봄교회", "address": "(03735) 서울 서대문구 독립문로 65", "members_num": 100.0}}, {"type": "Feature", "geometry": {"type": "Point", "coordinates": [126.9273665, 37.491163]}, "properties": {"name": "성화교회부설변화산기도원", "address": "(08722) 서울 관악구 보라매로20 3층", "members_num": 5.0}}, {"type": "Feature", "geometry": {"type": "Point", "coordinates": [126.9639989, 37.5577023]}, "properties": {"name": "서문밖교회", "address": "(04503) 서울 중구 서울시 중구 중림로4길32 서문밖교회", "members_num": 60.0}}, {"type": "Feature", "geometry": {"type": "Point", "coordinates": [127.0771283, 37.6079665]}, "properties": {"name": "반석위의교회", "address": "(02010) 서울 중랑구 동일로149가길29", "members_num": 10.0}}, {"type": "Feature", "geometry": {"type": "Point", "coordinates": [126.9065977, 37.5925073]}, "properties": {"name": "내숲길교회", "address": "(03445) 서울 은평구 은평터날로149, 3층", "members_num": 15.0}}, {"type": "Feature", "geometry": {"type": "Point", "coordinates": [127.0612648, 37.6308539]}, "properties": {"name": "월광교회", "address": "(01905) 서울 노원구 월계로 366", "members_num": 400.0}}, {"type": "Feature", "geometry": {"type": "Point", "coordinates": [127.0472052, 37.6139375]}, "properties": {"name": "양무리교회", "address": "(02756) 서울 성북구 장위로95 3층", "members_num": 20.0}}, {"type": "Feature", "geometry": {"type": "Point", "coordinates": [126.8255915, 37.4947718]}, "properties": {"name": "동산교회", "address": "(08260) 서울 구로구 부일로9길57 동산교회 (08260) 서울 구로구 부일로9길 57 동산교회", "members_num": 50.0}}, {"type": "Feature", "geometry": {"type": "Point", "coordinates": [126.8682908, 37.5544663]}, "properties": {"name": "에덴교회", "address": "(07544) 서울 강서구 양천로 637, 한마음 삼성A101동1201호", "members_num": 7.0}}, {"type": "Feature", "geometry": {"type": "Point", "coordinates": [126.8370507, 37.5355041]}, "properties": {"name": "예수사랑교회", "address": "(07761) 서울 강서구 월정로32길31. 3층", "members_num": 20.0}}, {"type": "Feature", "geometry": {"type": "Point", "coordinates": [126.8735423, 37.5465032]}, "properties": {"name": "서울양화교회", "address": "(07949) 서울 양천구 목동513-12 3층", "members_num": 50.0}}, {"type": "Feature", "geometry": {"type": "Point", "coordinates": [127.0364209, 37.6547653]}, "properties": {"name": "산정현교회", "address": "(01436) 서울 도봉구 노해로57길94", "members_num": 30.0}}, {"type": "Feature", "geometry": {"type": "Point", "coordinates": [127.1108124, 37.5106302]}, "properties": {"name": "새아침브니엘교회", "address": "(05670) 서울 송파구 오금로 146, 3층", "members_num": 40.0}}, {"type": "Feature", "geometry": {"type": "Point", "coordinates": [127.1731885, 37.5657241]}, "properties": {"name": "자이온교회", "address": "(05211) 서울 강동구 아리수로93길33-9,8층", "members_num": 40.0}}, {"type": "Feature", "geometry": {"type": "Point", "coordinates": [126.9481983, 37.480372]}, "properties": {"name": "꿈의교회", "address": "(08786) 서울 관악구 남부순환로 1794", "members_num": 7.0}}, {"type": "Feature", "geometry": {"type": "Point", "coordinates": [126.8209533, 37.5712256]}, "properties": {"name": "은혜순복음교회", "address": "(07597) 서울 강서구 양천로 28길46", "members_num": 20.0}}, {"type": "Feature", "geometry": {"type": "Point", "coordinates": [127.1715786, 37.5499307]}, "properties": {"name": "목양교회", "address": "(05282) 서울 강동구 구천면로100길20", "members_num": 80.0}}, {"type": "Feature", "geometry": {"type": "Point", "coordinates": [126.8465213, 37.5600308]}, "properties": {"name": "서울반석교회", "address": "(07587) 서울 강서구 공항대로41길 66", "members_num": 100.0}}, {"type": "Feature", "geometry": {"type": "Point", "coordinates": [126.8530016, 37.5086787]}, "properties": {"name": "서광교회", "address": "(08239) 서울 구로구 중앙로15길 132-17 삼익1단지아파트", "members_num": 50.0}}, {"type": "Feature", "geometry": {"type": "Point", "coordinates": [126.9802619, 37.4889286]}, "properties": {"name": "시민성결교회", "address": "(06997) 서울 동작구 동작대로29라길6", "members_num": 50.0}}, {"type": "Feature", "geometry": {"type": "Point", "coordinates": [127.0790147, 37.6695145]}, "properties": {"name": "벧엘교회", "address": "(01637) 서울 노원구 덕릉로123길 48-2 벧엘교회", "members_num": 20.0}}, {"type": "Feature", "geometry": {"type": "Point", "coordinates": [126.9141945, 37.4791462]}, "properties": {"name": "신광교회", "address": "(08771) 서울 관악구 관악구 난곡로63가길42 신광교회", "members_num": 100.0}}, {"type": "Feature", "geometry": {"type": "Point", "coordinates": [126.9807988, 37.4837791]}, "properties": {"name": "서울중앙성결교회", "address": "(07013) 서울 동작구 사당로30길24", "members_num": 150.0}}, {"type": "Feature", "geometry": {"type": "Point", "coordinates": [126.8215436, 37.49751820000001]}, "properties": {"name": "온수중앙교회", "address": "(08259) 서울 구로구 부일로9길 135-8", "members_num": 100.0}}, {"type": "Feature", "geometry": {"type": "Point", "coordinates": [127.0798607, 37.5056923]}, "properties": {"name": "주찬양교회", "address": "(05574) 서울 송파구 백제고분로 12길 4-5", "members_num": 11.0}}, {"type": "Feature", "geometry": {"type": "Point", "coordinates": [126.8361961, 37.5540944]}, "properties": {"name": "주사랑교회", "address": "(07632) 서울 강서구 공항대로 36길 101", "members_num": 100.0}}, {"type": "Feature", "geometry": {"type": "Point", "coordinates": [126.936842, 37.6117908]}, "properties": {"name": "동산교회", "address": "(03366) 서울 은평구 진흥로 267-20", "members_num": 250.0}}, {"type": "Feature", "geometry": {"type": "Point", "coordinates": [126.9032147, 37.5215848]}, "properties": {"name": "한남교회", "address": "(07251) 서울 영등포구 양산로 182", "members_num": 250.0}}, {"type": "Feature", "geometry": {"type": "Point", "coordinates": [126.9032147, 37.5215848]}, "properties": {"name": "한남교회", "address": "(07251) 서울 영등포구 양산로 182", "members_num": 200.0}}, {"type": "Feature", "geometry": {"type": "Point", "coordinates": [127.0793271, 37.5594346]}, "properties": {"name": "주님의교회", "address": "(04918) 서울 광진구 긴고랑로 14길 64", "members_num": 50.0}}, {"type": "Feature", "geometry": {"type": "Point", "coordinates": [127.0435927, 37.632009]}, "properties": {"name": "한사랑교회", "address": "(01871) 서울 노원구 우이천로 2나길 14,102동 303호", "members_num": 50.0}}, {"type": "Feature", "geometry": {"type": "Point", "coordinates": [126.9662163, 37.5613007]}, "properties": {"name": "우리주의교회", "address": "(03741) 서울 서대문구 서소문로 45, 305호", "members_num": 7.0}}, {"type": "Feature", "geometry": {"type": "Point", "coordinates": [127.0055004, 37.5770437]}, "properties": {"name": "종로감리교회", "address": "(03100) 서울 종로구 이화장1가길 10", "members_num": 150.0}}, {"type": "Feature", "geometry": {"type": "Point", "coordinates": [126.9555239, 37.4831166]}, "properties": {"name": "더처치", "address": "(08737) 서울 관악구 행운1길 89-9", "members_num": 60.0}}, {"type": "Feature", "geometry": {"type": "Point", "coordinates": [127.0701749, 37.6615415]}, "properties": {"name": "연결교회", "address": "(01681) 서울 노원구 한글비석로31길 4. 2층", "members_num": 30.0}}, {"type": "Feature", "geometry": {"type": "Point", "coordinates": [126.8638208, 37.5256314]}, "properties": {"name": "홍익교회", "address": "(08022) 서울 양천구 오목로 50길 3", "members_num": 50.0}}, {"type": "Feature", "geometry": {"type": "Point", "coordinates": [126.8558741, 37.5268203]}, "properties": {"name": "성현교회", "address": "(07943) 서울 양천구 오목로37길 19", "members_num": 120.0}}, {"type": "Feature", "geometry": {"type": "Point", "coordinates": [126.8597044, 37.5278708]}, "properties": {"name": "열림감리교회", "address": "(07938) 서울 양천구 목동로23길34 심미에셈빌 201호", "members_num": 50.0}}, {"type": "Feature", "geometry": {"type": "Point", "coordinates": [127.0768267, 37.5883978]}, "properties": {"name": "충만성결교회", "address": "(02134) 서울 중랑구 겸재로3길 54,3층", "members_num": 14.0}}, {"type": "Feature", "geometry": {"type": "Point", "coordinates": [126.854121, 37.5245881]}, "properties": {"name": "새언약교회", "address": "(08019) 서울 양천구 오목로150 2층", "members_num": 50.0}}, {"type": "Feature", "geometry": {"type": "Point", "coordinates": [126.9983478, 37.4866322]}, "properties": {"name": "효성교회", "address": "(06663) 서울 서초구 서초대로 34가길 43", "members_num": 120.0}}, {"type": "Feature", "geometry": {"type": "Point", "coordinates": [127.084632, 37.5098641]}, "properties": {"name": "참좋은교회", "address": "(05559) 서울 송파구 석촌호수로66, 2층", "members_num": 70.0}}, {"type": "Feature", "geometry": {"type": "Point", "coordinates": [126.8511092, 37.5344309]}, "properties": {"name": "대은교회", "address": "(07754) 서울 강서구 곰달래로31길77 대은교회", "members_num": 60.0}}, {"type": "Feature", "geometry": {"type": "Point", "coordinates": [126.9290383, 37.5472524]}, "properties": {"name": "평안교회", "address": "(04072) 서울 마포구 독막로 22길 12", "members_num": 30.0}}, {"type": "Feature", "geometry": {"type": "Point", "coordinates": [126.9340247, 37.51062599999999]}, "properties": {"name": "영진교회", "address": "(06932) 서울 동작구 등용로12다길 25, 영진교회", "members_num": 80.0}}, {"type": "Feature", "geometry": {"type": "Point", "coordinates": [127.0141636, 37.6590749]}, "properties": {"name": "올람교회", "address": "(01365) 서울 도봉구 쌍문동 512-23 4층", "members_num": 30.0}}, {"type": "Feature", "geometry": {"type": "Point", "coordinates": [127.0474454, 37.5774276]}, "properties": {"name": "영신침례교회", "address": "(02558) 서울 동대문구 답십리로 51", "members_num": 200.0}}, {"type": "Feature", "geometry": {"type": "Point", "coordinates": [126.9683705, 37.4869184]}, "properties": {"name": "진향교회", "address": "(07003) 서울 동작구 사당로 9가길 55", "members_num": 80.0}}, {"type": "Feature", "geometry": {"type": "Point", "coordinates": [126.8557508, 37.5209873]}, "properties": {"name": "주영광교회", "address": "(08082) 서울 양천구 은행정로5길38지층주영광교회", "members_num": 50.0}}, {"type": "Feature", "geometry": {"type": "Point", "coordinates": [127.1036079, 37.4887823]}, "properties": {"name": "그레이스선교교회", "address": "(06349) 서울 강남구 수서동 717 302호", "members_num": 40.0}}, {"type": "Feature", "geometry": {"type": "Point", "coordinates": [127.0242826, 37.6200225]}, "properties": {"name": "이레교회", "address": "(422 1905) 서울 강북구 도봉로29길71", "members_num": 30.0}}, {"type": "Feature", "geometry": {"type": "Point", "coordinates": [127.0364209, 37.6547653]}, "properties": {"name": "한서교회", "address": "(01436) 서울 도봉구 도봉로 129길 45-13", "members_num": 50.0}}, {"type": "Feature", "geometry": {"type": "Point", "coordinates": [126.9040879, 37.4823679]}, "properties": {"name": "숲길교회", "address": "(08769) 서울 관악구 조원중앙로 9 2층", "members_num": 30.0}}, {"type": "Feature", "geometry": {"type": "Point", "coordinates": [127.175125, 37.5723891]}, "properties": {"name": "더새로운교회", "address": "(05415) 서울 강동구 아리수로93나길 60 골드프라자 505호", "members_num": 30.0}}, {"type": "Feature", "geometry": {"type": "Point", "coordinates": [127.0849363, 37.5934393]}, "properties": {"name": "평강교회", "address": "(02138) 서울 중랑구 면목로 85길 11", "members_num": 100.0}}, {"type": "Feature", "geometry": {"type": "Point", "coordinates": [127.0909305, 37.5368372]}, "properties": {"name": "글로벌비전교회", "address": "(05048) 서울 광진구 구의강변로3가길 33, 2층", "members_num": 30.0}}, {"type": "Feature", "geometry": {"type": "Point", "coordinates": [126.9344201, 37.4973089]}, "properties": {"name": "예닮교회", "address": "(예닮교회) 서울 동작구 성대로10가길 5", "members_num": 145.0}}, {"type": "Feature", "geometry": {"type": "Point", "coordinates": [127.0313293, 37.6030523]}, "properties": {"name": "샘터교회", "address": "(02802) 서울 성북구 정릉로 454-10 2층", "members_num": 20.0}}, {"type": "Feature", "geometry": {"type": "Point", "coordinates": [127.1456554, 37.5416004]}, "properties": {"name": "성경진리교회", "address": "(05304) 서울 강동구 양재대로124길 80 2층", "members_num": 9.0}}, {"type": "Feature", "geometry": {"type": "Point", "coordinates": [127.0438313, 37.6777723]}, "properties": {"name": "기쁨샘교회", "address": "(01307) 서울 도봉구 도봉로 169나길 43 2층", "members_num": 11.0}}, {"type": "Feature", "geometry": {"type": "Point", "coordinates": [127.1458941, 37.4921903]}, "properties": {"name": "거성교회", "address": "(05773) 서울 송파구 양산로 8길7", "members_num": 120.0}}, {"type": "Feature", "geometry": {"type": "Point", "coordinates": [127.0650359, 37.6404744]}, "properties": {"name": "빛과소금의교회", "address": "(01779) 서울 노원구 동일로 1063", "members_num": 25.0}}, {"type": "Feature", "geometry": {"type": "Point", "coordinates": [127.1179862, 37.5101908]}, "properties": {"name": "생명수교회", "address": "(05633) 서울 송파구 방이동 136-5 2층", "members_num": 45.0}}, {"type": "Feature", "geometry": {"type": "Point", "coordinates": [126.9373354, 37.5543829]}, "properties": {"name": "이음교회", "address": "(04101) 서울 마포구 백범로 1길 3 2층", "members_num": 40.0}}, {"type": "Feature", "geometry": {"type": "Point", "coordinates": [127.0349658, 37.5005994]}, "properties": {"name": "주님의교회", "address": "(06132) 서울 강남구 테헤란노 143 고운빌딩 9층", "members_num": 44.0}}, {"type": "Feature", "geometry": {"type": "Point", "coordinates": [127.0400292, 37.5637528]}, "properties": {"name": "은평교회", "address": "(04759) 서울 성동구 마조로 53", "members_num": 40.0}}, {"type": "Feature", "geometry": {"type": "Point", "coordinates": [126.8621342, 37.5058985]}, "properties": {"name": "새중앙교회", "address": "(08218) 서울 구로구 구로중앙로 14길 36", "members_num": 120.0}}, {"type": "Feature", "geometry": {"type": "Point", "coordinates": [127.0877238, 37.5758745]}, "properties": {"name": "은광교회", "address": "(02253) 서울 중랑구 면목로30나길6 102호", "members_num": 24.0}}, {"type": "Feature", "geometry": {"type": "Point", "coordinates": [126.9058099, 37.4741039]}, "properties": {"name": "남문교회", "address": "(08553) 서울 금천구 독산로 94가길 29", "members_num": 400.0}}, {"type": "Feature", "geometry": {"type": "Point", "coordinates": [126.964161, 37.567345]}, "properties": {"name": "새봄교회", "address": "(03735) 서울 서대문구 독립문로 65, 3층", "members_num": 100.0}}, {"type": "Feature", "geometry": {"type": "Point", "coordinates": [126.916738, 37.6094149]}, "properties": {"name": "서울열방교회", "address": "(03399) 서울 은평구 연서로 120-2 2층", "members_num": 35.0}}, {"type": "Feature", "geometry": {"type": "Point", "coordinates": [127.0819073, 37.5971492]}, "properties": {"name": "열린문교회", "address": "(02095) 서울 중랑구 동일로 752 상가동 201호 3층", "members_num": 50.0}}, {"type": "Feature", "geometry": {"type": "Point", "coordinates": [126.9660757, 37.6086314]}, "properties": {"name": "우리가꿈꾸는교회", "address": "(03008) 서울 종로구 평창14길 3. 뉴본빌딩5층", "members_num": 80.0}}, {"type": "Feature", "geometry": {"type": "Point", "coordinates": [126.9056312, 37.5929748]}, "properties": {"name": "내숲길교회", "address": "(03445) 서울 은평구 은평터널로 149, 3층", "members_num": 20.0}}, {"type": "Feature", "geometry": {"type": "Point", "coordinates": [126.9088892, 37.6142132]}, "properties": {"name": "부활교회", "address": "(03425) 서울 은평구 서오릉로17길 13-11", "members_num": 10.0}}, {"type": "Feature", "geometry": {"type": "Point", "coordinates": [126.9139141, 37.4932218]}, "properties": {"name": "보라매교회", "address": "(07062) 서울 동작구 서울특별시 동작구 여의대방로 10가길 22", "members_num": 350.0}}, {"type": "Feature", "geometry": {"type": "Point", "coordinates": [126.9113277, 37.4996097]}, "properties": {"name": "서울성서침례교회", "address": "(07430) 서울 영등포구 신풍로62(신길동)", "members_num": 150.0}}, {"type": "Feature", "geometry": {"type": "Point", "coordinates": [126.9245981, 37.601519]}, "properties": {"name": "새롬교회", "address": "(03460) 서울 은평구 은평로13길11-5.지층", "members_num": 30.0}}, {"type": "Feature", "geometry": {"type": "Point", "coordinates": [127.1621636, 37.5615185]}, "properties": {"name": "순종의교회", "address": "(05219) 서울 강동구 아리수로72길46-17 101호", "members_num": 10.0}}, {"type": "Feature", "geometry": {"type": "Point", "coordinates": [127.0100164, 37.5861877]}, "properties": {"name": "하늘교회", "address": "(02864) 서울 성북구 삼선교로 10길 45 2층 하늘교회", "members_num": 27.0}}, {"type": "Feature", "geometry": {"type": "Point", "coordinates": [126.9176801, 37.4717628]}, "properties": {"name": "신림소망교회", "address": "(08858) 서울 관악구 난곡로704-13 2층", "members_num": 20.0}}, {"type": "Feature", "geometry": {"type": "Point", "coordinates": [127.0668118, 37.6659258]}, "properties": {"name": "은혜의빛큰숲교회", "address": "(01654) 서울 노원구 한글비석로46가길 36-5", "members_num": 150.0}}, {"type": "Feature", "geometry": {"type": "Point", "coordinates": [127.154707, 37.5559334]}, "properties": {"name": "명덕교회", "address": "(05233) 서울 강동구 고덕로 269", "members_num": 200.0}}, {"type": "Feature", "geometry": {"type": "Point", "coordinates": [126.8908313, 37.4546252]}, "properties": {"name": "성민교회", "address": "(08599) 서울 금천구 금하로1길70", "members_num": 200.0}}, {"type": "Feature", "geometry": {"type": "Point", "coordinates": [126.8333194, 37.5202605]}, "properties": {"name": "소망교회", "address": "(08038) 서울 양천구 지양로7길 13 3층", "members_num": 50.0}}, {"type": "Feature", "geometry": {"type": "Point", "coordinates": [126.9286753, 37.6021706]}, "properties": {"name": "예수향기교회", "address": "(03384) 서울 은평구 녹번동 190번지 3층", "members_num": 40.0}}, {"type": "Feature", "geometry": {"type": "Point", "coordinates": [127.0145779, 37.6306952]}, "properties": {"name": "로뎀나무교회", "address": "(01100) 서울 강북구 인수봉로32길 15 2층", "members_num": 20.0}}, {"type": "Feature", "geometry": {"type": "Point", "coordinates": [126.9212081, 37.5976593]}, "properties": {"name": "진실한교회", "address": "(03456) 서울 은평구 응암로32길5-5", "members_num": 45.0}}, {"type": "Feature", "geometry": {"type": "Point", "coordinates": [126.9133696, 37.6214618]}, "properties": {"name": "서부순복음교회", "address": "(03321) 서울 은평구 갈현로33길31 서부순복음교회", "members_num": 25.0}}, {"type": "Feature", "geometry": {"type": "Point", "coordinates": [126.9102573, 37.5586083]}, "properties": {"name": "낮고작은교회", "address": "(03971) 서울 마포구 성산동 250-15, 지하1층", "members_num": 50.0}}, {"type": "Feature", "geometry": {"type": "Point", "coordinates": [126.8263181, 37.5529782]}, "properties": {"name": "주드림감리교회", "address": "(07635) 서울 강서구 수명로78새롬프라자 10층 1001호", "members_num": 50.0}}, {"type": "Feature", "geometry": {"type": "Point", "coordinates": [126.8134916, 37.5674694]}, "properties": {"name": "양무리교회", "address": "(07616) 서울 강서구 초원로 72 우리빌딩 2층", "members_num": 45.0}}, {"type": "Feature", "geometry": {"type": "Point", "coordinates": [126.8463912, 37.56114050000001]}, "properties": {"name": "늘푸른교회", "address": "(07586) 서울 강서구 공항대로41길75 경원프라자 502호 늘푸른교회", "members_num": 50.0}}, {"type": "Feature", "geometry": {"type": "Point", "coordinates": [127.0862547, 37.5950666]}, "properties": {"name": "동흥교회", "address": "(02148) 서울 중랑구 면목로 94길 6-2", "members_num": 80.0}}, {"type": "Feature", "geometry": {"type": "Point", "coordinates": [126.8440384, 37.5588945]}, "properties": {"name": "함께꿈꾸는교회", "address": "(07591) 서울 강서구 강서로56길96재단빌딩4층", "members_num": 15.0}}, {"type": "Feature", "geometry": {"type": "Point", "coordinates": [126.8326186, 37.5516671]}, "properties": {"name": "발산성석교회", "address": "(07638) 서울 강서구 강서로 47라길 31 2층", "members_num": 30.0}}, {"type": "Feature", "geometry": {"type": "Point", "coordinates": [126.8336232, 37.545684]}, "properties": {"name": "부활의교회", "address": "(07704) 서울 강서구 강서로45다길 30-27 촉록상가 201호", "members_num": 15.0}}, {"type": "Feature", "geometry": {"type": "Point", "coordinates": [127.0577021, 37.63115310000001]}, "properties": {"name": "위드처치", "address": "(01879) 서울 노원구 초안산로2라길 26 월계센트럴아이파크 107동 1606호", "members_num": 20.0}}, {"type": "Feature", "geometry": {"type": "Point", "coordinates": [127.0506959, 37.4784509]}, "properties": {"name": "개포제일교회", "address": "(06309) 서울 강남구 개포로28길9 3층", "members_num": 100.0}}, {"type": "Feature", "geometry": {"type": "Point", "coordinates": [127.0673291, 37.6611845]}, "properties": {"name": "빛가온교회", "address": "(01680) 서울 노원구 상계로9나길 34", "members_num": 2000.0}}, {"type": "Feature", "geometry": {"type": "Point", "coordinates": [126.9064047, 37.4987538]}, "properties": {"name": "작은교회", "address": "(07425) 서울 영등포구 대방천로8길16-8", "members_num": 2.0}}, {"type": "Feature", "geometry": {"type": "Point", "coordinates": [126.851105, 37.5646884]}, "properties": {"name": "성현교회", "address": "(07527) 서울 강서구 양천로 57길 9-20", "members_num": 313.0}}, {"type": "Feature", "geometry": {"type": "Point", "coordinates": [126.8478691, 37.5390919]}, "properties": {"name": "샘솟는교회", "address": "(07725) 서울 강서구 초록마을로148", "members_num": 10.0}}, {"type": "Feature", "geometry": {"type": "Point", "coordinates": [126.9398297, 37.4987146]}, "properties": {"name": "성문교회", "address": "(07046) 서울 동작구 성대로 170 성문교회 4층", "members_num": 100.0}}, {"type": "Feature", "geometry": {"type": "Point", "coordinates": [126.8688484, 37.5328811]}, "properties": {"name": "새창조교회", "address": "(07967) 서울 양천구 목동 799-5 (3층)", "members_num": 12.0}}, {"type": "Feature", "geometry": {"type": "Point", "coordinates": [126.9622567, 37.560129]}, "properties": {"name": "구세군푸른초장영문", "address": "(03737) 서울 서대문구 충정로 7 12층 구세군푸른초장교회", "members_num": 70.0}}, {"type": "Feature", "geometry": {"type": "Point", "coordinates": [126.9456927, 37.5383073]}, "properties": {"name": "구세군마포교회", "address": "(구세군 마포교회) 서울 마포구 마포대로 4가길 21-4", "members_num": 100.0}}, {"type": "Feature", "geometry": {"type": "Point", "coordinates": [126.9597222, 37.5677778]}, "properties": {"name": "구세군천연교회", "address": "(구세군천연영문3층) 서울 서대문구 독립문8길 41", "members_num": 50.0}}, {"type": "Feature", "geometry": {"type": "Point", "coordinates": [127.0154402, 37.5890533]}, "properties": {"name": "구세군돈암교회", "address": "(02862) 서울 성북구 삼선교로24길 18 2층", "members_num": 100.0}}, {"type": "Feature", "geometry": {"type": "Point", "coordinates": [127.1075593, 37.5006553]}, "properties": {"name": "한마음교회", "address": "(05696) 서울 송파구 서울 송파구 가락로16길 2-19", "members_num": 20.0}}, {"type": "Feature", "geometry": {"type": "Point", "coordinates": [126.8416749, 37.5187769]}, "properties": {"name": "은혜교회", "address": "(08031) 서울 양천구 남부순환로77길20 2층 은혜교회", "members_num": 6.0}}, {"type": "Feature", "geometry": {"type": "Point", "coordinates": [126.9271277, 37.6239911]}, "properties": {"name": "임마누엘교회", "address": "(03343) 서울 은평구 연서로329", "members_num": 88.0}}, {"type": "Feature", "geometry": {"type": "Point", "coordinates": [127.0135763, 37.6516581]}, "properties": {"name": "예수사랑교회", "address": "(01368) 서울 도봉구 삼양로 144길 11 3층", "members_num": 50.0}}, {"type": "Feature", "geometry": {"type": "Point", "coordinates": [126.9222461, 37.5985252]}, "properties": {"name": "홀리워크교회", "address": "(03464) 서울 은평구 응암로302-1 지하", "members_num": 25.0}}, {"type": "Feature", "geometry": {"type": "Point", "coordinates": [127.0194789, 37.6327051]}, "properties": {"name": "수유교회", "address": "(01112) 서울 강북구 수유로 34", "members_num": 15.0}}, {"type": "Feature", "geometry": {"type": "Point", "coordinates": [126.9413975, 37.5075341]}, "properties": {"name": "뉴송교회", "address": "(06925) 서울 동작구 장승배기로 96-2", "members_num": 50.0}}, {"type": "Feature", "geometry": {"type": "Point", "coordinates": [126.8416236, 37.52524409999999]}, "properties": {"name": "기독교대한성결", "address": "(07931) 서울 양천구 월정로62 상아아름아파트", "members_num": 30.0}}, {"type": "Feature", "geometry": {"type": "Point", "coordinates": [126.9183022, 37.4822317]}, "properties": {"name": "목양교회", "address": "(08772) 서울 관악구 남부순환로1508(신림동,우진빌딩)3층 목양교회", "members_num": 7.0}}, {"type": "Feature", "geometry": {"type": "Point", "coordinates": [127.0610305, 37.595921]}, "properties": {"name": "다하나국제교회", "address": "(02440) 서울 동대문구 휘경로 10, 3층 다하나교회", "members_num": 80.0}}, {"type": "Feature", "geometry": {"type": "Point", "coordinates": [127.033162, 37.5640031]}, "properties": {"name": "열린문", "address": "(04704) 서울 성동구 무학로 2 나길 11~13", "members_num": 17.0}}, {"type": "Feature", "geometry": {"type": "Point", "coordinates": [127.096637, 37.5835508]}, "properties": {"name": "성심교회", "address": "(02193) 서울 중랑구 용마산로370", "members_num": 300.0}}, {"type": "Feature", "geometry": {"type": "Point", "coordinates": [126.9482271, 37.48824700000001]}, "properties": {"name": "봉신교회", "address": "(08729) 서울 관악구 은천로 21길 36 봉신교회", "members_num": 350.0}}, {"type": "Feature", "geometry": {"type": "Point", "coordinates": [127.05325, 37.6749485]}, "properties": {"name": "평화교회", "address": "(11611) 서울 노원구 동일로239길33", "members_num": 200.0}}, {"type": "Feature", "geometry": {"type": "Point", "coordinates": [127.0237144, 37.6196596]}, "properties": {"name": "소망교회", "address": "(01178) 서울 강북구 도봉로27길 80-17", "members_num": 350.0}}, {"type": "Feature", "geometry": {"type": "Point", "coordinates": [126.8150111, 37.556484]}, "properties": {"name": "영광교회", "address": "(07625) 서울 강서구 방화대로7나길13", "members_num": 50.0}}, {"type": "Feature", "geometry": {"type": "Point", "coordinates": [127.0248127, 37.54891]}, "properties": {"name": "예수제자교회", "address": "(04729) 서울 성동구 무수막1길8_1", "members_num": 20.0}}, {"type": "Feature", "geometry": {"type": "Point", "coordinates": [127.051602, 37.4738967]}, "properties": {"name": "김영미", "address": "(06314) 서울 강남구 서울시 강남구 논현로8길47", "members_num": 60.0}}, {"type": "Feature", "geometry": {"type": "Point", "coordinates": [127.0130253, 37.6396604]}, "properties": {"name": "뿌리깊은교회", "address": "(01083) 서울 강북구 인수봉로64길3", "members_num": 100.0}}, {"type": "Feature", "geometry": {"type": "Point", "coordinates": [127.125351, 37.4894377]}, "properties": {"name": "드림감리교회", "address": "(05804) 서울 송파구 동남로6길 25-17", "members_num": 12.0}}, {"type": "Feature", "geometry": {"type": "Point", "coordinates": [126.8375132, 37.55514100000001]}, "properties": {"name": "포커스교회", "address": "(07652) 서울 강서구 강서로 330 4층 포커스교회(카페쪽 입구)", "members_num": 40.0}}, {"type": "Feature", "geometry": {"type": "Point", "coordinates": [126.8196749, 37.55624410000001]}, "properties": {"name": "흥왕교회", "address": "(07645) 서울 강서구 방화대로6바길 43", "members_num": 80.0}}, {"type": "Feature", "geometry": {"type": "Point", "coordinates": [127.1335086, 37.4840092]}, "properties": {"name": "임마누엘예수교회", "address": "(05792) 서울 송파구 충민로 182", "members_num": 28.0}}, {"type": "Feature", "geometry": {"type": "Point", "coordinates": [126.9107061, 37.449368]}, "properties": {"name": "화목한교회", "address": "(08644) 서울 금천구 독산로10길96 건영상가", "members_num": 50.0}}, {"type": "Feature", "geometry": {"type": "Point", "coordinates": [126.8472366, 37.5238664]}, "properties": {"name": "서울새순교회", "address": "(07935) 서울 양천구 오목로75", "members_num": 25.0}}, {"type": "Feature", "geometry": {"type": "Point", "coordinates": [126.8720861, 37.5555791]}, "properties": {"name": "명성교회", "address": "(07535) 서울 강서구 양천로 69길 65 성원상가 3층", "members_num": 20.0}}, {"type": "Feature", "geometry": {"type": "Point", "coordinates": [126.8304814, 37.524]}, "properties": {"name": "새희망교회", "address": "(08033) 서울 양천구 지양로 69", "members_num": 20.0}}, {"type": "Feature", "geometry": {"type": "Point", "coordinates": [126.823405, 37.56269959999999]}, "properties": {"name": "엘사랑교회", "address": "(07798) 서울 강서구 마곡서로 101, 동익드미라벨 247호", "members_num": 20.0}}, {"type": "Feature", "geometry": {"type": "Point", "coordinates": [126.878503, 37.5077136]}, "properties": {"name": "새서울교회", "address": "(08206) 서울 구로구 신도림로3길19", "members_num": 100.0}}, {"type": "Feature", "geometry": {"type": "Point", "coordinates": [126.8529582, 37.5668685]}, "properties": {"name": "예수마당교회", "address": "(07525) 서울 강서구 허준로121", "members_num": 50.0}}, {"type": "Feature", "geometry": {"type": "Point", "coordinates": [126.9716487, 37.5301773]}, "properties": {"name": "도원동교회", "address": "(04356) 서울 용산구 12길 11-8", "members_num": 800.0}}, {"type": "Feature", "geometry": {"type": "Point", "coordinates": [127.1539573, 37.49513700000001]}, "properties": {"name": "인크라이스트교회", "address": "(05759) 서울 송파구 마천동 300-2 B01", "members_num": 50.0}}, {"type": "Feature", "geometry": {"type": "Point", "coordinates": [127.0345512, 37.6442328]}, "properties": {"name": "빌립보교회", "address": "(01460) 서울 도봉구 창동", "members_num": 30.0}}, {"type": "Feature", "geometry": {"type": "Point", "coordinates": [127.0396107, 37.487018]}, "properties": {"name": "주기쁨교회", "address": "(06270) 서울 강남구 남부순환로 365길 26", "members_num": 50.0}}, {"type": "Feature", "geometry": {"type": "Point", "coordinates": [126.8511103, 37.5618815]}, "properties": {"name": "큰빛교회", "address": "(07576) 서울 강서구 화곡로69길71 등촌종합상가 B1 큰빛교회", "members_num": 50.0}}, {"type": "Feature", "geometry": {"type": "Point", "coordinates": [127.0021021, 37.5609516]}, "properties": {"name": "신광교회", "address": "(04618) 서울 중구 동호로 27길 36", "members_num": 440.0}}, {"type": "Feature", "geometry": {"type": "Point", "coordinates": [126.8744608, 37.5522908]}, "properties": {"name": "예본교회", "address": "(07537) 서울 강서구 양천로73길 52 예본교회", "members_num": 50.0}}, {"type": "Feature", "geometry": {"type": "Point", "coordinates": [127.0353652, 37.6119322]}, "properties": {"name": "순복음서울중앙교회", "address": "(01237) 서울 강북구 월계로 53ㅡ3 록일빌딩 3층", "members_num": 30.0}}, {"type": "Feature", "geometry": {"type": "Point", "coordinates": [127.0494306, 37.5503665]}, "properties": {"name": "샘물선교교회", "address": "(04791) 서울 성동구 상원길 80", "members_num": 50.0}}, {"type": "Feature", "geometry": {"type": "Point", "coordinates": [127.1484918, 37.5002558]}, "properties": {"name": "찬양하는교회", "address": "(05754) 서울 송파구 거마로 96", "members_num": 10.0}}, {"type": "Feature", "geometry": {"type": "Point", "coordinates": [127.0715296, 37.6271491]}, "properties": {"name": "꿈꾸는벧엘교회", "address": "(01852) 서울 노원구 동일로193가길26", "members_num": 40.0}}, {"type": "Feature", "geometry": {"type": "Point", "coordinates": [126.9950717, 37.4978104]}, "properties": {"name": "남산감리교회", "address": "(06575) 서울 서초구 사평대로 16길 20", "members_num": 0.0}}, {"type": "Feature", "geometry": {"type": "Point", "coordinates": [127.0912745, 37.53363090000001]}, "properties": {"name": "부광교회", "address": "(05115) 서울 광진구 구의강변로31 부광교회 1층 사무실", "members_num": 200.0}}, {"type": "Feature", "geometry": {"type": "Point", "coordinates": [126.9106763, 37.5818656]}, "properties": {"name": "충신교회", "address": "(03678) 서울 서대문구 응암로1길 16", "members_num": 45.0}}, {"type": "Feature", "geometry": {"type": "Point", "coordinates": [126.9836684, 37.4742305]}, "properties": {"name": "이수중앙교회", "address": "(06760) 서울 서초구 방배선행길9", "members_num": 150.0}}, {"type": "Feature", "geometry": {"type": "Point", "coordinates": [127.0209287, 37.54918139999999]}, "properties": {"name": "금광교회", "address": "(04726) 서울 성동구 금호산4길 11", "members_num": 80.0}}, {"type": "Feature", "geometry": {"type": "Point", "coordinates": [126.9109444, 37.4694]}, "properties": {"name": "아름다운교회", "address": "(08863) 서울 관악구 문성로 16다길 140", "members_num": 100.0}}, {"type": "Feature", "geometry": {"type": "Point", "coordinates": [126.9239672, 37.5927054]}, "properties": {"name": "청죽교회", "address": "(03477) 서울 은평구 백련산로2길 7", "members_num": 200.0}}, {"type": "Feature", "geometry": {"type": "Point", "coordinates": [127.0943723, 37.5512917]}, "properties": {"name": "열방교회", "address": "(04960) 서울 광진구 자양로50길18", "members_num": 30.0}}, {"type": "Feature", "geometry": {"type": "Point", "coordinates": [126.9213177, 37.482774]}, "properties": {"name": "신림제일교회", "address": "(08773) 서울 관악구 남부순환로1536 지층 신림제일교회", "members_num": 30.0}}, {"type": "Feature", "geometry": {"type": "Point", "coordinates": [126.9812741, 37.4922706]}, "properties": {"name": "성현교회", "address": "(06995) 서울 동작구 동작대로 35길 14", "members_num": 100.0}}, {"type": "Feature", "geometry": {"type": "Point", "coordinates": [127.0803938, 37.5982428]}, "properties": {"name": "에덴장로교회", "address": "(02094) 서울 중랑구 동일로 758 2층", "members_num": 20.0}}, {"type": "Feature", "geometry": {"type": "Point", "coordinates": [126.833568, 37.5219812]}, "properties": {"name": "에덴교회", "address": "(08038) 서울 양천구 지양로73 3층교회", "members_num": 20.0}}, {"type": "Feature", "geometry": {"type": "Point", "coordinates": [127.0153542, 37.6090786]}, "properties": {"name": "맑은샘교회", "address": "(02716) 서울 성북구 서경로 63 2층", "members_num": 30.0}}, {"type": "Feature", "geometry": {"type": "Point", "coordinates": [127.0100868, 37.575658]}, "properties": {"name": "창신제일교회", "address": "(03097) 서울 종로구 창신7길 7", "members_num": 200.0}}, {"type": "Feature", "geometry": {"type": "Point", "coordinates": [126.9460994, 37.5005552]}, "properties": {"name": "영광교회", "address": "(16965) 서울 동작구 양녕로249.3층", "members_num": 40.0}}, {"type": "Feature", "geometry": {"type": "Point", "coordinates": [127.0526435, 37.6742889]}, "properties": {"name": "평화교회", "address": "(01611) 서울 노원구 동일로239길33", "members_num": 200.0}}, {"type": "Feature", "geometry": {"type": "Point", "coordinates": [126.9284534, 37.6001172]}, "properties": {"name": "은평제일교회", "address": "(03471) 서울 은평구 백련산로 168", "members_num": 50.0}}, {"type": "Feature", "geometry": {"type": "Point", "coordinates": [126.92305, 37.4701098]}, "properties": {"name": "남서울교회", "address": "(08855) 서울 관악구 난곡로176", "members_num": 15.0}}, {"type": "Feature", "geometry": {"type": "Point", "coordinates": [126.9382631, 37.558352]}, "properties": {"name": "새사람교회", "address": "(03776) 서울 서대문구 명물길33, 3층 새사람교회", "members_num": 30.0}}, {"type": "Feature", "geometry": {"type": "Point", "coordinates": [126.942057, 37.5872492]}, "properties": {"name": "예본교회", "address": "(03639) 서울 서대문구 통일로39길49", "members_num": 40.0}}, {"type": "Feature", "geometry": {"type": "Point", "coordinates": [127.0246881, 37.4709195]}, "properties": {"name": "임마누엘선교교회", "address": "(06762) 서울 서초구 우면동65-1 한일프라자4층", "members_num": 50.0}}, {"type": "Feature", "geometry": {"type": "Point", "coordinates": [127.0657037, 37.5428012]}, "properties": {"name": "은석교회", "address": "(05020) 서울 광진구 아차산로 21길 31", "members_num": 200.0}}, {"type": "Feature", "geometry": {"type": "Point", "coordinates": [127.0989804, 37.485626]}, "properties": {"name": "세곡교회", "address": "(06362) 서울 강남구 광평로 42길7 (1층)", "members_num": 14.0}}, {"type": "Feature", "geometry": {"type": "Point", "coordinates": [126.9240583, 37.5612289]}, "properties": {"name": "라이드처치", "address": "(03984) 서울 마포구 동교로 239 지하(창무빌딩)", "members_num": 70.0}}, {"type": "Feature", "geometry": {"type": "Point", "coordinates": [126.8817031, 37.4964861]}, "properties": {"name": "새마음교회", "address": "(08281) 서울 구로구 구로동로 43길10 우리유앤미아파트 102동 1901호", "members_num": 10.0}}, {"type": "Feature", "geometry": {"type": "Point", "coordinates": [126.9056431, 37.4482924]}, "properties": {"name": "성석교회", "address": "(08649) 서울 금천구 시흥대로40길7", "members_num": 300.0}}, {"type": "Feature", "geometry": {"type": "Point", "coordinates": [126.9058099, 37.4741039]}, "properties": {"name": "남문교회", "address": "(08553) 서울 금천구 독산로 94가길 29", "members_num": 400.0}}, {"type": "Feature", "geometry": {"type": "Point", "coordinates": [127.1142315, 37.5313428]}, "properties": {"name": "한강교회", "address": "(05533) 서울 송파구 토성로7길 10-5", "members_num": 60.0}}, {"type": "Feature", "geometry": {"type": "Point", "coordinates": [126.9570414, 37.5534717]}, "properties": {"name": "운화성결교회", "address": "(04202) 서울 마포구 마포대로 220 운화성결교회", "members_num": 0.0}}, {"type": "Feature", "geometry": {"type": "Point", "coordinates": [127.0674857, 37.6172514]}, "properties": {"name": "한양제일교회", "address": "(01913) 서울 노원구 마들로 1가길 123 1층 행정실", "members_num": 500.0}}, {"type": "Feature", "geometry": {"type": "Point", "coordinates": [126.8448856, 37.4989404]}, "properties": {"name": "주님의교회", "address": "(08267) 서울 구로구 고척로16가길 27.3층", "members_num": 30.0}}, {"type": "Feature", "geometry": {"type": "Point", "coordinates": [127.0818929, 37.6482381]}, "properties": {"name": "기독교대한감리회", "address": "(01725) 서울 노원구 중계로 144", "members_num": 70.0}}, {"type": "Feature", "geometry": {"type": "Point", "coordinates": [127.0778413, 37.6515236]}, "properties": {"name": "창일교회", "address": "(01720) 서울 노원구 중계로 18길 17 동진프라자 4층", "members_num": 30.0}}, {"type": "Feature", "geometry": {"type": "Point", "coordinates": [127.074101, 37.63667909999999]}, "properties": {"name": "하얀교회", "address": "(01809) 서울 노원구 공릉로58나길 20-9", "members_num": 50.0}}, {"type": "Feature", "geometry": {"type": "Point", "coordinates": [127.0782262, 37.6189519]}, "properties": {"name": "공감교회", "address": "(01849) 서울 노원구 공릉로 97 2층 공감교회", "members_num": 10.0}}, {"type": "Feature", "geometry": {"type": "Point", "coordinates": [127.066647, 37.6606365]}, "properties": {"name": "로뎀나무교회", "address": "(01685) 서울 노원구 한글비석로47길 77, 2층", "members_num": 28.0}}, {"type": "Feature", "geometry": {"type": "Point", "coordinates": [126.8756164, 37.5190482]}, "properties": {"name": "목동예수교회", "address": "(08015) 서울 양천구 신목로2길11, 청구아파트", "members_num": 12.0}}, {"type": "Feature", "geometry": {"type": "Point", "coordinates": [127.0759853, 37.6504871]}, "properties": {"name": "새비전교회", "address": "(01743) 서울 노원구 중계로 217 (지하 3층, 301호)", "members_num": 100.0}}, {"type": "Feature", "geometry": {"type": "Point", "coordinates": [126.9528316, 37.4964251]}, "properties": {"name": "참빛교회", "address": "(07040) 서울 동작구 상도로 56길 2 반석빌딩 2층 참빛교회", "members_num": 50.0}}, {"type": "Feature", "geometry": {"type": "Point", "coordinates": [127.0407143, 37.6612522]}, "properties": {"name": "주은혜교회", "address": "(01391) 서울 도봉구 쌍문동708-15 우암빌라 비1호", "members_num": 7.0}}, {"type": "Feature", "geometry": {"type": "Point", "coordinates": [126.9437533, 37.6523623]}, "properties": {"name": "하늘정원교회", "address": "(03307) 서울 은평구 의상봉길 48 (진관동)", "members_num": 20.0}}, {"type": "Feature", "geometry": {"type": "Point", "coordinates": [126.8393438, 37.5192925]}, "properties": {"name": "신월제일교회", "address": "(08032) 서울 양천구 남부순환로 577", "members_num": 200.0}}, {"type": "Feature", "geometry": {"type": "Point", "coordinates": [127.0534612, 37.5114644]}, "properties": {"name": "강남임마누엘교회", "address": "(06155) 서울 강남구 삼성로107길5 강남임마누엘교회 지하", "members_num": 50.0}}, {"type": "Feature", "geometry": {"type": "Point", "coordinates": [126.9451605, 37.484102]}, "properties": {"name": "온누리교회", "address": "(08752) 서울 관악구 양녕로17", "members_num": 12.0}}, {"type": "Feature", "geometry": {"type": "Point", "coordinates": [126.8880304, 37.4565204]}, "properties": {"name": "사랑양문교회", "address": "(08599) 서울 금천구 한내로62 한신상가2층", "members_num": 50.0}}, {"type": "Feature", "geometry": {"type": "Point", "coordinates": [126.940802, 37.5000096]}, "properties": {"name": "선우교회", "address": "(06962) 서울 동작구 성대로 199(2층)", "members_num": 50.0}}, {"type": "Feature", "geometry": {"type": "Point", "coordinates": [126.844433, 37.5427844]}, "properties": {"name": "임마누엘교회", "address": "(07722) 서울 강서구 까치산로38 2층 임마누엘교회", "members_num": 15.0}}, {"type": "Feature", "geometry": {"type": "Point", "coordinates": [126.9952298, 37.5658349]}, "properties": {"name": "대한예수교장로회", "address": "(04549) 서울시 중구 을지로 20길 12 대성빌딩 405호", "members_num": 16.0}}, {"type": "Feature", "geometry": {"type": "Point", "coordinates": [126.8356342, 37.51621250000001]}, "properties": {"name": "참사랑교회", "address": "(08044) 서울시 양천구 신월로 105 4층", "members_num": 13.0}}, {"type": "Feature", "geometry": {"type": "Point", "coordinates": [127.0323149, 37.5726981]}, "properties": {"name": "임마누엘교회", "address": "(02588) 서울시 동대문구 무학로 26길30 신동아상가 3층", "members_num": 60.0}}, {"type": "Feature", "geometry": {"type": "Point", "coordinates": [127.0332764, 37.4912186]}, "properties": {"name": "동부교회", "address": "(06254) 서울 강남구 도곡로3길12", "members_num": 100.0}}, {"type": "Feature", "geometry": {"type": "Point", "coordinates": [126.9269516, 37.4964557]}, "properties": {"name": "신목교회", "address": "(07060) 서울 동작구 보라매로 79 신목교회", "members_num": 150.0}}, {"type": "Feature", "geometry": {"type": "Point", "coordinates": [126.9116815, 37.4511435]}, "properties": {"name": "동산중앙교회", "address": "(08657) 서울시 금천구 탑골로 26", "members_num": 100.0}}, {"type": "Feature", "geometry": {"type": "Point", "coordinates": [126.8846616, 37.5238886]}, "properties": {"name": "양남교회", "address": "(07275) 서울특별시 영등포구 선유서로25길 1", "members_num": 170.0}}, {"type": "Feature", "geometry": {"type": "Point", "coordinates": [127.0019021, 37.5923644]}, "properties": {"name": "성북제일성결교회", "address": "(02880) 서울시 성북구 성북로 53-21, 1층 중간층", "members_num": 35.0}}, {"type": "Feature", "geometry": {"type": "Point", "coordinates": [127.0840593, 37.5295674]}, "properties": {"name": "자양중앙교회", "address": "(05105) 서울특별시 광진구 뚝섬로58길 66", "members_num": 95.0}}, {"type": "Feature", "geometry": {"type": "Point", "coordinates": [126.9109226, 37.4934314]}, "properties": {"name": "천성교회", "address": "(07065) 서울특별시 동작구 여의대방로22 우성쇼핑센터 306호 천성교회", "members_num": 70.0}}, {"type": "Feature", "geometry": {"type": "Point", "coordinates": [126.8557804, 37.5064771]}, "properties": {"name": "하늘바람교회", "address": "(08241) 서울시 구로구 고척로55길 22-9", "members_num": 30.0}}, {"type": "Feature", "geometry": {"type": "Point", "coordinates": [127.101776, 37.461413]}, "properties": {"name": "은혜세대로교회", "address": "(06366) 서울시 강남구 헌릉로 590길 63, 강남데시앙파크 509동103호", "members_num": 35.0}}, {"type": "Feature", "geometry": {"type": "Point", "coordinates": [127.0948683, 37.5152448]}, "properties": {"name": "삶으로말하는교회", "address": "(05503) 서울 서울시 송파대로 567 505동 405호", "members_num": 50.0}}, {"type": "Feature", "geometry": {"type": "Point", "coordinates": [127.1482454, 37.5511121]}, "properties": {"name": "성덕교회", "address": "(05267) 서울시 강동구 고덕로 46길 71 삼익그린상가 3층", "members_num": 25.0}}, {"type": "Feature", "geometry": {"type": "Point", "coordinates": [127.1454391, 37.5284406]}, "properties": {"name": "말씀의빛교회", "address": "(05369) 서울시 강동구 진황도로 61길 42 2층 말씀의빛교회", "members_num": 34.0}}, {"type": "Feature", "geometry": {"type": "Point", "coordinates": [126.9119723, 37.4708538]}, "properties": {"name": "열린교회", "address": "(151796) 서울특별시 서울시 관악구 미성길148", "members_num": 40.0}}, {"type": "Feature", "geometry": {"type": "Point", "coordinates": [126.8943712, 37.5094299]}, "properties": {"name": "Christ Life Onnuri Church", "address": "(07372) 서울시 영등포구 도영로 15 쌍용 플래티넘시티", "members_num": 50.0}}, {"type": "Feature", "geometry": {"type": "Point", "coordinates": [126.842103, 37.48335489999999]}, "properties": {"name": "고백교회", "address": "(08350) 서울시 구로구 오리로 1100 301호 고백교회", "members_num": 10.0}}, {"type": "Feature", "geometry": {"type": "Point", "coordinates": [126.8355528, 37.5315735]}, "properties": {"name": "임마누엘교회", "address": "(07923) 서울시 양천구 콤달래로11길 21, 101동 1003호", "members_num": 45.0}}, {"type": "Feature", "geometry": {"type": "Point", "coordinates": [126.828548, 37.55814910000001]}, "properties": {"name": "하늘샘교회", "address": "(07631) 서울시 강서구 마곡중앙2로 15, 301호", "members_num": 50.0}}, {"type": "Feature", "geometry": {"type": "Point", "coordinates": [127.0787064, 37.5043394]}, "properties": {"name": "새한교회", "address": "(05573) 서울시 송파구 도곡로 62길 21 (05573) 서울시 송파구 도곡로 62길 21", "members_num": 500.0}}, {"type": "Feature", "geometry": {"type": "Point", "coordinates": [126.915544, 37.4831221]}, "properties": {"name": "선한이웃교회", "address": "(08761) 서울 특별시 서울시 관악구 난곡로334", "members_num": 300.0}}, {"type": "Feature", "geometry": {"type": "Point", "coordinates": [126.9655863, 37.5368398]}, "properties": {"name": "성산교회", "address": "(04368) 대한민국 서울시 용산구 원효로 210-30 5층", "members_num": 60.0}}, {"type": "Feature", "geometry": {"type": "Point", "coordinates": [126.838427, 37.5535772]}, "properties": {"name": "좋은나무교회", "address": "(07681) 서울 강서구 우장산로16", "members_num": 50.0}}, {"type": "Feature", "geometry": {"type": "Point", "coordinates": [126.8631856, 37.5446608]}, "properties": {"name": "신성그리스도의교회", "address": "(07951) 서울시 양천구 목동중앙남로16라길 24", "members_num": 100.0}}, {"type": "Feature", "geometry": {"type": "Point", "coordinates": [126.8452662, 37.4936549]}, "properties": {"name": "복된교회", "address": "(08341) 서울 구로구 서해안로 32길 12. 202호", "members_num": 50.0}}, {"type": "Feature", "geometry": {"type": "Point", "coordinates": [127.0526561, 37.4745111]}, "properties": {"name": "대원", "address": "(06314) 서울특별시 강남구 논현로8길 48 대원교회 4층", "members_num": 70.0}}, {"type": "Feature", "geometry": {"type": "Point", "coordinates": [127.0491914, 37.5142387]}, "properties": {"name": "밝은빛교회", "address": "(06094) 서울시 강남구 봉은사로 71길 31 한나빌딩 지하", "members_num": 10.0}}, {"type": "Feature", "geometry": {"type": "Point", "coordinates": [127.0429681, 37.6028502]}, "properties": {"name": "장월교회", "address": "(02793) 서울특별시 성북구 월곡로18가길 29", "members_num": 50.0}}, {"type": "Feature", "geometry": {"type": "Point", "coordinates": [127.0646298, 37.5658979]}, "properties": {"name": "신봉교회", "address": "(02630) 서울시 동대문구 천호대로77다길 11-10", "members_num": 30.0}}, {"type": "Feature", "geometry": {"type": "Point", "coordinates": [127.0107472, 37.59177090000001]}, "properties": {"name": "새생명교회", "address": "(02832) 서울 성북구 동소문동4가273", "members_num": 12.0}}, {"type": "Feature", "geometry": {"type": "Point", "coordinates": [126.8486954, 37.5484083]}, "properties": {"name": "WMFs", "address": "(07673) 강서구 까치산로17길19 서울시 미주아트빌라 302호", "members_num": 30.0}}, {"type": "Feature", "geometry": {"type": "Point", "coordinates": [127.0717189, 37.57846139999999]}, "properties": {"name": "나사렛교회아름다운땅", "address": "(02526) 서울 동대문구 장한로201 2층", "members_num": 0.0}}, {"type": "Feature", "geometry": {"type": "Point", "coordinates": [126.9018923, 37.572115]}, "properties": {"name": "바실교회", "address": "(서울시) 마포구 월드컵북로 235 성산시영@ 4-204", "members_num": 0.0}}, {"type": "Feature", "geometry": {"type": "Point", "coordinates": [127.0432621, 37.5476457]}, "properties": {"name": "중동교회", "address": "(04768) 서울시 성동구 서울숲6길 15", "members_num": 70.0}}, {"type": "Feature", "geometry": {"type": "Point", "coordinates": [126.8524499, 37.5312906]}, "properties": {"name": "은총교회", "address": "(07750) 서울특별시 강서구 곰달래로 33가길 10", "members_num": 120.0}}, {"type": "Feature", "geometry": {"type": "Point", "coordinates": [126.9200313, 37.6077327]}, "properties": {"name": "열린문교회", "address": "(03322) 서울특별시 은평구 역말로 94, 3층", "members_num": 30.0}}, {"type": "Feature", "geometry": {"type": "Point", "coordinates": [127.0345502, 37.6588014]}, "properties": {"name": "동문교회", "address": "(01385) 서울시 서울시 도봉구 해등로 200-13", "members_num": 35.0}}, {"type": "Feature", "geometry": {"type": "Point", "coordinates": [127.1526161, 37.5605448]}, "properties": {"name": "순복음새언약교회", "address": "(05227) 서울시 강동구 고덕동 645ㅡ3", "members_num": 12.0}}, {"type": "Feature", "geometry": {"type": "Point", "coordinates": [127.0685538, 37.6570612]}, "properties": {"name": "순복음성은교회", "address": "(서울시 노원구) 상계동177~ 79지층", "members_num": 10.0}}, {"type": "Feature", "geometry": {"type": "Point", "coordinates": [127.0237937, 37.6233264]}, "properties": {"name": "순복음창대교회", "address": "(01169) 01169 서울 강북구 삼양로54길 107 (미아동) 3층", "members_num": 15.0}}, {"type": "Feature", "geometry": {"type": "Point", "coordinates": [126.8627975, 37.5319481]}, "properties": {"name": "순복음생수초대교회", "address": "(08007) 서울시 강서구 곰달래로58길 7-15", "members_num": 7.0}}, {"type": "Feature", "geometry": {"type": "Point", "coordinates": [126.9506884, 37.5822046]}, "properties": {"name": "믿음으로사는교회", "address": "(03635) 서울 서울 서대문구 통일로 356 3층", "members_num": 15.0}}, {"type": "Feature", "geometry": {"type": "Point", "coordinates": [126.9243871, 37.6215342]}, "properties": {"name": "백석대신", "address": "(서울시은평구연서로) 서울시 은평구 연서로 33길10(2층)", "members_num": 18.0}}, {"type": "Feature", "geometry": {"type": "Point", "coordinates": [127.0793812, 37.6688476]}, "properties": {"name": "서울평안교회", "address": "(01637) 서울특별시 노원구 상계3.4동 덕릉로803 서울평안교회", "members_num": 55.0}}, {"type": "Feature", "geometry": {"type": "Point", "coordinates": [127.0966989, 37.58878929999999]}, "properties": {"name": "나눔교회", "address": "(02191) 서울특별시 중랑구 용마산로 418, 3층", "members_num": 11.0}}, {"type": "Feature", "geometry": {"type": "Point", "coordinates": [127.0550036, 37.56384389999999]}, "properties": {"name": "자라는교회", "address": "(04805) 서울시 성동구 용답29길10-1 2층", "members_num": 30.0}}, {"type": "Feature", "geometry": {"type": "Point", "coordinates": [127.1484765, 37.5356446]}, "properties": {"name": "하늘문교회", "address": "(05359) 서울특별시 강동구 천호대로 1238 하늘문교회", "members_num": 20.0}}, {"type": "Feature", "geometry": {"type": "Point", "coordinates": [126.853632, 37.5026199]}, "properties": {"name": "고척중앙교회", "address": "(08229) 서울시 구로구 경인로35길 138번지", "members_num": 200.0}}, {"type": "Feature", "geometry": {"type": "Point", "coordinates": [126.8420381, 37.5276554]}, "properties": {"name": "주사랑교회", "address": "(07780) 서울특별시 서울시 강서구 강서로5나길 109", "members_num": 100.0}}, {"type": "Feature", "geometry": {"type": "Point", "coordinates": [127.0233381, 37.611639]}, "properties": {"name": "참빛감리교회", "address": "(02726) 서울시 성북구 숭인로 10, 지하1층", "members_num": 50.0}}, {"type": "Feature", "geometry": {"type": "Point", "coordinates": [126.9488606, 37.53673149999999]}, "properties": {"name": "대교교회", "address": "(04179) 서울시 마포구 삼개로33 우성아파트 단지 내 대교교회", "members_num": 33.0}}, {"type": "Feature", "geometry": {"type": "Point", "coordinates": [126.8734509, 37.5537274]}, "properties": {"name": "예수사랑교회", "address": "(07542) 서울 강서구양천로71길60", "members_num": 100.0}}, {"type": "Feature", "geometry": {"type": "Point", "coordinates": [126.9676554, 37.4853101]}, "properties": {"name": "국경없는바리스타", "address": "(07030) 서울시 서울시 동작구 솔밭로 97-6 201호", "members_num": 70.0}}, {"type": "Feature", "geometry": {"type": "Point", "coordinates": [127.0126564, 37.6027624]}, "properties": {"name": "사랑인교회", "address": "(02814) 서울특별시 성북구 정릉로26가길 8 2층", "members_num": 30.0}}, {"type": "Feature", "geometry": {"type": "Point", "coordinates": [127.0134088, 37.6256393]}, "properties": {"name": "구세군강북교회", "address": "(01107) 서울 강북구 인수봉로20가길24,구세군강북영문(미아동)", "members_num": 60.0}}, {"type": "Feature", "geometry": {"type": "Point", "coordinates": [126.966158, 37.5687183]}, "properties": {"name": "예수사랑교회", "address": "(03180) 서울특별시 종로구 경교장길 35 경희궁자이 306-203", "members_num": 30.0}}, {"type": "Feature", "geometry": {"type": "Point", "coordinates": [126.9776442, 37.4924592]}, "properties": {"name": "동방교회", "address": "(06991) 서울특별시 서울 동작구 동작대로29길 195", "members_num": 30.0}}, {"type": "Feature", "geometry": {"type": "Point", "coordinates": [127.0875424, 37.5459115]}, "properties": {"name": "빌립보교회", "address": "(04976) 서울 광진구 자양로34길17-3,501호(구의동,베아누빌)", "members_num": 200.0}}, {"type": "Feature", "geometry": {"type": "Point", "coordinates": [127.1060166, 37.5000221]}, "properties": {"name": "꿈을주는교회", "address": "(05696) 서울시 송파구 송파대로37길 58 2층", "members_num": 20.0}}, {"type": "Feature", "geometry": {"type": "Point", "coordinates": [127.0137907, 37.6497797]}, "properties": {"name": "예인교회", "address": "(01044) 서울특별시 강북구 삼양로 524, 3층", "members_num": 10.0}}, {"type": "Feature", "geometry": {"type": "Point", "coordinates": [126.8713857, 37.5378883]}, "properties": {"name": "예수다솜교회", "address": "(07961) 서울시 서울 양천구 목동중앙로 81", "members_num": 100.0}}, {"type": "Feature", "geometry": {"type": "Point", "coordinates": [126.971271, 37.4799586]}, "properties": {"name": "사도교회", "address": "(07020) 서울시 동작구 사당로 16길 90 2층 사도교회", "members_num": 50.0}}, {"type": "Feature", "geometry": {"type": "Point", "coordinates": [127.0267959, 37.504036]}, "properties": {"name": "시온의교회", "address": "(06123) 서울 강남구 봉은사로6길 16 대동빌딩", "members_num": 46.0}}, {"type": "Feature", "geometry": {"type": "Point", "coordinates": [127.0146576, 37.5192129]}, "properties": {"name": "신성교회", "address": "(06516) 서울시 서초구 잠원로 204 3층 신성교회", "members_num": 70.0}}, {"type": "Feature", "geometry": {"type": "Point", "coordinates": [127.0329092, 37.6621299]}, "properties": {"name": "하늘소망교회", "address": "(01384) 서울시 도봉구 방학로 173 3층", "members_num": 50.0}}, {"type": "Feature", "geometry": {"type": "Point", "coordinates": [127.142234, 37.4817227]}, "properties": {"name": "새가족교회", "address": "(05849) 서울 송파구 위례광장로 193(장지동)대길프라자 7층", "members_num": 30.0}}, {"type": "Feature", "geometry": {"type": "Point", "coordinates": [127.0061193, 37.4818606]}, "properties": {"name": "뉴시티교회", "address": "(06708) 서울시 서초구 명달로 48 (06708) 서울시 서초구 명달로 48", "members_num": 100.0}}, {"type": "Feature", "geometry": {"type": "Point", "coordinates": [127.0394461, 37.4928107]}, "properties": {"name": "여정의교회", "address": "(06257) 서울특별시 강남구 논현로63길 15 2층", "members_num": 110.0}}, {"type": "Feature", "geometry": {"type": "Point", "coordinates": [126.9301699, 37.4923674]}, "properties": {"name": "예수행복교회", "address": "(08710) 서울특별시 관악구 당곡6길 52 3층", "members_num": 10.0}}, {"type": "Feature", "geometry": {"type": "Point", "coordinates": [126.9583907, 37.4762397]}, "properties": {"name": "글로벌비전교회", "address": "(08789) 서울 특별시 관악구 낙성대로4. 아놀노타워 B1 글로벌비전교회", "members_num": 40.0}}, {"type": "Feature", "geometry": {"type": "Point", "coordinates": [126.8896985, 37.4539436]}, "properties": {"name": "예장백석", "address": "(06800) 서울.금천구 서울시금천구독산1동1100~5 금천구 금하로1마길35~2", "members_num": 12.0}}, {"type": "Feature", "geometry": {"type": "Point", "coordinates": [126.9177767, 37.4745031]}, "properties": {"name": "순복음전도교회", "address": "(08849) 서울특별시 관악구 난곡로38길 12 2층", "members_num": 10.0}}, {"type": "Feature", "geometry": {"type": "Point", "coordinates": [126.8554769, 37.5030244]}, "properties": {"name": "서울예원교화", "address": "(08230) 서울시 구로구 고척로 52길48 대우A102/1402", "members_num": 15.0}}, {"type": "Feature", "geometry": {"type": "Point", "coordinates": [126.886857, 37.5239803]}, "properties": {"name": "영광교회", "address": "(07273) 서울특별시 영등포구 영등포로 9길 25", "members_num": 150.0}}, {"type": "Feature", "geometry": {"type": "Point", "coordinates": [126.8196202, 37.5760673]}, "properties": {"name": "시냇가푸른숲교회", "address": "(07518) 서울특별시 강서구 방화대로 48길 49", "members_num": 120.0}}, {"type": "Feature", "geometry": {"type": "Point", "coordinates": [126.9644601, 37.5677286]}, "properties": {"name": "주안에교회", "address": "(통일로153-1) 서울특별시 서대문구 153-1 3층", "members_num": 20.0}}, {"type": "Feature", "geometry": {"type": "Point", "coordinates": [126.7619421, 37.4848336]}, "properties": {"name": "부천참된교회", "address": "(14721) 서울 부천시 중동로 49번길 35", "members_num": 1100.0}}, {"type": "Feature", "geometry": {"type": "Point", "coordinates": [126.9049739, 37.55897969999999]}, "properties": {"name": "벧엘교회", "address": "(03964) 서울특별시 마포구 망원로93", "members_num": 80.0}}, {"type": "Feature", "geometry": {"type": "Point", "coordinates": [127.1385736, 37.5025234]}, "properties": {"name": "사랑나무교회", "address": "(05739) 서울시 송파구 동남로 28길 6, 2층", "members_num": 23.0}}, {"type": "Feature", "geometry": {"type": "Point", "coordinates": [127.1574329, 37.4927826]}, "properties": {"name": "미래", "address": "(05761) 서울시 송파구 성내천로313 ( 마천동)2층", "members_num": 30.0}}, {"type": "Feature", "geometry": {"type": "Point", "coordinates": [127.1365007, 37.4938569]}, "properties": {"name": "평화감리교회", "address": "(서울시 송파구 가락동 181번지) 서울특별시 서울시. 송파구 가락동 181번지 101호", "members_num": 60.0}}, {"type": "Feature", "geometry": {"type": "Point", "coordinates": [127.1493379, 37.5014914]}, "properties": {"name": "섬기는교회", "address": "(05745) 서울시 송파구 성내천로189 4층", "members_num": 15.0}}, {"type": "Feature", "geometry": {"type": "Point", "coordinates": [127.1414874, 37.4977744]}, "properties": {"name": "새비전교회", "address": "(05736) 서울시 송파구 거마로 7길 44 새비전교회 301호", "members_num": 60.0}}, {"type": "Feature", "geometry": {"type": "Point", "coordinates": [127.0111076, 37.5574574]}, "properties": {"name": "다산로교회", "address": "(04607) 서울 중구 다산로 19길 14", "members_num": 120.0}}, {"type": "Feature", "geometry": {"type": "Point", "coordinates": [127.1126597, 37.5115876]}, "properties": {"name": "새빛교회", "address": "(05550) 서울시 송파구 백제고분로457. 4층", "members_num": 100.0}}, {"type": "Feature", "geometry": {"type": "Point", "coordinates": [127.1480957, 37.4930674]}, "properties": {"name": "충은교회", "address": "(05768) 서울시 송파구 오금로 533, 2층", "members_num": 50.0}}, {"type": "Feature", "geometry": {"type": "Point", "coordinates": [126.9696302, 37.5438879]}, "properties": {"name": "해방촌교회", "address": "(04313) 서울 용산구 청파로 43가길 4, 1층", "members_num": 30.0}}, {"type": "Feature", "geometry": {"type": "Point", "coordinates": [126.8121138, 37.5728051]}, "properties": {"name": "서울행복한교회", "address": "(07604) 서울특별시 강서구 방화동로 16길 64-8", "members_num": 100.0}}, {"type": "Feature", "geometry": {"type": "Point", "coordinates": [126.8537338, 37.4920417]}, "properties": {"name": "호산나", "address": "(08337) 서울 서울구로구 개봉로 17라길 14 호산나교회", "members_num": 100.0}}, {"type": "Feature", "geometry": {"type": "Point", "coordinates": [127.083294, 37.4918551]}, "properties": {"name": "강남대청교회", "address": "(06343) 서울특별시 강남구 일원로3길 36, 강남대청교회 3층", "members_num": 150.0}}, {"type": "Feature", "geometry": {"type": "Point", "coordinates": [126.9204277, 37.483218]}, "properties": {"name": "경배와찬양교회", "address": "(151-872) 서울특별시 관악구 남부순환로 1529 지층", "members_num": 40.0}}, {"type": "Feature", "geometry": {"type": "Point", "coordinates": [126.9438679, 37.5453575]}, "properties": {"name": "마포꿈의교회", "address": "(04152) 서울시 마포구 독막로 276 2층 꿈의교회", "members_num": 30.0}}, {"type": "Feature", "geometry": {"type": "Point", "coordinates": [127.054117, 37.6098051]}, "properties": {"name": "전하리교회", "address": "(02772) 서울특별시 성북구 화랑로27길 18", "members_num": 20.0}}, {"type": "Feature", "geometry": {"type": "Point", "coordinates": [127.0817334, 37.62118710000001]}, "properties": {"name": "선한목자교회", "address": "(01826) 서울 노원구 노원로 1길 100", "members_num": 50.0}}, {"type": "Feature", "geometry": {"type": "Point", "coordinates": [127.0292799, 37.6558396]}, "properties": {"name": "새은혜교회", "address": "(01434) 서울시 도봉구 시루봉로56, 401호", "members_num": 30.0}}, {"type": "Feature", "geometry": {"type": "Point", "coordinates": [126.9329627, 37.4692287]}, "properties": {"name": "하늘영광교회", "address": "(08812) 서울시 관악구 호암로582 4층 하늘영광교회", "members_num": 40.0}}, {"type": "Feature", "geometry": {"type": "Point", "coordinates": [126.855492, 37.5066765]}, "properties": {"name": "서울우리교회", "address": "(08241) 서울시 구로구 중앙로15길 77 3층", "members_num": 20.0}}, {"type": "Feature", "geometry": {"type": "Point", "coordinates": [126.9607677, 37.4791846]}, "properties": {"name": "광동교회", "address": "(08742) 서울시 관악구 행운2길31", "members_num": 200.0}}, {"type": "Feature", "geometry": {"type": "Point", "coordinates": [127.0138108, 37.6556918]}, "properties": {"name": "북서울교회", "address": "(01366) 서울시 도봉구 쌍문동 삼양로 606", "members_num": 50.0}}, {"type": "Feature", "geometry": {"type": "Point", "coordinates": [127.0628287, 37.6018774]}, "properties": {"name": "온유한교회", "address": "(02412) 서울시 동대문구 신이문로 4", "members_num": 20.0}}, {"type": "Feature", "geometry": {"type": "Point", "coordinates": [127.0804748, 37.5986651]}, "properties": {"name": "은진교회", "address": "(02094) 서울 중랑구 동일로126길 6", "members_num": 70.0}}, {"type": "Feature", "geometry": {"type": "Point", "coordinates": [126.845839, 37.5482105]}, "properties": {"name": "웃음꽃감리교회", "address": "(07689) 서울시 강서구 화곡로43길 8-7 그레이스빌 302호", "members_num": 20.0}}, {"type": "Feature", "geometry": {"type": "Point", "coordinates": [126.9245271, 37.5998462]}, "properties": {"name": "비로소교회", "address": "(03462) 서울시 은평구 은평로12길 12-16, 1층", "members_num": 5.0}}, {"type": "Feature", "geometry": {"type": "Point", "coordinates": [126.9095671, 37.4944948]}, "properties": {"name": "대림감리교회", "address": "(07437) 서울특별시 영등포구 여의대방로17", "members_num": 3000.0}}, {"type": "Feature", "geometry": {"type": "Point", "coordinates": [127.0634009, 37.644231]}, "properties": {"name": "예일교회", "address": "(01778) 서울시 노원구 동일로 1279 시영1단지 그린아파트 B상가 지하 13-14", "members_num": 200.0}}, {"type": "Feature", "geometry": {"type": "Point", "coordinates": [127.0383108, 37.6056722]}, "properties": {"name": "영광교회", "address": "(02750) 서울 성북구 오패산로10길27,3층사무실(하월곡동)", "members_num": 700.0}}, {"type": "Feature", "geometry": {"type": "Point", "coordinates": [126.8238967, 37.5521953]}, "properties": {"name": "남부경향교회", "address": "(07643) 서울 강서구 수명로1길16,409동203호(내발산동,마곡수명산파크4단지아파트)", "members_num": 200.0}}, {"type": "Feature", "geometry": {"type": "Point", "coordinates": [127.0881891, 37.585192]}, "properties": {"name": "주마음교회", "address": "(02220) 서울 중랑구 면목로371,2층(면목동)", "members_num": 200.0}}, {"type": "Feature", "geometry": {"type": "Point", "coordinates": [126.8502254, 37.5194338]}, "properties": {"name": "주님의교회", "address": "(08060) 서울 양천구 중앙로39길20-14,101호(신정동,동영빌라)", "members_num": 200.0}}, {"type": "Feature", "geometry": {"type": "Point", "coordinates": [127.1522588, 37.4942536]}, "properties": {"name": "하늘산성교회", "address": "(05759) 서울 송파구 마천로 57길 6", "members_num": 300.0}}, {"type": "Feature", "geometry": {"type": "Point", "coordinates": [126.922927, 37.5051341]}, "properties": {"name": "서울대방교회", "address": "(384-10) 서울특별시 여의대방로 204-5 서울대방교회 1층(사무실)", "members_num": 0.0}}, {"type": "Feature", "geometry": {"type": "Point", "coordinates": [127.0441109, 37.6851661]}, "properties": {"name": "강북제자교회", "address": "(01303) 서울시 도봉구 도봉로 901", "members_num": 15.0}}, {"type": "Feature", "geometry": {"type": "Point", "coordinates": [126.9314023, 37.469643]}, "properties": {"name": "금빛선교센터", "address": "(08846) 서울 관악구 원신2길76-6,1718호(신림동)", "members_num": 200.0}}, {"type": "Feature", "geometry": {"type": "Point", "coordinates": [127.0421487, 37.66932070000001]}, "properties": {"name": "그루터기교회", "address": "(01350) 서울 도봉구 도봉로153길29,지층그루터기교회(방학동)", "members_num": 200.0}}, {"type": "Feature", "geometry": {"type": "Point", "coordinates": [127.0110926, 37.6063059]}, "properties": {"name": "거룩한빛불꽃교회", "address": "(02718) 서울 성북구 보국문로24,2층거룩한빛불꽃교회(정릉동)", "members_num": 200.0}}, {"type": "Feature", "geometry": {"type": "Point", "coordinates": [127.0669432, 37.53551580000001]}, "properties": {"name": "자양참빛교회", "address": "(05085) 서울 광진구 뚝섬로510,3층(자양동)", "members_num": 100.0}}, {"type": "Feature", "geometry": {"type": "Point", "coordinates": [127.1372423, 37.4998264]}, "properties": {"name": "주향한교회", "address": "(05744) 서울 송파구 동남로24길 7, 5층 주향한교회", "members_num": 100.0}}, {"type": "Feature", "geometry": {"type": "Point", "coordinates": [126.9073055, 37.5947538]}, "properties": {"name": "행복한교회", "address": "(03440) 서울 은평구 은평터널로11길9-3,티엱립102호(신사동)", "members_num": 5.0}}, {"type": "Feature", "geometry": {"type": "Point", "coordinates": [126.9988055, 37.5618421]}, "properties": {"name": "서울침례교회", "address": "(04619) 서울 중구 서애로3,1층사무실(충무로5가)", "members_num": 200.0}}, {"type": "Feature", "geometry": {"type": "Point", "coordinates": [127.115351, 37.5120108]}, "properties": {"name": "강남동선교회", "address": "(05632) 서울 방이동 서울 송파구 백제고분로 48길 17 (3층)", "members_num": 100.0}}, {"type": "Feature", "geometry": {"type": "Point", "coordinates": [126.9240251, 37.6032789]}, "properties": {"name": "은평", "address": "(03459) 서울 은평구 응암로 379", "members_num": 1500.0}}, {"type": "Feature", "geometry": {"type": "Point", "coordinates": [126.8400852, 37.5240735]}, "properties": {"name": "주신교회", "address": "(07929) 서울 양천구 월정로7길14,지층(신월동)", "members_num": 15.0}}, {"type": "Feature", "geometry": {"type": "Point", "coordinates": [126.9311674, 37.5701807]}, "properties": {"name": "연희중앙교회", "address": "(03698) 서울 서대문구 증가로22,연희중앙교회(연희동)", "members_num": 200.0}}, {"type": "Feature", "geometry": {"type": "Point", "coordinates": [127.0950124, 37.5065996]}, "properties": {"name": "강남중앙교회", "address": "(서울) 송파구 석촌호수로 162", "members_num": 1500.0}}, {"type": "Feature", "geometry": {"type": "Point", "coordinates": [126.8357739, 37.5234942]}, "properties": {"name": "소망교회", "address": "(08039) 서울 양천구 남부순환로502,소망교회(신월동)", "members_num": 100.0}}, {"type": "Feature", "geometry": {"type": "Point", "coordinates": [126.8333525, 37.5276727]}, "properties": {"name": "팔로힘교회", "address": "(07916) 서울 양천구 남부순환로452,3층팔로힘교회(신월동)", "members_num": 75.0}}, {"type": "Feature", "geometry": {"type": "Point", "coordinates": [127.0795282, 37.6708358]}, "properties": {"name": "신작교회", "address": "(01635) 서울 노원구 상계로37길3,3층문앞신작교회(상계동)", "members_num": 50.0}}, {"type": "Feature", "geometry": {"type": "Point", "coordinates": [127.0470557, 37.6826561]}, "properties": {"name": "꿈이있는교회", "address": "(01320) 서울 도봉구 도봉로180길20,투웨니퍼스트1단지104동106호(도봉동)", "members_num": 50.0}}, {"type": "Feature", "geometry": {"type": "Point", "coordinates": [126.8586298, 37.532607]}, "properties": {"name": "번성하는교회", "address": "(07738) 서울 강서구 등촌로5길87,3층(화곡동)", "members_num": 200.0}}, {"type": "Feature", "geometry": {"type": "Point", "coordinates": [126.8752979, 37.5217277]}, "properties": {"name": "하늘빛우리교회", "address": "(08009) 서울 양천구 신목로14길9,지층(신정동)", "members_num": 30.0}}, {"type": "Feature", "geometry": {"type": "Point", "coordinates": [126.861795, 37.5069922]}, "properties": {"name": "하나로드림교회", "address": "(08218) 서울시 구로구 중앙로 14길 15-1, 목양교회 6층", "members_num": 45.0}}, {"type": "Feature", "geometry": {"type": "Point", "coordinates": [127.0478681, 37.6798696]}, "properties": {"name": "영신교회", "address": "(01321) 서울 도봉구 도봉로170길44,제상가동2층(도봉동)", "members_num": 50.0}}, {"type": "Feature", "geometry": {"type": "Point", "coordinates": [126.9187628, 37.6114624]}, "properties": {"name": "백석교회", "address": "(03394) 서울 은평구 서오릉로132-1,단독(대조동)", "members_num": 300.0}}, {"type": "Feature", "geometry": {"type": "Point", "coordinates": [127.0943672, 37.5894177]}, "properties": {"name": "동명교회", "address": "(02200) 서울 중랑구 용마산로 93길 42", "members_num": 200.0}}, {"type": "Feature", "geometry": {"type": "Point", "coordinates": [127.0432225, 37.6270075]}, "properties": {"name": "푸른초장교회", "address": "(01226) 서울 강북구 월계로 37길 143. 3층", "members_num": 50.0}}, {"type": "Feature", "geometry": {"type": "Point", "coordinates": [126.9833329, 37.4938544]}, "properties": {"name": "동양교회", "address": "(06559) 서울 서초구 방배중앙로 25길 51-1", "members_num": 100.0}}, {"type": "Feature", "geometry": {"type": "Point", "coordinates": [127.0459999, 37.5862796]}, "properties": {"name": "한우리교회", "address": "(02485) 서울특별시 동대문구 홍릉로 10길 48", "members_num": 90.0}}, {"type": "Feature", "geometry": {"type": "Point", "coordinates": [126.9201154, 37.4704706]}, "properties": {"name": "듣는교회", "address": "(08856) 서울 관악구 난곡로 172, 3층 듣는교회", "members_num": 50.0}}, {"type": "Feature", "geometry": {"type": "Point", "coordinates": [126.8342177, 37.51716630000001]}, "properties": {"name": "사도행전교회", "address": "(04082) 서울 양천구 신월로 99 시영아파트 11동 907", "members_num": 100.0}}, {"type": "Feature", "geometry": {"type": "Point", "coordinates": [127.1435952, 37.495491]}, "properties": {"name": "예수로사는교회", "address": "(05744) 서울 송파구 거여동 178-123, 2층", "members_num": 50.0}}, {"type": "Feature", "geometry": {"type": "Point", "coordinates": [126.9177356, 37.5568867]}, "properties": {"name": "We+처치", "address": "(04001) 서울 마포구 월드컵북로 5길 21, 4층(함석헌재단빌딩)", "members_num": 200.0}}, {"type": "Feature", "geometry": {"type": "Point", "coordinates": [127.1328481, 37.5389727]}, "properties": {"name": "강동교회", "address": "(05337) 서울시 강동구 진황도로 27길 8", "members_num": 200.0}}, {"type": "Feature", "geometry": {"type": "Point", "coordinates": [127.0854018, 37.5887922]}, "properties": {"name": "새생", "address": "(02145) 155 Gyeomjae-ro 서울시 중랑구 겸재로 155", "members_num": 30.0}}, {"type": "Feature", "geometry": {"type": "Point", "coordinates": [126.97052, 37.564968]}, "properties": {"name": "평안교회", "address": "(04516) 서울 중구 서소문로 89-11", "members_num": 500.0}}, {"type": "Feature", "geometry": {"type": "Point", "coordinates": [127.0714521, 37.5559074]}, "properties": {"name": "군자하늘비전교회", "address": "(04800) 서울 성동구 동일로 273번지 4층", "members_num": 80.0}}]}