{"type": "FeatureCollection", "features": [{"type": "Feature", "geometry": {"type": "Point", "coordinates": [128.5659516, 38.2020843]}, "properties": {"name": "속초영화교회", "address": "(24861) 강원 속초시 밤골 3길 31 삼호상가3층", "members_num": 30.0}}, {"type": "Feature", "geometry": {"type": "Point", "coordinates": [128.4769542, 37.173222]}, "properties": {"name": "영월서머나교회", "address": "(26231) 강원 영월군 영월읍 덕포하리4길 19-5", "members_num": 70.0}}, {"type": "Feature", "geometry": {"type": "Point", "coordinates": [127.764499, 37.8336648]}, "properties": {"name": "사암교회", "address": "(24408) 강원 춘천시 동내면 사암길 13-28", "members_num": 180.0}}, {"type": "Feature", "geometry": {"type": "Point", "coordinates": [128.4672854, 37.4894278]}, "properties": {"name": "미산교회", "address": "(대화리707) 강원 평창군 대화면", "members_num": 30.0}}, {"type": "Feature", "geometry": {"type": "Point", "coordinates": [128.5710961, 38.2007216]}, "properties": {"name": "바람꽃교회", "address": "(24844) 강원 속초시 만리공원길79", "members_num": 15.0}}, {"type": "Feature", "geometry": {"type": "Point", "coordinates": [129.0011477, 37.1105929]}, "properties": {"name": "계산동교회", "address": "(26050) 강원 태백시 태백로 1815", "members_num": 35.0}}, {"type": "Feature", "geometry": {"type": "Point", "coordinates": [128.4230915, 38.49876039999999]}, "properties": {"name": "대진중앙교회", "address": "(24704) 강원 고성군 대진5길 11 대진중앙교회", "members_num": 25.0}}, {"type": "Feature", "geometry": {"type": "Point", "coordinates": [128.5851615, 38.2046829]}, "properties": {"name": "속초중부교회", "address": "(217-050) 강원 속초시 번영로 56번길 18-4", "members_num": 30.0}}, {"type": "Feature", "geometry": {"type": "Point", "coordinates": [129.1557311, 37.1248192]}, "properties": {"name": "풍곡교회", "address": "(25955) 강원 삼척시 가곡면 풍곡안길 17-20", "members_num": 30.0}}, {"type": "Feature", "geometry": {"type": "Point", "coordinates": [129.1061987, 37.5321132]}, "properties": {"name": "동해병원교회", "address": "(25738) 강원 동해시 하평로 11 근로복지공단 신관 예배실", "members_num": 13.0}}, {"type": "Feature", "geometry": {"type": "Point", "coordinates": [129.0429913, 37.234552]}, "properties": {"name": "사랑의교회", "address": "(25947) 강원 삼척시 도계읍 전두안길 85", "members_num": 15.0}}, {"type": "Feature", "geometry": {"type": "Point", "coordinates": [129.0442108, 37.105853]}, "properties": {"name": "철암남부교회", "address": "(26048) 강원 태백시 돌꾸지길19", "members_num": 16.0}}, {"type": "Feature", "geometry": {"type": "Point", "coordinates": [129.1057768, 37.5372162]}, "properties": {"name": "드림교회", "address": "(25735) 강원 동해시 부곡2길18", "members_num": 30.0}}, {"type": "Feature", "geometry": {"type": "Point", "coordinates": [128.962726, 37.1856293]}, "properties": {"name": "큰소망교회", "address": "(26003) 강원 태백시 초막2길 38-12", "members_num": 15.0}}, {"type": "Feature", "geometry": {"type": "Point", "coordinates": [129.2871794, 37.3091775]}, "properties": {"name": "문암교회", "address": "(25937) 강원 삼척시 근덕면 초곡2길 35-12", "members_num": 15.0}}, {"type": "Feature", "geometry": {"type": "Point", "coordinates": [129.113045, 37.4182873]}, "properties": {"name": "미로교회", "address": "(25904) 강원 삼척시 강원남부로 4039, 미로교회", "members_num": 30.0}}, {"type": "Feature", "geometry": {"type": "Point", "coordinates": [128.5650951, 38.0810835]}, "properties": {"name": "철산교회", "address": "(25034) 강원 양양군 서면 장승2길 28-13 (25034) 강원 양양군 서면 장승2길 28-13", "members_num": 15.0}}, {"type": "Feature", "geometry": {"type": "Point", "coordinates": [129.0210037, 37.1021398]}, "properties": {"name": "장성제일교회", "address": "(26047) 강원 태백시 하장성1길23", "members_num": 30.0}}, {"type": "Feature", "geometry": {"type": "Point", "coordinates": [128.602407, 38.1744368]}, "properties": {"name": "대포교회", "address": "(24902) 강원 속초시 설악산로 4번길 135", "members_num": 20.0}}, {"type": "Feature", "geometry": {"type": "Point", "coordinates": [128.9901157, 37.1208248]}, "properties": {"name": "태백영락교회", "address": "(26044) 강원 태백시 태백로 1597", "members_num": 50.0}}, {"type": "Feature", "geometry": {"type": "Point", "coordinates": [128.5864854, 38.0658783]}, "properties": {"name": "서면교회", "address": "(25035) 강원 양양군 서면 곰밭길 13", "members_num": 12.0}}, {"type": "Feature", "geometry": {"type": "Point", "coordinates": [128.4567269, 38.4439033]}, "properties": {"name": "거진중앙교회", "address": "(24713) 강원 고성군 거탄진로82", "members_num": 160.0}}, {"type": "Feature", "geometry": {"type": "Point", "coordinates": [129.2697422, 37.2941948]}, "properties": {"name": "삼척세상의빛된교회", "address": "(25937) 강원 삼척시 근덕면 궁촌길741-7", "members_num": 13.0}}, {"type": "Feature", "geometry": {"type": "Point", "coordinates": [128.5807022, 38.2013495]}, "properties": {"name": "속초더함교회", "address": "(24829) 강원 속초시 수복로 109-1. 속초더함교회", "members_num": 20.0}}, {"type": "Feature", "geometry": {"type": "Point", "coordinates": [129.110205, 37.5201882]}, "properties": {"name": "샘솟는교회", "address": "(25766) 강원 동해시 한섬로 57 2층", "members_num": 15.0}}, {"type": "Feature", "geometry": {"type": "Point", "coordinates": [128.9838762, 37.2567641]}, "properties": {"name": "미동교회", "address": "(26001) 강원 태백시 역둔원동로 1407-9", "members_num": 10.0}}, {"type": "Feature", "geometry": {"type": "Point", "coordinates": [128.901674, 37.758343]}, "properties": {"name": "강릉주사랑교회", "address": "(25554) 강원 강릉시 경강로 2158-1(옥천동), 2층", "members_num": 22.0}}, {"type": "Feature", "geometry": {"type": "Point", "coordinates": [128.911608, 37.7575548]}, "properties": {"name": "강릉성덕장로교회", "address": "(25579) 강원 강릉시 강변로410번길 15", "members_num": 15.0}}, {"type": "Feature", "geometry": {"type": "Point", "coordinates": [129.1122028, 37.569558]}, "properties": {"name": "김만형", "address": "(25708) 강원 동해시 봉수로 48", "members_num": 35.0}}, {"type": "Feature", "geometry": {"type": "Point", "coordinates": [128.9109109, 37.7738357]}, "properties": {"name": "하누리교회", "address": "(25485) 강원 강릉시 강릉대로 443번길 13", "members_num": 15.0}}, {"type": "Feature", "geometry": {"type": "Point", "coordinates": [129.0569557, 37.2265631]}, "properties": {"name": "달전교회", "address": "(25948) 강원 삼척시 도계읍 장원길63-45", "members_num": 15.0}}, {"type": "Feature", "geometry": {"type": "Point", "coordinates": [129.0392983, 37.1186936]}, "properties": {"name": "철암교회", "address": "(26045) 강원 태백시 상투바우길 5-4", "members_num": 50.0}}, {"type": "Feature", "geometry": {"type": "Point", "coordinates": [128.5380651, 38.1659453]}, "properties": {"name": "설악중앙교회", "address": "((설악동)) 강원 속초시 청봉로84", "members_num": 99.0}}, {"type": "Feature", "geometry": {"type": "Point", "coordinates": [129.2697422, 37.2941948]}, "properties": {"name": "삼척세상의빛된교회", "address": "(25937) 강원 삼척시 근덕면 궁촌길741-7", "members_num": 12.0}}, {"type": "Feature", "geometry": {"type": "Point", "coordinates": [127.730916, 37.899831]}, "properties": {"name": "사우동장로교회", "address": "(24225) 강원 춘천시 충열로29 롯데인벤스 103-904", "members_num": 40.0}}, {"type": "Feature", "geometry": {"type": "Point", "coordinates": [128.1088752, 37.5593834]}, "properties": {"name": "갑천감리교회", "address": "(25258) 강원 횡성군 갑천면 청정로매일5길 10", "members_num": 35.0}}, {"type": "Feature", "geometry": {"type": "Point", "coordinates": [127.7268015, 37.9050884]}, "properties": {"name": "구세군춘천교회", "address": "(24226) 강원 춘천시 사우 5길 13", "members_num": 35.0}}, {"type": "Feature", "geometry": {"type": "Point", "coordinates": [127.9433103, 37.340729]}, "properties": {"name": "북원침례교회", "address": "(26438) 강원 원주시 남산로9번길 12", "members_num": 500.0}}, {"type": "Feature", "geometry": {"type": "Point", "coordinates": [127.6176319, 37.6534798]}, "properties": {"name": "섬김의교회", "address": "(25100) 강원 홍천군 서면한서로447", "members_num": 4.0}}, {"type": "Feature", "geometry": {"type": "Point", "coordinates": [128.8203359, 37.9053613]}, "properties": {"name": "소돌교회", "address": "(25406) 강원 강릉시 강원 강릉시 주문진읍 신영길 11(주문진읍, 소돌교회)", "members_num": 130.0}}, {"type": "Feature", "geometry": {"type": "Point", "coordinates": [127.9415221, 37.7239708]}, "properties": {"name": "와동교회", "address": "(25127) 강원 홍천군 홍천읍 와동로 177-10 1층 사택 (25127) 강원 홍천군 홍천읍 와동로 177-10 1층 사택", "members_num": 40.0}}, {"type": "Feature", "geometry": {"type": "Point", "coordinates": [128.556616, 38.2583511]}, "properties": {"name": "천진중앙교회", "address": "(24764) 강원 고성군 토성면 천진7길 12 천진중앙교회", "members_num": 150.0}}, {"type": "Feature", "geometry": {"type": "Point", "coordinates": [128.3765712, 37.6165063]}, "properties": {"name": "봉평장로교회", "address": "(25304) 강원 평창군 봉평면동이장터길", "members_num": 80.0}}, {"type": "Feature", "geometry": {"type": "Point", "coordinates": [128.4042144, 37.3957251]}, "properties": {"name": "주진교회", "address": "(25369) 강원 평창군 용항상촌길 14-8", "members_num": 80.0}}, {"type": "Feature", "geometry": {"type": "Point", "coordinates": [127.7516964, 37.8770064]}, "properties": {"name": "행복을전하는교회", "address": "(24282) 강원 춘천시 후석로 287-1 3층", "members_num": 34.0}}, {"type": "Feature", "geometry": {"type": "Point", "coordinates": [128.8204154, 37.9054811]}, "properties": {"name": "소돌교회", "address": "(25406) 강원 강릉시 주문진읍 신영길 11", "members_num": 120.0}}, {"type": "Feature", "geometry": {"type": "Point", "coordinates": [127.7336454, 37.8618878]}, "properties": {"name": "김경희", "address": "(24375) 강원 춘천시 남춘천새길11 남춘천휴먼시아 1단지 110-1404", "members_num": 100.0}}, {"type": "Feature", "geometry": {"type": "Point", "coordinates": [127.8781777, 37.6811323]}, "properties": {"name": "엘사랑교회", "address": "(25146) 강원 홍천군 홍천읍 연봉로 11길 7", "members_num": 15.0}}, {"type": "Feature", "geometry": {"type": "Point", "coordinates": [128.6699992, 37.4593344]}, "properties": {"name": "나전목양교회", "address": "(26101) 강원 정선군 탑골길 57-1", "members_num": 3.0}}, {"type": "Feature", "geometry": {"type": "Point", "coordinates": [128.5959696, 38.0592772]}, "properties": {"name": "한남교회", "address": "(25036) 강원 양양군 서면 남대천로219-16", "members_num": 12.0}}, {"type": "Feature", "geometry": {"type": "Point", "coordinates": [129.1215283, 37.5174956]}, "properties": {"name": "동해풍성한교회", "address": "(25778) 강원 동해시 동굴로146-1", "members_num": 10.0}}, {"type": "Feature", "geometry": {"type": "Point", "coordinates": [127.9604667, 37.3375344]}, "properties": {"name": "복음자리교회", "address": "(26444) 강원 원주시 개운4길 72 복음자리교회 주차장쪽 1층 사택", "members_num": 40.0}}, {"type": "Feature", "geometry": {"type": "Point", "coordinates": [127.7343933, 37.8799325]}, "properties": {"name": "호두나무교회", "address": "(24261) 강원 춘천시 향교앞길13-4", "members_num": 50.0}}, {"type": "Feature", "geometry": {"type": "Point", "coordinates": [127.9501545, 37.3501076]}, "properties": {"name": "원주벧엘교회", "address": "(26428) 강원 원주시 원일로 80-1", "members_num": 35.0}}, {"type": "Feature", "geometry": {"type": "Point", "coordinates": [127.9485442, 37.3492679]}, "properties": {"name": "열방누림교회", "address": "(26427) 강원 원주시 무실로12번길 14 2층", "members_num": 13.0}}, {"type": "Feature", "geometry": {"type": "Point", "coordinates": [128.8370306, 37.8721901]}, "properties": {"name": "동해로교회", "address": "(25429) 강원 강릉시 연주로 244-18", "members_num": 40.0}}, {"type": "Feature", "geometry": {"type": "Point", "coordinates": [128.5748869, 38.18930599999999]}, "properties": {"name": "속초양무리교회", "address": "(24878) 강원 속초시 청대로 232번길 23", "members_num": 70.0}}, {"type": "Feature", "geometry": {"type": "Point", "coordinates": [127.7594326, 37.8627463]}, "properties": {"name": "춘천광염교회", "address": "(24400) 강원 춘천시 동내면 세실로 60", "members_num": 450.0}}, {"type": "Feature", "geometry": {"type": "Point", "coordinates": [127.7398284, 37.8765222]}, "properties": {"name": "춘천순복음비전교회", "address": "(24294) 강원 춘천시 춘천시 성심로82", "members_num": 20.0}}, {"type": "Feature", "geometry": {"type": "Point", "coordinates": [127.8781777, 37.6811323]}, "properties": {"name": "엘사랑교회", "address": "(25140) 강원 홍천군 홍천읍 연봉로11길7", "members_num": 18.0}}, {"type": "Feature", "geometry": {"type": "Point", "coordinates": [128.2844595, 37.2662342]}, "properties": {"name": "즐거운교회", "address": "(26203) 강원 영월군 주천면 송학주천로 1540", "members_num": 45.0}}, {"type": "Feature", "geometry": {"type": "Point", "coordinates": [127.9647109, 37.3185176]}, "properties": {"name": "희망감리교회", "address": "(26471) 강원 원주시 라옹정길5", "members_num": 16.0}}, {"type": "Feature", "geometry": {"type": "Point", "coordinates": [127.9604667, 37.3375344]}, "properties": {"name": "복음자리교회", "address": "(26444) 강원 원주시 개운4길 72", "members_num": 50.0}}, {"type": "Feature", "geometry": {"type": "Point", "coordinates": [128.4964892, 37.6421295]}, "properties": {"name": "속사교회", "address": "(25312) 강원 평창군 용평면 운두령로 50-13", "members_num": 80.0}}, {"type": "Feature", "geometry": {"type": "Point", "coordinates": [128.587828, 38.2235838]}, "properties": {"name": "대광침례교회", "address": "(24803) 강원 속초시 사진용촌길10", "members_num": 100.0}}, {"type": "Feature", "geometry": {"type": "Point", "coordinates": [128.9160536, 37.785351]}, "properties": {"name": "한마음교회", "address": "(25469) 강원 강릉시 초당원길4-8", "members_num": 30.0}}, {"type": "Feature", "geometry": {"type": "Point", "coordinates": [127.719388, 37.7474329]}, "properties": {"name": "군자교회", "address": "(24409) 강원 춘천시 동산면 종자리로 95 (2층)", "members_num": 15.0}}, {"type": "Feature", "geometry": {"type": "Point", "coordinates": [127.9360846, 37.3145279]}, "properties": {"name": "원주침례교회", "address": "(26401) 강원 원주시 판부면 남원로 302", "members_num": 150.0}}, {"type": "Feature", "geometry": {"type": "Point", "coordinates": [127.7398284, 37.8765222]}, "properties": {"name": "춘천은혜감리교회", "address": "(24294) 강원 춘천시 강원도 춘천시 서부 대성로 175 3층 은혜감리교회", "members_num": 20.0}}, {"type": "Feature", "geometry": {"type": "Point", "coordinates": [127.7398284, 37.8765222]}, "properties": {"name": "온의감리교회", "address": "(24294) 강원 춘천시 효평길 30", "members_num": 100.0}}, {"type": "Feature", "geometry": {"type": "Point", "coordinates": [128.714813, 37.0821024]}, "properties": {"name": "영월내리교회", "address": "(26246) 강원 영월군 김삿갓면 내리계곡로 4047", "members_num": 26.0}}, {"type": "Feature", "geometry": {"type": "Point", "coordinates": [129.1105309, 37.5238865]}, "properties": {"name": "동해포도원교회", "address": "(25761) 강원 동해시 천곡로 48 2층", "members_num": 10.0}}, {"type": "Feature", "geometry": {"type": "Point", "coordinates": [127.9833146, 38.100521]}, "properties": {"name": "제21보병사단 포병여단 백두포병교회", "address": "(24540) 강원 양구군 양구읍 박수근로 322 보배아파트 102동 509호", "members_num": 150.0}}, {"type": "Feature", "geometry": {"type": "Point", "coordinates": [127.7277817, 37.9333685]}, "properties": {"name": "신동교회", "address": "(24207) 강원 춘천시 동포1길. 6-18", "members_num": 50.0}}, {"type": "Feature", "geometry": {"type": "Point", "coordinates": [128.0887704, 37.8174416]}, "properties": {"name": "내촌교회", "address": "(25161) 강원 홍천군 내촌면 내촌큰골길24", "members_num": 100.0}}, {"type": "Feature", "geometry": {"type": "Point", "coordinates": [127.9429242, 37.3514758]}, "properties": {"name": "푸른초장교회", "address": "(26417) 강원 원주시 갈머리1길 23", "members_num": 50.0}}, {"type": "Feature", "geometry": {"type": "Point", "coordinates": [128.0644513, 37.4592087]}, "properties": {"name": "우천사랑교회", "address": "(25248) 강원 횡성군 우천면 우항3길 5-16", "members_num": 10.0}}, {"type": "Feature", "geometry": {"type": "Point", "coordinates": [128.4226784, 37.1506092]}, "properties": {"name": "연광교회", "address": "(26217) 강원 영월군 광천길 60-6 연광교회", "members_num": 15.0}}, {"type": "Feature", "geometry": {"type": "Point", "coordinates": [127.7350771, 37.869738]}, "properties": {"name": "단비교회", "address": "(24340) 강원 춘천시 법원뒷길 8번길 14. 2층", "members_num": 30.0}}, {"type": "Feature", "geometry": {"type": "Point", "coordinates": [127.943963, 37.3403837]}, "properties": {"name": "서원주교회", "address": "(26441) 강원 원주시 남산로 13-1", "members_num": 50.0}}, {"type": "Feature", "geometry": {"type": "Point", "coordinates": [128.4578964, 38.3892117]}, "properties": {"name": "대대교회", "address": "(24725) 강원 고성군 양지고개길22", "members_num": 30.0}}, {"type": "Feature", "geometry": {"type": "Point", "coordinates": [129.0993585, 37.4872917]}, "properties": {"name": "큰사랑순복음교회", "address": "(25805) 강원 동해시 효자로572-2 아름다운아침아파트 상가3층", "members_num": 0.0}}, {"type": "Feature", "geometry": {"type": "Point", "coordinates": [129.1105256, 37.5049644]}, "properties": {"name": "동해에바다농아교회", "address": "(25776) 강원 동해시 숫골길161", "members_num": 20.0}}, {"type": "Feature", "geometry": {"type": "Point", "coordinates": [127.9407026, 37.3579936]}, "properties": {"name": "주말씀교회", "address": "(26413) 강원 원주시 원일로 256", "members_num": 40.0}}, {"type": "Feature", "geometry": {"type": "Point", "coordinates": [127.7411591, 37.87560879999999]}, "properties": {"name": "효자교회", "address": "(24295) 강원 춘천시 두하길14", "members_num": 200.0}}, {"type": "Feature", "geometry": {"type": "Point", "coordinates": [128.9432354, 37.5735873]}, "properties": {"name": "산", "address": "(25645) 강원 강릉시 옥계면 석화동굴길 12", "members_num": 10.0}}, {"type": "Feature", "geometry": {"type": "Point", "coordinates": [128.854935, 37.412944]}, "properties": {"name": "문래교회", "address": "(26114) 강원 정선군 임계면 백두대간로 309-4", "members_num": 25.0}}, {"type": "Feature", "geometry": {"type": "Point", "coordinates": [128.4537932, 38.0769519]}, "properties": {"name": "오색교회", "address": "(25033) 강원 양양군 서면 안터길 11-4", "members_num": 25.0}}, {"type": "Feature", "geometry": {"type": "Point", "coordinates": [127.9593753, 37.3229131]}, "properties": {"name": "노래하는교회", "address": "(26490) 강원 원주시 나비허리길 68 2층", "members_num": 8.0}}, {"type": "Feature", "geometry": {"type": "Point", "coordinates": [127.9347795, 37.3472202]}, "properties": {"name": "주사랑성결교회", "address": "(26424) 강원 원주시 소삼터길 33", "members_num": 20.0}}, {"type": "Feature", "geometry": {"type": "Point", "coordinates": [128.7302153, 37.5146643]}, "properties": {"name": "구절그리스도의교회", "address": "(26104) 강원 정선군 정선군 구절안길 30-5", "members_num": 25.0}}, {"type": "Feature", "geometry": {"type": "Point", "coordinates": [127.989258, 37.3273595]}, "properties": {"name": "더불어누림교회", "address": "(26337) 강원 원주시 황금로 23 차익새마을금고 5층", "members_num": 10.0}}, {"type": "Feature", "geometry": {"type": "Point", "coordinates": [127.4375859, 38.2394542]}, "properties": {"name": "김화교회", "address": "(24059) 강원 철원군 와수1로3", "members_num": 100.0}}, {"type": "Feature", "geometry": {"type": "Point", "coordinates": [128.670158, 37.217005]}, "properties": {"name": "함백천일교회", "address": "(26141) 강원 정선군 신동읍 새골길 13", "members_num": 25.0}}, {"type": "Feature", "geometry": {"type": "Point", "coordinates": [129.1252918, 37.4954443]}, "properties": {"name": "동해포도원교회", "address": "(25789) 강원 동해시 천곡동 48 2층", "members_num": 10.0}}, {"type": "Feature", "geometry": {"type": "Point", "coordinates": [128.3255001, 37.175285]}, "properties": {"name": "쌍용중앙교회", "address": "(26214) 강원 영월군 한반도면 쌍용로 226-14", "members_num": 20.0}}, {"type": "Feature", "geometry": {"type": "Point", "coordinates": [129.1685076, 37.4457652]}, "properties": {"name": "삼척동부교회", "address": "(51230) 강원 삼척시 사대길 10", "members_num": 80.0}}, {"type": "Feature", "geometry": {"type": "Point", "coordinates": [127.9538345, 37.3329877]}, "properties": {"name": "신성감리교회", "address": "(26446) 강원 원주시 치악로1735번길 73", "members_num": 25.0}}, {"type": "Feature", "geometry": {"type": "Point", "coordinates": [127.9196124, 37.2943738]}, "properties": {"name": "흥업감리교회", "address": "(26403) 강원 원주시 흥업면 당골길 23", "members_num": 50.0}}, {"type": "Feature", "geometry": {"type": "Point", "coordinates": [127.8841372, 37.697756]}, "properties": {"name": "홍천서부교회", "address": "(25121) 강원 홍천군 홍천읍 석화로3길 27 2층 홍천서부교회", "members_num": 15.0}}, {"type": "Feature", "geometry": {"type": "Point", "coordinates": [127.3288993, 38.1932285]}, "properties": {"name": "포성교회", "address": "(24031) 강원 철원군 호국로5330-30", "members_num": 70.0}}, {"type": "Feature", "geometry": {"type": "Point", "coordinates": [128.4414799, 37.1805105]}, "properties": {"name": "청령포교회", "address": "(26226) 강원 영월군 영월읍 청령포로 197-9 청령포교회", "members_num": 20.0}}, {"type": "Feature", "geometry": {"type": "Point", "coordinates": [128.4203012, 37.58784]}, "properties": {"name": "장평감리교회", "address": "(25315) 강원 평창군 용평면 경강로 1688", "members_num": 40.0}}, {"type": "Feature", "geometry": {"type": "Point", "coordinates": [128.3162728, 37.3356895]}, "properties": {"name": "판운감리교회", "address": "(26202) 강원 영월군 주천면 중선로 24", "members_num": 50.0}}, {"type": "Feature", "geometry": {"type": "Point", "coordinates": [127.9357597, 37.3600216]}, "properties": {"name": "포도나무교회", "address": "(26407) 강원 원주시 원문로 100번길 46", "members_num": 50.0}}, {"type": "Feature", "geometry": {"type": "Point", "coordinates": [128.5785632, 38.1897151]}, "properties": {"name": "우리평화교회", "address": "(24876) 강원 속초시 청대로204번길 39, 304호", "members_num": 20.0}}, {"type": "Feature", "geometry": {"type": "Point", "coordinates": [127.956351, 37.3174143]}, "properties": {"name": "원주동부교회", "address": "(26400) 강원 원주시 앙월길33", "members_num": 150.0}}, {"type": "Feature", "geometry": {"type": "Point", "coordinates": [127.7250736, 37.9250267]}, "properties": {"name": "새춘천그리스도의교회", "address": "(24207) 강원 춘천시 화목원길45 새춘천교회", "members_num": 49.0}}, {"type": "Feature", "geometry": {"type": "Point", "coordinates": [128.4708865, 38.3783903]}, "properties": {"name": "고성중앙교회", "address": "(24746) 강원 고성군 간성읍 수성로16번길 25", "members_num": 120.0}}, {"type": "Feature", "geometry": {"type": "Point", "coordinates": [128.4693359, 37.1830039]}, "properties": {"name": "영월영락교회", "address": "(26236) 강원 영월군 영월읍 요리골목길19", "members_num": 30.0}}, {"type": "Feature", "geometry": {"type": "Point", "coordinates": [127.4320116, 38.2293699]}, "properties": {"name": "와수중앙교회", "address": "(24061) 강원 철원군 서면 와수로 62번길 14", "members_num": 30.0}}, {"type": "Feature", "geometry": {"type": "Point", "coordinates": [128.0494641, 37.4657457]}, "properties": {"name": "우천감리교회", "address": "(25249) 강원 횡성군 우천면 한우로 1057", "members_num": 12.0}}, {"type": "Feature", "geometry": {"type": "Point", "coordinates": [127.980819, 37.4911561]}, "properties": {"name": "횡성대동감리교회", "address": "(25237) 강원 횡성군 횡성읍 대동로21", "members_num": 20.0}}, {"type": "Feature", "geometry": {"type": "Point", "coordinates": [128.1657088, 37.7643911]}, "properties": {"name": "수하감리교회", "address": "(25165) 강원 홍천군 서석면 양지항골길5", "members_num": 13.0}}, {"type": "Feature", "geometry": {"type": "Point", "coordinates": [128.543391, 38.2848045]}, "properties": {"name": "동광감리교회", "address": "(24754) 강원 고성군 토성면 화원길 42-13", "members_num": 25.0}}, {"type": "Feature", "geometry": {"type": "Point", "coordinates": [128.2695213, 37.2952774]}, "properties": {"name": "무릉감리교회", "address": "(26201) 강원 영월군 무릉도원면 무릉법흥로 222", "members_num": 13.0}}, {"type": "Feature", "geometry": {"type": "Point", "coordinates": [127.9484947, 37.33193480000001]}, "properties": {"name": "원주영은교회", "address": "(26484) 강원 원주시 서원대로 한신프라자 5층", "members_num": 70.0}}, {"type": "Feature", "geometry": {"type": "Point", "coordinates": [128.8864415, 37.7726239]}, "properties": {"name": "강릉교회", "address": "(25493) 강원 강릉시 경포로86", "members_num": 100.0}}, {"type": "Feature", "geometry": {"type": "Point", "coordinates": [128.2669914, 37.2687987]}, "properties": {"name": "주천제일교회", "address": "(주천제일교회) 강원 영월군 주천면 주천로 58번길7", "members_num": 30.0}}, {"type": "Feature", "geometry": {"type": "Point", "coordinates": [127.8867735, 37.3270194]}, "properties": {"name": "사제교회", "address": "(26356) 강원 원주시 흥업면 사제로 419-14 100-3", "members_num": 35.0}}, {"type": "Feature", "geometry": {"type": "Point", "coordinates": [128.6648142, 37.6605836]}, "properties": {"name": "큰터교회", "address": "(25348) 강원 평창군 대관령면 큰터길19 큰터교회", "members_num": 100.0}}, {"type": "Feature", "geometry": {"type": "Point", "coordinates": [128.4790215, 37.1798845]}, "properties": {"name": "평강제일교회", "address": "(26229) 강원 영월군 영월읍 중리 1길 33 2층", "members_num": 10.0}}, {"type": "Feature", "geometry": {"type": "Point", "coordinates": [128.6260118, 38.0788821]}, "properties": {"name": "양양교회", "address": "(25021) 강원 양양군 양양읍 관아길 4-99", "members_num": 27.0}}, {"type": "Feature", "geometry": {"type": "Point", "coordinates": [127.9410148, 37.3424999]}, "properties": {"name": "세계로교회", "address": "(26434) 강원 원주시 무실로 130번길 5-27", "members_num": 150.0}}, {"type": "Feature", "geometry": {"type": "Point", "coordinates": [128.3264435, 37.1779558]}, "properties": {"name": "시온제일교회", "address": "(26214) 강원 영월군 한반도면 쌍용로 195", "members_num": 90.0}}, {"type": "Feature", "geometry": {"type": "Point", "coordinates": [127.8714268, 37.3731357]}, "properties": {"name": "온누리교회", "address": "(26354) 강원 원주시 지정면 도원로 20 스타에듀빌딩801호", "members_num": 50.0}}, {"type": "Feature", "geometry": {"type": "Point", "coordinates": [129.1902912, 37.3015808]}, "properties": {"name": "가평교회", "address": "(25936) 강원 삼척시 근덕면문재로3009 가평교회 (25936) 강원 삼척시 근덕면문재로3009 가평교회", "members_num": 30.0}}, {"type": "Feature", "geometry": {"type": "Point", "coordinates": [127.9862604, 37.3313506]}, "properties": {"name": "빛사랑교회", "address": "(26335) 강원 원주시 양지로 114", "members_num": 20.0}}, {"type": "Feature", "geometry": {"type": "Point", "coordinates": [128.8186082, 37.4294303]}, "properties": {"name": "고양리교회", "address": "(26109) 강원 정선군 임계면 반천고양로 1468-7", "members_num": 30.0}}, {"type": "Feature", "geometry": {"type": "Point", "coordinates": [127.9863982, 37.4855116]}, "properties": {"name": "횡성사랑의빛교회", "address": "(25234) 강원 횡성군 횡성읍 앞들동 2로 20-1", "members_num": 100.0}}, {"type": "Feature", "geometry": {"type": "Point", "coordinates": [127.7562662, 37.8580692]}, "properties": {"name": "새길교회", "address": "(24400) 강원 춘천시 동내면 외솔길 19번길 20", "members_num": 80.0}}, {"type": "Feature", "geometry": {"type": "Point", "coordinates": [127.3486811, 38.1360578]}, "properties": {"name": "용화감리교회", "address": "(24051) 강원 철원군 갈말읍 용화동길 154-1 단층", "members_num": 25.0}}, {"type": "Feature", "geometry": {"type": "Point", "coordinates": [129.1048568, 37.5451136]}, "properties": {"name": "동해교회", "address": "(25727) 강원 동해시 붉은언덕길 36", "members_num": 1000.0}}, {"type": "Feature", "geometry": {"type": "Point", "coordinates": [128.9174732, 37.7806592]}, "properties": {"name": "강릉수정성결교회", "address": "(25483) 강원 강릉시 산양큰길 44 2층", "members_num": 15.0}}, {"type": "Feature", "geometry": {"type": "Point", "coordinates": [129.1649655, 37.4334763]}, "properties": {"name": "관동명성교회", "address": "(250 30) 강원 삼척시 사직로2길", "members_num": 15.0}}, {"type": "Feature", "geometry": {"type": "Point", "coordinates": [128.9750005, 37.1559061]}, "properties": {"name": "예장합동", "address": "(26035) 강원 태백시 서학로 954(황지동)", "members_num": 66.0}}, {"type": "Feature", "geometry": {"type": "Point", "coordinates": [129.0469999, 37.2361375]}, "properties": {"name": "성광감리교회", "address": "(25948) 강원 삼척시 도계읍 도계우회로2길 48", "members_num": 70.0}}, {"type": "Feature", "geometry": {"type": "Point", "coordinates": [127.7420917, 37.8766201]}, "properties": {"name": "춘천순복음비전교회", "address": "(24294) 강원 춘천시 성심로 82, 2층", "members_num": 20.0}}, {"type": "Feature", "geometry": {"type": "Point", "coordinates": [128.8459883, 37.7360561]}, "properties": {"name": "금산교회", "address": "(25449) 강원 강릉시 성산면 금산안길 60", "members_num": 15.0}}, {"type": "Feature", "geometry": {"type": "Point", "coordinates": [128.9229057, 37.7334989]}, "properties": {"name": "시온교회", "address": "(25613) 강원 강릉시 신석길 87-16 시온교회", "members_num": 13.0}}, {"type": "Feature", "geometry": {"type": "Point", "coordinates": [127.7680966, 37.8343101]}, "properties": {"name": "예광교회", "address": "(24408) 강원 춘천시 동내면 사암길 65-27", "members_num": 25.0}}, {"type": "Feature", "geometry": {"type": "Point", "coordinates": [129.1053258, 37.4880528]}, "properties": {"name": "동해우리성결교회", "address": "(25807) 강원 동해시 청운로 82", "members_num": 75.0}}, {"type": "Feature", "geometry": {"type": "Point", "coordinates": [128.9382434, 37.7744004]}, "properties": {"name": "밀알장애인교회", "address": "(25560) 강원 강릉시 경강로2539번길8한신@104-104", "members_num": 40.0}}, {"type": "Feature", "geometry": {"type": "Point", "coordinates": [128.8560076, 37.456496]}, "properties": {"name": "용산교회", "address": "(26114) 강원 정선군 임계면 달탄1길38-16", "members_num": 14.0}}, {"type": "Feature", "geometry": {"type": "Point", "coordinates": [128.5615772, 37.6353455]}, "properties": {"name": "기쁨의교회", "address": "(25331) 강원 평창군 진부면 송정택지1길 52-10 2층", "members_num": 20.0}}, {"type": "Feature", "geometry": {"type": "Point", "coordinates": [127.7000449, 37.9844742]}, "properties": {"name": "산솔교회", "address": "(24201) 강원 춘천시 춘화로440-12", "members_num": 35.0}}, {"type": "Feature", "geometry": {"type": "Point", "coordinates": [128.8214192, 37.2282382]}, "properties": {"name": "사북교회", "address": "(26150) 강원 정선군 사북읍 사북7길 7-16", "members_num": 80.0}}, {"type": "Feature", "geometry": {"type": "Point", "coordinates": [128.5889733, 38.1876673]}, "properties": {"name": "조양성결교회", "address": "(24890) 강원 속초시 조양동 선사로1길 32-2", "members_num": 30.0}}, {"type": "Feature", "geometry": {"type": "Point", "coordinates": [127.7155514, 37.8418782]}, "properties": {"name": "대광교회", "address": "(24456) 강원 춘천시 칠전동길 32", "members_num": 25.0}}, {"type": "Feature", "geometry": {"type": "Point", "coordinates": [128.5784307, 38.2050421]}, "properties": {"name": "속초제일교회", "address": "(24839) 강원 속초시 교동로2길 77", "members_num": 200.0}}, {"type": "Feature", "geometry": {"type": "Point", "coordinates": [128.8166481, 37.4970953]}, "properties": {"name": "송계장로교회", "address": "(26109) 강원 정선군 임계면 서동로 4142-4", "members_num": 10.0}}, {"type": "Feature", "geometry": {"type": "Point", "coordinates": [128.8840472, 37.7572377]}, "properties": {"name": "나눔의교회", "address": "(25506) 강원 강릉시 원대로 6(교동)", "members_num": 30.0}}, {"type": "Feature", "geometry": {"type": "Point", "coordinates": [128.4688853, 37.1833766]}, "properties": {"name": "선한이웃교회", "address": "(하송안길117) 강원 영월군 영월읍 하송안길 117, 3층", "members_num": 25.0}}, {"type": "Feature", "geometry": {"type": "Point", "coordinates": [128.5985991, 38.1866885]}, "properties": {"name": "속초열방의교회", "address": "(24892) 강원 속초시 조양로 22번길 1-1", "members_num": 50.0}}, {"type": "Feature", "geometry": {"type": "Point", "coordinates": [129.024606, 37.6840825]}, "properties": {"name": "정동진교회", "address": "(25631) 강원 강릉시 강동면 분소골길25", "members_num": 30.0}}, {"type": "Feature", "geometry": {"type": "Point", "coordinates": [128.7073371, 37.67500769999999]}, "properties": {"name": "대관령성결교회", "address": "(25344) 강원 평창군 대관령면 대관령로 97-3대관령교회나눔채", "members_num": 150.0}}, {"type": "Feature", "geometry": {"type": "Point", "coordinates": [128.6626395, 37.4303627]}, "properties": {"name": "남평성결교회", "address": "(26103) 강원 정선군 북평면 송석길 132-4", "members_num": 60.0}}, {"type": "Feature", "geometry": {"type": "Point", "coordinates": [127.9466075, 37.4019398]}, "properties": {"name": "원주신촌감리교회", "address": "(26311) 강원 원주시 북원로 2819", "members_num": 150.0}}, {"type": "Feature", "geometry": {"type": "Point", "coordinates": [129.341001, 37.2373971]}, "properties": {"name": "임원교회", "address": "(25956) 강원 삼척시 원덕읍 삼척로 1266 임원교회 (25956) 강원 삼척시 원덕읍 삼척로 1266 임원교회", "members_num": 90.0}}, {"type": "Feature", "geometry": {"type": "Point", "coordinates": [127.7540999, 37.8757958]}, "properties": {"name": "한길교회", "address": "(24312) 강원 춘천시 복골길29(후평동824-8)", "members_num": 70.0}}, {"type": "Feature", "geometry": {"type": "Point", "coordinates": [129.2048075, 37.1501246]}, "properties": {"name": "가곡감리교회", "address": "(25954) 강원 삼척시 가곡면 오저길14", "members_num": 13.0}}, {"type": "Feature", "geometry": {"type": "Point", "coordinates": [129.0925167, 37.1892784]}, "properties": {"name": "심포교회", "address": "(25952) 강원 삼척시 도계읍 강원남부로 890-21", "members_num": 20.0}}, {"type": "Feature", "geometry": {"type": "Point", "coordinates": [128.9900124, 37.1689697]}, "properties": {"name": "루아교회", "address": "(26016) 강원 태백시 문예1길85", "members_num": 200.0}}, {"type": "Feature", "geometry": {"type": "Point", "coordinates": [128.6976052, 38.01408869999999]}, "properties": {"name": "광정교회", "address": "(25046) 강원 양양군 현북면 검소길12", "members_num": 50.0}}, {"type": "Feature", "geometry": {"type": "Point", "coordinates": [128.9902743, 37.1626172]}, "properties": {"name": "태백한빛교회", "address": "(26022) 강원 태백시 연립길 8", "members_num": 80.0}}, {"type": "Feature", "geometry": {"type": "Point", "coordinates": [128.9884744, 37.1479279]}, "properties": {"name": "황지남부교회", "address": "(26037) 강원 태백시 상장남길 31-10", "members_num": 30.0}}, {"type": "Feature", "geometry": {"type": "Point", "coordinates": [128.6425112, 37.9983645]}, "properties": {"name": "장리교회", "address": "(25049) 강원 양양군 남대천로 1224", "members_num": 15.0}}, {"type": "Feature", "geometry": {"type": "Point", "coordinates": [128.4238184, 38.4681813]}, "properties": {"name": "화진포교회", "address": "(24707) 강원 고성군 현내면 모정길 11", "members_num": 20.0}}, {"type": "Feature", "geometry": {"type": "Point", "coordinates": [127.7087301, 38.1044063]}, "properties": {"name": "기독교대한감리회", "address": "(12609) 강원 화천군 화천읍 중앙로9길 32-18", "members_num": 12.0}}, {"type": "Feature", "geometry": {"type": "Point", "coordinates": [127.9397132, 37.3627637]}, "properties": {"name": "하늘소망교회", "address": "(26345) 강원 원주시 북원로 2447 (3층)", "members_num": 25.0}}, {"type": "Feature", "geometry": {"type": "Point", "coordinates": [129.1149181, 37.5219213]}, "properties": {"name": "한백감리교회", "address": "(25769) 강원 동해시 중앙로 236-1 (3층)", "members_num": 30.0}}, {"type": "Feature", "geometry": {"type": "Point", "coordinates": [129.1537617, 37.4409725]}, "properties": {"name": "삼척중앙감리교회", "address": "(25918) 강원 삼척시 원당안길 23(원당동)", "members_num": 30.0}}, {"type": "Feature", "geometry": {"type": "Point", "coordinates": [129.167082, 37.4362366]}, "properties": {"name": "반석교회", "address": "(25930) 강원 삼척시 중앙로4길 14-34 2층 반석교회", "members_num": 30.0}}, {"type": "Feature", "geometry": {"type": "Point", "coordinates": [129.1062735, 37.5393521]}, "properties": {"name": "동해만나교회", "address": "(25730) 강원 동해시 해안로447", "members_num": 80.0}}, {"type": "Feature", "geometry": {"type": "Point", "coordinates": [129.1735189, 37.4526259]}, "properties": {"name": "큰빛교회", "address": "(25911) 강원 삼척시 교동로 107", "members_num": 600.0}}, {"type": "Feature", "geometry": {"type": "Point", "coordinates": [129.1020866, 37.5405335]}, "properties": {"name": "소망교회", "address": "(25731) 강원 동해시 발한로 92 2층", "members_num": 20.0}}, {"type": "Feature", "geometry": {"type": "Point", "coordinates": [129.1143708, 37.559242]}, "properties": {"name": "온누리교회", "address": "(25710) 강원 동해시 해맞이길 215", "members_num": 22.0}}, {"type": "Feature", "geometry": {"type": "Point", "coordinates": [127.7085641, 38.1044505]}, "properties": {"name": "시온교회", "address": "(24123) 강원 화천군 중앙로9길 20-19", "members_num": 51.0}}, {"type": "Feature", "geometry": {"type": "Point", "coordinates": [128.8890494, 37.7400671]}, "properties": {"name": "행복한교회", "address": "(25604) 강원 강릉시 남산초교길 88 행복한교회", "members_num": 80.0}}, {"type": "Feature", "geometry": {"type": "Point", "coordinates": [127.9333653, 37.6608351]}, "properties": {"name": "반석교회", "address": "(25153) 강원 홍천군 영귀미면 월운로 205", "members_num": 19.0}}, {"type": "Feature", "geometry": {"type": "Point", "coordinates": [127.9528349, 37.3385892]}, "properties": {"name": "구세군원주교회", "address": "(26433) 강원 원주시 남원로634-21", "members_num": 50.0}}, {"type": "Feature", "geometry": {"type": "Point", "coordinates": [127.3035598, 38.1452198]}, "properties": {"name": "구세군철원교회", "address": "(24045) 강원 철원군 갈말읍 명성로 135-22 구세군철원교회", "members_num": 30.0}}, {"type": "Feature", "geometry": {"type": "Point", "coordinates": [127.7268015, 37.9050884]}, "properties": {"name": "구세군춘천교회", "address": "(24226) 강원 춘천시 사우5길 13 구세군춘천교회", "members_num": 60.0}}, {"type": "Feature", "geometry": {"type": "Point", "coordinates": [128.9093781, 37.770955]}, "properties": {"name": "구세군강릉교회", "address": "(25487) 강원 강릉시 가작로 312 2층", "members_num": 14.0}}, {"type": "Feature", "geometry": {"type": "Point", "coordinates": [127.9585079, 37.3483185]}, "properties": {"name": "원주화목교회", "address": "(26329) 강원 원주시 치악로 1871", "members_num": 20.0}}, {"type": "Feature", "geometry": {"type": "Point", "coordinates": [127.758575, 37.881679]}, "properties": {"name": "거성교회", "address": "(24216) 강원 춘천시 동면 만천로 143번길 12", "members_num": 100.0}}, {"type": "Feature", "geometry": {"type": "Point", "coordinates": [129.112825, 37.5190271]}, "properties": {"name": "생명교회", "address": "(25771) 강원 동해시 동굴로63", "members_num": 44.0}}, {"type": "Feature", "geometry": {"type": "Point", "coordinates": [127.6901042, 37.850813]}, "properties": {"name": "남춘천그리스도의교회", "address": "(24239) 강원 춘천시 송암길 17-15", "members_num": 30.0}}, {"type": "Feature", "geometry": {"type": "Point", "coordinates": [128.7518956, 37.466557]}, "properties": {"name": "지경성결교회", "address": "(26105) 강원 정선군 지경동길49-8", "members_num": 5.0}}, {"type": "Feature", "geometry": {"type": "Point", "coordinates": [127.9889363, 38.1019545]}, "properties": {"name": "안디옥교회", "address": "(24542) 강원 양구군 양구읍 청춘로 8", "members_num": 50.0}}, {"type": "Feature", "geometry": {"type": "Point", "coordinates": [127.7929221, 37.1729219]}, "properties": {"name": "원주신흥교회", "address": "(26499) 강원 원주시 부론면 부귀로 1195번지", "members_num": 30.0}}, {"type": "Feature", "geometry": {"type": "Point", "coordinates": [127.3431674, 38.2478627]}, "properties": {"name": "토성교회", "address": "(24029) 강원 철원군 갈말읍 토성안길 13-18", "members_num": 12.0}}, {"type": "Feature", "geometry": {"type": "Point", "coordinates": [127.953844, 37.3348778]}, "properties": {"name": "더풍성한교회", "address": "(26446) 강원 원주시 치악로 1735번길56-13 상가2층", "members_num": 20.0}}, {"type": "Feature", "geometry": {"type": "Point", "coordinates": [127.6802989, 37.9618819]}, "properties": {"name": "신북교회", "address": "(242-02) 강원 춘천시 신북읍 서원말길 30", "members_num": 30.0}}, {"type": "Feature", "geometry": {"type": "Point", "coordinates": [127.755649, 37.8756282]}, "properties": {"name": "주향기교회", "address": "(24312) 강원 춘천시 후만로98번길 10-1", "members_num": 26.0}}, {"type": "Feature", "geometry": {"type": "Point", "coordinates": [128.7019275, 37.6747469]}, "properties": {"name": "강산교회", "address": "(25347) 강원 평창군 대관령면 대관령로 46-4, 강산타운 2층 강산교회", "members_num": 50.0}}, {"type": "Feature", "geometry": {"type": "Point", "coordinates": [127.7539259, 37.8909327]}, "properties": {"name": "평성교회", "address": "(24296) 강원 춘천시 만천로 249번길 6", "members_num": 60.0}}, {"type": "Feature", "geometry": {"type": "Point", "coordinates": [127.7223565, 37.8586549]}, "properties": {"name": "서로사랑교회", "address": "(24454) 강원 춘천시 춘천시 행촌로11.상가204(퇴계동.한성한진아파트)", "members_num": 40.0}}, {"type": "Feature", "geometry": {"type": "Point", "coordinates": [127.9433103, 37.340729]}, "properties": {"name": "북원교회", "address": "(26438) 강원 원주시 남산로9번길12", "members_num": 500.0}}, {"type": "Feature", "geometry": {"type": "Point", "coordinates": [128.575513, 38.2069529]}, "properties": {"name": "은혜감리교회", "address": "(24820) 강원 속초시 교동781", "members_num": 70.0}}, {"type": "Feature", "geometry": {"type": "Point", "coordinates": [127.7294216, 37.8638617]}, "properties": {"name": "남춘천침례교회", "address": "(24370) 강원 춘천시 퇴계로77번길 7-10", "members_num": 40.0}}, {"type": "Feature", "geometry": {"type": "Point", "coordinates": [128.4422525, 37.4532922]}, "properties": {"name": "안미감리교회", "address": "(25361) 강원 평창군 대화면 가평로 29", "members_num": 100.0}}, {"type": "Feature", "geometry": {"type": "Point", "coordinates": [127.8777509, 37.6861149]}, "properties": {"name": "꿈꾸는교회", "address": "(25140) 강원 홍천군 홍천읍 송학강변로1길 23", "members_num": 30.0}}, {"type": "Feature", "geometry": {"type": "Point", "coordinates": [127.7359663, 37.8731182]}, "properties": {"name": "동원교회", "address": "(24334) 강원특별자치도 춘천시 효자로124번길15,동원교회(효자동)", "members_num": 60.0}}, {"type": "Feature", "geometry": {"type": "Point", "coordinates": [128.563016, 38.1443644]}, "properties": {"name": "천복교회", "address": "(25005) 강원 양양군 양양군 강현면 복골길243(상복리)", "members_num": 17.0}}, {"type": "Feature", "geometry": {"type": "Point", "coordinates": [127.9154092, 37.3207603]}, "properties": {"name": "원주충정교회", "address": "(26396) 강원 원주시 행가리1길 42-5", "members_num": 700.0}}, {"type": "Feature", "geometry": {"type": "Point", "coordinates": [128.3894216, 37.3672629]}, "properties": {"name": "평창중앙교회", "address": "(25374) 강원 평창군 평창읍 군청길 21", "members_num": 350.0}}, {"type": "Feature", "geometry": {"type": "Point", "coordinates": [128.6700066, 37.2179537]}, "properties": {"name": "함백천일교회", "address": "(26141) 강원 정선군 신동읍 새골1길 6-1", "members_num": 22.0}}, {"type": "Feature", "geometry": {"type": "Point", "coordinates": [128.9018991, 37.7447455]}, "properties": {"name": "에덴의동산교회", "address": "(25592) 강원 강릉시 노암길42번길24", "members_num": 30.0}}, {"type": "Feature", "geometry": {"type": "Point", "coordinates": [128.901096, 37.7598608]}, "properties": {"name": "권능교회", "address": "(25552) 강원 강릉시 경강로2145-2", "members_num": 70.0}}, {"type": "Feature", "geometry": {"type": "Point", "coordinates": [128.6224244, 38.0756075]}, "properties": {"name": "평화교회", "address": "(25022) 강원 양양군 양양로60-1. 4층", "members_num": 10.0}}, {"type": "Feature", "geometry": {"type": "Point", "coordinates": [127.9501164, 37.3328127]}, "properties": {"name": "원주사랑의교회", "address": "(26448) 강원 원주시 송림길33", "members_num": 20.0}}, {"type": "Feature", "geometry": {"type": "Point", "coordinates": [127.956655, 37.396535]}, "properties": {"name": "원주한사랑교회", "address": "(26312) 강원 원주시 장전길 71-15", "members_num": 30.0}}, {"type": "Feature", "geometry": {"type": "Point", "coordinates": [127.956762, 37.3285783]}, "properties": {"name": "사랑의교회", "address": "(26450) 강원 원주시 서원대로463번길21", "members_num": 24.0}}, {"type": "Feature", "geometry": {"type": "Point", "coordinates": [128.5680939, 37.64765209999999]}, "properties": {"name": "풍성한교회", "address": "(25327) 강원 평창군 진부면 진벌2길21-1", "members_num": 200.0}}, {"type": "Feature", "geometry": {"type": "Point", "coordinates": [128.9908335, 37.1496523]}, "properties": {"name": "성공회태백교회", "address": "(26039) 강원 태백시 상장로 36-1", "members_num": 50.0}}, {"type": "Feature", "geometry": {"type": "Point", "coordinates": [127.9156076, 37.3666701]}, "properties": {"name": "원주영광침례교회", "address": "(26349) 강원도 원주시 호저면 우무개로 317-13", "members_num": 50.0}}, {"type": "Feature", "geometry": {"type": "Point", "coordinates": [128.5888943, 38.0824244]}, "properties": {"name": "양양사랑교회", "address": "(25011) 강원도 양양읍 단지길40", "members_num": 20.0}}, {"type": "Feature", "geometry": {"type": "Point", "coordinates": [127.7408386, 37.8555245]}, "properties": {"name": "청지기교회", "address": "(24391) 강원도 춘천시 퇴계로 220-20. 301-205", "members_num": 10.0}}, {"type": "Feature", "geometry": {"type": "Point", "coordinates": [127.7647095, 37.8770481]}, "properties": {"name": "한제채플", "address": "(24217) 강원특별자치도 춘천시 만천로 143번길 97", "members_num": 120.0}}, {"type": "Feature", "geometry": {"type": "Point", "coordinates": [128.4537932, 38.0769519]}, "properties": {"name": "오색교회", "address": "(25033) 강원특별자치도 양양군 서면 안터길11-4 1층", "members_num": 30.0}}, {"type": "Feature", "geometry": {"type": "Point", "coordinates": [128.6770396, 37.1440066]}, "properties": {"name": "녹전감리교회", "address": "(26243) 강원도 영월군 산솔면 영월동로 3067, 녹전교회 영월군 산솔면 영월동로 3067", "members_num": 20.0}}, {"type": "Feature", "geometry": {"type": "Point", "coordinates": [128.6277573, 38.0800176]}, "properties": {"name": "양양성은교회", "address": "(25020) 강원도 양양군 양양읍 거릿말길 19 2층", "members_num": 30.0}}, {"type": "Feature", "geometry": {"type": "Point", "coordinates": [129.1016715, 37.5424211]}, "properties": {"name": "새힘교회", "address": "(25724) 강원도 동해시 발한로 109-1 3층", "members_num": 12.0}}, {"type": "Feature", "geometry": {"type": "Point", "coordinates": [128.1726502, 38.0638831]}, "properties": {"name": "인제침례교회", "address": "(24634) 강원도 인제군 인제로 168번길 51", "members_num": 15.0}}, {"type": "Feature", "geometry": {"type": "Point", "coordinates": [129.1704705, 37.4577266]}, "properties": {"name": "소명교회", "address": "(20909) 강원도 삼척시 뒷나루길 35-18", "members_num": 50.0}}, {"type": "Feature", "geometry": {"type": "Point", "coordinates": [129.1780016, 37.4448028]}, "properties": {"name": "늘푸른교회", "address": "(25926) 강원도 삼척시 정상안1길 14-26 (정상동,늘푸른교회) 김기주 목사", "members_num": 100.0}}, {"type": "Feature", "geometry": {"type": "Point", "coordinates": [129.152624, 37.439653]}, "properties": {"name": "함께하는교회", "address": "(25918) 강원자치도 삼척시 오십천로 301-30 원당현대아파트 103동 1104호", "members_num": 25.0}}, {"type": "Feature", "geometry": {"type": "Point", "coordinates": [129.1189868, 37.5175558]}, "properties": {"name": "신광교회", "address": "(25777) 강원도 동해시 감추1길 18", "members_num": 70.0}}, {"type": "Feature", "geometry": {"type": "Point", "coordinates": [128.5043527, 38.3488842]}, "properties": {"name": "벧엘군인교회", "address": "(24745) 강원도 고성군 죽왕면 공현진한옥길5-39 벧엘교회", "members_num": 130.0}}, {"type": "Feature", "geometry": {"type": "Point", "coordinates": [127.3588528, 38.1879468]}, "properties": {"name": "혜산진승리교회", "address": "(24030) 강원도 철원군 갈말읍 태봉로 1176, 혜산진승리교회", "members_num": 50.0}}, {"type": "Feature", "geometry": {"type": "Point", "coordinates": [127.9177762, 37.3332074]}, "properties": {"name": "고신성도교회", "address": "(26385) 강원특별자치도 원주시 송삼길20-1", "members_num": 50.0}}, {"type": "Feature", "geometry": {"type": "Point", "coordinates": [127.9322306, 37.3107122]}, "properties": {"name": "샘솟는교회", "address": "(26401) 강원도 원주시 판부면 남원로 272-25", "members_num": 30.0}}, {"type": "Feature", "geometry": {"type": "Point", "coordinates": [127.9871274, 37.4947687]}, "properties": {"name": "횡성순복음교회", "address": "(25222) 강원특별자치도 횡성군 횡성읍 읍하로 37번길 9", "members_num": 90.0}}, {"type": "Feature", "geometry": {"type": "Point", "coordinates": [127.9585079, 37.3483185]}, "properties": {"name": "원주행복교회", "address": "(26329) 강원특별자치도 원주시 치악로1878-6", "members_num": 15.0}}, {"type": "Feature", "geometry": {"type": "Point", "coordinates": [128.9122244, 37.7596374]}, "properties": {"name": "맑은샘교회", "address": "(25578) 강원특별자치도 강릉시 월대산로15 2층 203호", "members_num": 30.0}}, {"type": "Feature", "geometry": {"type": "Point", "coordinates": [127.9377282, 37.3450863]}, "properties": {"name": "원주중앙침례교회", "address": "(26424) 강원도 원주시 단구로 37번길 4", "members_num": 100.0}}, {"type": "Feature", "geometry": {"type": "Point", "coordinates": [128.9789249, 37.1594286]}, "properties": {"name": "태백장로교회", "address": "(26034) 강원도 태백시 대학길 69", "members_num": 30.0}}, {"type": "Feature", "geometry": {"type": "Point", "coordinates": [127.8193586, 37.3141407]}, "properties": {"name": "하나품교회", "address": "(26370) 강원 원주시 문막읍건등로39 202호", "members_num": 30.0}}, {"type": "Feature", "geometry": {"type": "Point", "coordinates": [128.8417054, 37.8559451]}, "properties": {"name": "연곡제일감리교회", "address": "(25431) 강원도 강릉시 연곡면 백일길 6", "members_num": 60.0}}, {"type": "Feature", "geometry": {"type": "Point", "coordinates": [129.0635127, 37.2790441]}, "properties": {"name": "도계은총교회", "address": "(25945) 강원특별자치도 삼척시 도계읍 소달길8~7", "members_num": 10.0}}, {"type": "Feature", "geometry": {"type": "Point", "coordinates": [129.0200559, 37.0998569]}, "properties": {"name": "장성태백교회", "address": "(26047) 강원특별자치도 태백시 하장성6길 8-16", "members_num": 20.0}}, {"type": "Feature", "geometry": {"type": "Point", "coordinates": [128.9927007, 37.1651364]}, "properties": {"name": "황지제일교회", "address": "(26021) 강원특별자치도 태백시 황지로 76-10 강원도 태백시 황지로 76-10 황지동", "members_num": 70.0}}, {"type": "Feature", "geometry": {"type": "Point", "coordinates": [128.5254368, 37.2401321]}, "properties": {"name": "장화동교회", "address": "(26222) 강원도 영월군 영월읍 동강로 1120-4", "members_num": 10.0}}, {"type": "Feature", "geometry": {"type": "Point", "coordinates": [128.8520788, 37.498499]}, "properties": {"name": "임계중앙교회", "address": "(26110) 강원특별자치도 정선군 임계면 송계 10길 17", "members_num": 50.0}}, {"type": "Feature", "geometry": {"type": "Point", "coordinates": [128.7972482, 37.4600853]}, "properties": {"name": "반천교회", "address": "(26109) 강원도 정선군 반천고양로 908", "members_num": 27.0}}, {"type": "Feature", "geometry": {"type": "Point", "coordinates": [127.66757, 38.1086316]}, "properties": {"name": "하남교회", "address": "(24144) 강원특별자치도 화천군 하남면 논미1길 143", "members_num": 20.0}}, {"type": "Feature", "geometry": {"type": "Point", "coordinates": [128.7761255, 37.4491784]}, "properties": {"name": "봉정교회", "address": "(26107) 강원특별자치도 정선군 여량면 봉정안길124", "members_num": 15.0}}, {"type": "Feature", "geometry": {"type": "Point", "coordinates": [128.3268037, 37.1758787]}, "properties": {"name": "쌍용중앙교회", "address": "(26214) 강원특별자치도 영월군 한반도면 쌍용로 216-14", "members_num": 25.0}}, {"type": "Feature", "geometry": {"type": "Point", "coordinates": [128.3280521, 37.2371856]}, "properties": {"name": "한반도교회", "address": "(26212) 강원도 영월군 한반도면 신천길 18-6", "members_num": 50.0}}, {"type": "Feature", "geometry": {"type": "Point", "coordinates": [128.4575852, 37.2545723]}, "properties": {"name": "마차중앙교회", "address": "(26209) 강원도 영월군 북면 마차중앙2길65 마차중앙교회", "members_num": 11.0}}, {"type": "Feature", "geometry": {"type": "Point", "coordinates": [128.9172212, 37.76970530000001]}, "properties": {"name": "기쁨의교회", "address": "(25569) 강원도 강릉시 경강로2343번길2-3", "members_num": 15.0}}, {"type": "Feature", "geometry": {"type": "Point", "coordinates": [128.881957, 37.7437444]}, "properties": {"name": "주의숲교회", "address": "(25603) 강원도 강릉시 강릉시 강변로114번길 16. 한라아파트 상가 201호", "members_num": 20.0}}, {"type": "Feature", "geometry": {"type": "Point", "coordinates": [128.5754767, 38.2078193]}, "properties": {"name": "속초평강교회", "address": "(24813) 강원특별자치도 속초시 속초시 미시령로3359번길", "members_num": 80.0}}, {"type": "Feature", "geometry": {"type": "Point", "coordinates": [128.4211305, 38.4424722]}, "properties": {"name": "송정교회", "address": "(24709) 강원특별자치도 고성군 거진읍 건봉사로 1522-10", "members_num": 20.0}}, {"type": "Feature", "geometry": {"type": "Point", "coordinates": [128.4671653, 37.1790641]}, "properties": {"name": "영월제일교회", "address": "(26237) 26237 강원도 영월군 영월읍 하송리 55-1 영월제일교회", "members_num": 300.0}}, {"type": "Feature", "geometry": {"type": "Point", "coordinates": [128.5766343, 38.2311758]}, "properties": {"name": "용촌교회", "address": "(24770) 강원특별자치도 고성군 토성면 용촌2길26-8", "members_num": 30.0}}, {"type": "Feature", "geometry": {"type": "Point", "coordinates": [127.7892123, 38.0543275]}, "properties": {"name": "유촌교회", "address": "(24138) 강원도 화천군 간동면 하원길8", "members_num": 20.0}}, {"type": "Feature", "geometry": {"type": "Point", "coordinates": [127.9574126, 37.3415046]}, "properties": {"name": "주님의숲교회", "address": "(26443) 강원도 원주시 도말리길 60. 2층", "members_num": 8.0}}, {"type": "Feature", "geometry": {"type": "Point", "coordinates": [127.7425729, 37.8879977]}, "properties": {"name": "하늘시민교회", "address": "(24251) 강원특별자치도 춘천시 후석로 421(2층)", "members_num": 20.0}}, {"type": "Feature", "geometry": {"type": "Point", "coordinates": [127.9573389, 37.3166724]}, "properties": {"name": "기뻐하는교회", "address": "(강원도) 원주시 단관공원길 84~2 기뻐하는교회", "members_num": 20.0}}, {"type": "Feature", "geometry": {"type": "Point", "coordinates": [128.8296137, 37.875004]}, "properties": {"name": "창대교회", "address": "(25420) 25420 강원도 강릉시 주문진읍 교항리 298-17 창대교회", "members_num": 30.0}}, {"type": "Feature", "geometry": {"type": "Point", "coordinates": [128.8281358, 37.8960073]}, "properties": {"name": "주문진성결교회", "address": "(25410) 강원도 강릉시 주문진읍 주문로 117-1", "members_num": 150.0}}, {"type": "Feature", "geometry": {"type": "Point", "coordinates": [128.6232075, 38.1106512]}, "properties": {"name": "감리교낙산방주교회", "address": "(25014) 강원도 양양군 양양읍 동해대로 3029-6번지", "members_num": 20.0}}, {"type": "Feature", "geometry": {"type": "Point", "coordinates": [127.9880773, 37.3163657]}, "properties": {"name": "반석교회", "address": "(26468) 강원도 원주시 섭재삼보길 212-6", "members_num": 25.0}}, {"type": "Feature", "geometry": {"type": "Point", "coordinates": [127.7602245, 37.8936845]}, "properties": {"name": "예강교회", "address": "(244-03) 강원도 춘천시 춘천순환로19번길10", "members_num": 25.0}}, {"type": "Feature", "geometry": {"type": "Point", "coordinates": [128.9696626, 37.1813244]}, "properties": {"name": "서머나교회", "address": "(26004) 강원도 태백시 수아밭길 182, 101동102호", "members_num": 30.0}}, {"type": "Feature", "geometry": {"type": "Point", "coordinates": [127.9438283, 37.34234319999999]}, "properties": {"name": "행복한우리교회", "address": "(26438) 강원도 원주시 무실로121 213동506호", "members_num": 30.0}}, {"type": "Feature", "geometry": {"type": "Point", "coordinates": [128.5781492, 38.2017431]}, "properties": {"name": "속초중앙성결교회", "address": "(24847) 강원특별자치도 속초시 만천7길29,속초중앙성결교회(교동)", "members_num": 200.0}}, {"type": "Feature", "geometry": {"type": "Point", "coordinates": [128.8987849, 37.7573497]}, "properties": {"name": "행복한우리교회", "address": "(25551) 강원 강릉시 옥가로 11 3F", "members_num": 50.0}}, {"type": "Feature", "geometry": {"type": "Point", "coordinates": [128.8266022, 37.8937567]}, "properties": {"name": "주문진감리교회", "address": "(25410) 강원 강릉시 항구로 43", "members_num": 300.0}}, {"type": "Feature", "geometry": {"type": "Point", "coordinates": [128.4704862, 37.1887363]}, "properties": {"name": "축복교회", "address": "(26227) 강원특별자치도 영월군 영월읍봉래산로47,축복교회", "members_num": 50.0}}, {"type": "Feature", "geometry": {"type": "Point", "coordinates": [128.5903544, 38.1850171]}, "properties": {"name": "온누리평화감리교회", "address": "(24898) 강원특별자치도 속초시 온정로1길11-8,102동102호(조양동,대광로제비앙아파트)", "members_num": 100.0}}, {"type": "Feature", "geometry": {"type": "Point", "coordinates": [127.7219253, 37.9104497]}, "properties": {"name": "사우동교회", "address": "(24235) 강원특별자치도 춘천시 윗가래목길9,사우동교회(사농동)", "members_num": 200.0}}, {"type": "Feature", "geometry": {"type": "Point", "coordinates": [127.7638859, 37.9556306]}, "properties": {"name": "장본교회", "address": "(24203) 강원특별자치도 춘천시 신북읍장본2길40,장본교회", "members_num": 30.0}}, {"type": "Feature", "geometry": {"type": "Point", "coordinates": [127.7411916, 37.8436413]}, "properties": {"name": "이롬일터교회", "address": "(24427) 강원도 춘천시 퇴계농공로 111", "members_num": 50.0}}, {"type": "Feature", "geometry": {"type": "Point", "coordinates": [128.3600195, 38.2635738]}, "properties": {"name": "선돌교회", "address": "(24742) 강원도 고성군 간성읍 흘리길 2", "members_num": 20.0}}, {"type": "Feature", "geometry": {"type": "Point", "coordinates": [127.7505997, 37.8876507]}, "properties": {"name": "햇빛교회", "address": "(24233) 강원 춘천시 춘천로 381-2, 2층", "members_num": 75.0}}, {"type": "Feature", "geometry": {"type": "Point", "coordinates": [129.0838159, 37.3464405]}, "properties": {"name": "신기중앙교회", "address": "(25943) 강원 삼척시 신기면 신기역길 48-58", "members_num": 15.0}}, {"type": "Feature", "geometry": {"type": "Point", "coordinates": [128.0334314, 38.1902279]}, "properties": {"name": "동면교회", "address": "(24508) 강원도 양구군 동면 금강산로1521 동면교회", "members_num": 85.0}}, {"type": "Feature", "geometry": {"type": "Point", "coordinates": [128.3900487, 37.3072449]}, "properties": {"name": "순복음평창교회", "address": "(25378) 강원 평창군 원동재로179", "members_num": 200.0}}]}