{"type": "FeatureCollection", "features": [{"type": "Feature", "geometry": {"type": "Point", "coordinates": [126.3378195, 33.4026105]}, "properties": {"name": "제주어울림교회", "address": "(63038) 제주 제주시 애월읍 어음10길 7", "members_num": 4.0}}, {"type": "Feature", "geometry": {"type": "Point", "coordinates": [126.567654, 33.5219894]}, "properties": {"name": "순복음풍성한교회", "address": "(63290) 제주 제주시 진동로5길45 2층", "members_num": 5.0}}, {"type": "Feature", "geometry": {"type": "Point", "coordinates": [126.2224708, 33.2806172]}, "properties": {"name": "평지교회", "address": "(63501) 제주 서귀포시 대정읍 무영로 228번길 8-8", "members_num": 25.0}}, {"type": "Feature", "geometry": {"type": "Point", "coordinates": [126.396861, 33.4228852]}, "properties": {"name": "제주제일행복한교회", "address": "(63067) 제주 제주시 애월읍 하소로681-6", "members_num": 50.0}}, {"type": "Feature", "geometry": {"type": "Point", "coordinates": [126.6640179, 33.53073090000001]}, "properties": {"name": "하나되는교회", "address": "(6333) 제주 제주시 조천읍함덕남2길80", "members_num": 10.0}}, {"type": "Feature", "geometry": {"type": "Point", "coordinates": [126.5196013, 33.5005348]}, "properties": {"name": "제주주님의교회", "address": "(63183) 제주 제주시 서사로 134, 에덴빌딩3층", "members_num": 50.0}}, {"type": "Feature", "geometry": {"type": "Point", "coordinates": [126.309036, 33.4488194]}, "properties": {"name": "삼다선교회", "address": "(63034) 제주 제주시 곽지8길9", "members_num": 0.0}}, {"type": "Feature", "geometry": {"type": "Point", "coordinates": [126.5419849, 33.5032152]}, "properties": {"name": "쉼이있는교회", "address": "(63215) 제주 제주시 고마로126 3층", "members_num": 10.0}}, {"type": "Feature", "geometry": {"type": "Point", "coordinates": [126.5465828, 33.4719062]}, "properties": {"name": "ㅇ", "address": "(2층) 제주 제주시 제주도 제주시 인다13길 10-8", "members_num": 6.0}}, {"type": "Feature", "geometry": {"type": "Point", "coordinates": [126.5109855, 33.4880787]}, "properties": {"name": "제주오라교회", "address": "(63145) 제주 제주시 연사길 98", "members_num": 150.0}}, {"type": "Feature", "geometry": {"type": "Point", "coordinates": [126.2648884, 33.4158208]}, "properties": {"name": "엔게디교회", "address": "(63031) 제주 제주시 한림읍 한림로 683 2층", "members_num": 20.0}}, {"type": "Feature", "geometry": {"type": "Point", "coordinates": [126.5182817, 33.5003668]}, "properties": {"name": "제주비전교회", "address": "(63183) 제주 제주시 평전1길7 태흥그린피아아파트 201호", "members_num": 50.0}}, {"type": "Feature", "geometry": {"type": "Point", "coordinates": [126.5836324, 33.5205773]}, "properties": {"name": "청지기교회", "address": "(63321) 제주 제주시 지석10길7-7", "members_num": 15.0}}, {"type": "Feature", "geometry": {"type": "Point", "coordinates": [126.5197311, 33.5083248]}, "properties": {"name": "제주예안교회", "address": "(63172) 제주 제주시 서사로48,3층303호제주예안교회(삼도일동)", "members_num": 15.0}}, {"type": "Feature", "geometry": {"type": "Point", "coordinates": [126.6069758, 33.2628731]}, "properties": {"name": "꿈의교회(제주)", "address": "(63605) 제주 서귀포시 효돈로75", "members_num": 10.0}}, {"type": "Feature", "geometry": {"type": "Point", "coordinates": [126.6741591, 33.532496]}, "properties": {"name": "주임재교회", "address": "(63334) 제주 제주시 조천읍 함덕남12길 19-6 진우빌라 102동 502호", "members_num": 3.0}}, {"type": "Feature", "geometry": {"type": "Point", "coordinates": [126.274329, 33.2178639]}, "properties": {"name": "포도원교회", "address": "(143번길15) 제주 서귀포시 대정읍 송악관광로", "members_num": 15.0}}, {"type": "Feature", "geometry": {"type": "Point", "coordinates": [126.5865191, 33.2645399]}, "properties": {"name": "서귀포사랑의교회", "address": "(63604) 제주 서귀포시 검은여로 237-24 (토평동)", "members_num": 22.0}}, {"type": "Feature", "geometry": {"type": "Point", "coordinates": [126.6147099, 33.2618356]}, "properties": {"name": "평강교회", "address": "(63606) 제주 서귀포시 효돈순환로110", "members_num": 150.0}}, {"type": "Feature", "geometry": {"type": "Point", "coordinates": [126.5561191, 33.2584064]}, "properties": {"name": "세한교회", "address": "(63584) 제주 서귀포시 중산간동로 8071-5 세한교회", "members_num": 50.0}}, {"type": "Feature", "geometry": {"type": "Point", "coordinates": [126.6831761, 33.4838789]}, "properties": {"name": "제주로아교회", "address": "(63342) 제주 제주시 조천읍 중산간동로 923", "members_num": 20.0}}, {"type": "Feature", "geometry": {"type": "Point", "coordinates": [126.6732784, 33.5113495]}, "properties": {"name": "아카페교회", "address": "(63343) 제주 제주시 함와로 349", "members_num": 50.0}}, {"type": "Feature", "geometry": {"type": "Point", "coordinates": [126.5887308, 33.2808605]}, "properties": {"name": "평안교회", "address": "(63603) 제주 서귀포시 토평로 166 평안교회 교육관 1층", "members_num": 110.0}}, {"type": "Feature", "geometry": {"type": "Point", "coordinates": [126.5132118, 33.2369935]}, "properties": {"name": "법환교회", "address": "(63573) 제주 서귀포시 법환로 20", "members_num": 30.0}}, {"type": "Feature", "geometry": {"type": "Point", "coordinates": [126.5410042, 33.4977753]}, "properties": {"name": "탐라교회", "address": "(63225) 제주 제주시 정든로1길36", "members_num": 150.0}}, {"type": "Feature", "geometry": {"type": "Point", "coordinates": [126.4289537, 33.4881836]}, "properties": {"name": "제주열매맺는교회", "address": "(63069) 제주 제주시 외도 우령6길35", "members_num": 10.0}}, {"type": "Feature", "geometry": {"type": "Point", "coordinates": [126.3051602, 33.2577569]}, "properties": {"name": "덕수교회", "address": "(63527) 제주 서귀포시 안덕면 덕수서로 68번길 3-19", "members_num": 40.0}}, {"type": "Feature", "geometry": {"type": "Point", "coordinates": [126.5359481, 33.4982084]}, "properties": {"name": "지구촌교회", "address": "(63211) 제주 제주시 오복5길 18 삼국빌라 지하", "members_num": 6.0}}, {"type": "Feature", "geometry": {"type": "Point", "coordinates": [126.5639408, 33.2605129]}, "properties": {"name": "시냇가에심은교회", "address": "(63585) 제주 서귀포시 중산간동로 7983", "members_num": 50.0}}, {"type": "Feature", "geometry": {"type": "Point", "coordinates": [126.2613923, 33.4123079]}, "properties": {"name": "한림중앙교회", "address": "(63032) 제주 제주시 제주시한림읍한림상로101-2", "members_num": 30.0}}, {"type": "Feature", "geometry": {"type": "Point", "coordinates": [126.4694047, 33.5031845]}, "properties": {"name": "도두교회", "address": "(63112) 제주 제주시 도두1길 2-1", "members_num": 35.0}}, {"type": "Feature", "geometry": {"type": "Point", "coordinates": [126.3361035, 33.2411686]}, "properties": {"name": "예수랑교회", "address": "(63530) 제주 서귀포시 안덕면 화순중앙로 123번길 7", "members_num": 30.0}}, {"type": "Feature", "geometry": {"type": "Point", "coordinates": [126.2029008, 33.270563]}, "properties": {"name": "무릉교회", "address": "(635-01) 제주특별자치도 서귀포시 대정읍 서삼중로 113-5 무릉교회", "members_num": 30.0}}, {"type": "Feature", "geometry": {"type": "Point", "coordinates": [126.6890909, 33.5397507]}, "properties": {"name": "예수영광교회", "address": "(63339) 제주특별자치도 제주시 조천읍 북촌서1길 81", "members_num": 11.0}}, {"type": "Feature", "geometry": {"type": "Point", "coordinates": [126.4728904, 33.4893823]}, "properties": {"name": "꿈을이루는교회", "address": "(63100) 제주특별자치도 제주시정존11길68 302동603호", "members_num": 20.0}}, {"type": "Feature", "geometry": {"type": "Point", "coordinates": [126.6493288, 33.5380958]}, "properties": {"name": "사랑샘교회", "address": "(63331) 제주도 제주시 조천읍 신북로270", "members_num": 30.0}}, {"type": "Feature", "geometry": {"type": "Point", "coordinates": [126.4932715, 33.4832459]}, "properties": {"name": "주함교회", "address": "(63136) 제주특별자치도 제주시 연동12길29", "members_num": 150.0}}, {"type": "Feature", "geometry": {"type": "Point", "coordinates": [126.6676395, 33.5391436]}, "properties": {"name": "하늘사랑교회", "address": "(63333) 제주도 제주시 조천읍 함덕서4길60-13", "members_num": 30.0}}, {"type": "Feature", "geometry": {"type": "Point", "coordinates": [126.5104524, 33.47185450000001]}, "properties": {"name": "크로스교회", "address": "(63147) 제주도 제주시 정실 5길 12", "members_num": 43.0}}, {"type": "Feature", "geometry": {"type": "Point", "coordinates": [126.6318514, 33.534556]}, "properties": {"name": "푸른열매교회", "address": "(63331) 제주도 제주시 조천2길 6", "members_num": 25.0}}, {"type": "Feature", "geometry": {"type": "Point", "coordinates": [126.563163, 33.2520009]}, "properties": {"name": "남제주교회", "address": "(63590) 제주특별자치도 서귀포시 동문동로49-4", "members_num": 50.0}}, {"type": "Feature", "geometry": {"type": "Point", "coordinates": [126.6643028, 33.4978964]}, "properties": {"name": "대흘교회", "address": "(63343) 제주특별자치도 제주시 제주 제주시 조천읍 남조로 2642", "members_num": 50.0}}, {"type": "Feature", "geometry": {"type": "Point", "coordinates": [126.5444681, 33.4940998]}, "properties": {"name": "제일교회", "address": "(63227) 제주특별자치도 제주시 신설로5길 11", "members_num": 50.0}}, {"type": "Feature", "geometry": {"type": "Point", "coordinates": [126.5668534, 33.5207909]}, "properties": {"name": "화북서광교회", "address": "(63289) 제주도 제주시 진남로8길21 3층", "members_num": 25.0}}, {"type": "Feature", "geometry": {"type": "Point", "coordinates": [126.5413868, 33.5056922]}, "properties": {"name": "등대교회(제주)", "address": "(63264) 제주특별자치도 제주시 고마로99 제이티빌딩7층", "members_num": 30.0}}, {"type": "Feature", "geometry": {"type": "Point", "coordinates": [126.518907, 33.509148]}, "properties": {"name": "제주중앙침례교회", "address": "(63172) 제주도 제주시 남성로 127, 2층", "members_num": 25.0}}, {"type": "Feature", "geometry": {"type": "Point", "coordinates": [126.4447641, 33.4808178]}, "properties": {"name": "제주온누리교회", "address": "(63070) 제주특별자치도 제주시 창오길 15", "members_num": 100.0}}, {"type": "Feature", "geometry": {"type": "Point", "coordinates": [126.5182817, 33.5003668]}, "properties": {"name": "제주비전교회", "address": "(63183) 제주특별자치도 제주시 평전1길 7 (삼도일동, 태흥그린피아아파트) 2층 201호", "members_num": 50.0}}, {"type": "Feature", "geometry": {"type": "Point", "coordinates": [126.4447641, 33.4808178]}, "properties": {"name": "제주온누리교회", "address": "(63076) 제주특별자치도 제주시 창오길15", "members_num": 70.0}}, {"type": "Feature", "geometry": {"type": "Point", "coordinates": [126.5784141, 33.5180204]}, "properties": {"name": "제주동안교회", "address": "(63302) 제주특별자치도 제주시 동화로1길 49-24", "members_num": 70.0}}, {"type": "Feature", "geometry": {"type": "Point", "coordinates": [126.5357021, 33.261342]}, "properties": {"name": "서귀포성결교회", "address": "(63569) 제주특별자치도 서귀포시 중산간동로8251,서귀포성결교회비전센터(호근동)", "members_num": 200.0}}, {"type": "Feature", "geometry": {"type": "Point", "coordinates": [126.3045936, 33.2715106]}, "properties": {"name": "대화교회", "address": "(63527) 제주 서귀포시 안덕면 덕수서로 239", "members_num": 50.0}}, {"type": "Feature", "geometry": {"type": "Point", "coordinates": [126.5196013, 33.5005348]}, "properties": {"name": "제주주님의교회", "address": "(63183) 제주 제주시 서사로134, 에덴빌딩3층", "members_num": 100.0}}, {"type": "Feature", "geometry": {"type": "Point", "coordinates": [126.7719986, 33.504134]}, "properties": {"name": "덕천교회", "address": "(63356) 제주특별자치도 제주시 구좌읍 월덕로 529", "members_num": 20.0}}]}